[{"geometry":{"location":{"lat":48.1808741,"lng":11.2589221},"viewport":{"northeast":{"lat":48.1818802802915,"lng":11.2604018302915},"southwest":{"lat":48.1791823197085,"lng":11.2577038697085}}},"icon":"https://maps.gstatic.com/mapfiles/place_api/icons/doctor-71.png","id":"e5e96682bef7f557d503bc98a5af9e5f8966880b","name":"Klinikum Fürstenfeldbruck","opening_hours":{"open_now":true},"photos":[{"height":3000,"html_attributions":["<a href=\"https://maps.google.com/maps/contrib/118063504577134592346\">Reiner</a>"],"photo_reference":"CmRaAAAAyYLAK2EYApu1rc7qga7b1EjVDD4mHFneyaklKja9BIS4zzfIwqajJ9fatMtw-vSyl0FQznkWqvZA9UWkEvvzoIZzwDsrO3_k85Eqaz6XG0UpGOZgRFUesqWvMwNWwT72EhBEvSjDu-UOErR2INOKcsoFGhStFZUSGYU7VjI6wgcyxwE0xstMpg","width":4512}],"place_id":"ChIJ8ZY4F-R_nkcRqgHdrIuaRao","plus_code":{"compound_code":"57J5+8H Fürstenfeldbruck, Germany","global_code":"8FWH57J5+8H"},"rating":2.6,"reference":"ChIJ8ZY4F-R_nkcRqgHdrIuaRao","scope":"GOOGLE","types":["hospital","health","point_of_interest","establishment"],"user_ratings_total":143,"vicinity":"Dachauer Straße 33, Fürstenfeldbruck"},{"geometry":{"location":{"lat":48.36651,"lng":10.89225},"viewport":{"northeast":{"lat":48.3678046302915,"lng":10.8936193802915},"southwest":{"lat":48.3651066697085,"lng":10.8909214197085}}},"icon":"https://maps.gstatic.com/mapfiles/place_api/icons/generic_business-71.png","id":"691a5db33837df8a6c3dd36fba6a0ab8e4278190","name":"Herr Priv Doz. Dr. med. Dr. med. Habil. Georg Reimer","opening_hours":{"open_now":false},"place_id":"ChIJ2aCLb1K9nkcRB1ceFy_6Cu4","plus_code":{"compound_code":"9V8R+JV Augsburg, Germany","global_code":"8FWG9V8R+JV"},"rating":2.9,"reference":"ChIJ2aCLb1K9nkcRB1ceFy_6Cu4","scope":"GOOGLE","types":["hospital","doctor","health","point_of_interest","establishment"],"user_ratings_total":24,"vicinity":"Bahnhofstraße 6, Augsburg"},{"geometry":{"location":{"lat":48.07294,"lng":11.04807},"viewport":{"northeast":{"lat":48.07436043029149,"lng":11.0494185802915},"southwest":{"lat":48.07166246970849,"lng":11.0467206197085}}},"icon":"https://maps.gstatic.com/mapfiles/place_api/icons/doctor-71.png","id":"1d585bb48b8a99a4cd7dd0928a3203284c303844","name":"Psychosomatische Klinik GmbH & Co. Windach-Ammersee KG","opening_hours":{"open_now":false},"photos":[{"height":4056,"html_attributions":["<a href=\"https://maps.google.com/maps/contrib/100154137628779616234\">Psychosomatische Klinik GmbH &amp; Co. Windach-Ammersee KG</a>"],"photo_reference":"CmRaAAAAyVJ6AYDTuDUiXmB21h-HXRN41Qe941fWO-lDdOW9ZwK3JDpla9lMlXjRbomTNaVrQl9An50eXg2mkhuHsNMa3qpmU1HwMy8lnaSeWY9Bs1TFENI7WXa4S7hkbyzrOTBiEhAsCBVONmnckaf448pDVZtnGhSVHdjJ7MpOaRjtmk1F6Bdzp8auVA","width":7378}],"place_id":"ChIJR77_SgIvnEcR42jLqCAmNAI","plus_code":{"compound_code":"32FX+56 Windach, Germany","global_code":"8FWH32FX+56"},"rating":4.3,"reference":"ChIJR77_SgIvnEcR42jLqCAmNAI","scope":"GOOGLE","types":["hospital","health","point_of_interest","establishment"],"user_ratings_total":32,"vicinity":"Schützenstraße 100, Windach"},{"geometry":{"location":{"lat":48.3745973,"lng":10.9043547},"viewport":{"northeast":{"lat":48.37591003029149,"lng":10.9054631802915},"southwest":{"lat":48.37321206970849,"lng":10.9027652197085}}},"icon":"https://maps.gstatic.com/mapfiles/place_api/icons/doctor-71.png","id":"e5214505c201eec43d5dca5cd684573ff862d983","name":"Hospital and Health Park Vincentinum","opening_hours":{"open_now":true},"photos":[{"height":1328,"html_attributions":["<a href=\"https://maps.google.com/maps/contrib/114445894750671223501\">Klinik und Gesundheitspark Vincentinum</a>"],"photo_reference":"CmRaAAAA-V-JNmS_RhJ_jOZa8RXMmh0KcW2ildS-oBj0lIW_dU9ab_7hL3V2NJHlTB21Q1WT70jn6ymwe0TswePg3KqrtUWUAylnmmq8nSY7wbCHrcKrgSHV_N60Y4sYslqrdU7HEhBAg7Okhz7ky5lhONRmwDvTGhSoQUSLtsmAFLHnwGbQWY0yAGFfkQ","width":2048}],"place_id":"ChIJHXoXVFi9nkcRtruofcg9-3I","plus_code":{"compound_code":"9WF3+RP Augsburg, Germany","global_code":"8FWG9WF3+RP"},"rating":4.5,"reference":"ChIJHXoXVFi9nkcRtruofcg9-3I","scope":"GOOGLE","types":["hospital","health","point_of_interest","establishment"],"user_ratings_total":75,"vicinity":"Franziskanergasse 12, Augsburg"},{"geometry":{"location":{"lat":48.0483114,"lng":10.8556862},"viewport":{"northeast":{"lat":48.0494990802915,"lng":10.8564963802915},"southwest":{"lat":48.0468011197085,"lng":10.8537984197085}}},"icon":"https://maps.gstatic.com/mapfiles/place_api/icons/doctor-71.png","id":"0f49dcb4e1e9729678a2c62c16c83c62dd30e9dd","name":"Klinikum Landsberg am Lech","opening_hours":{"open_now":true},"photos":[{"height":3840,"html_attributions":["<a href=\"https://maps.google.com/maps/contrib/107307137638809584874\">Klinikum Landsberg am Lech</a>"],"photo_reference":"CmRaAAAABfYm7oSaIJaLvn89L3kQLaao-MgQ7YDEC64vVVjeQ1eq_vsAeF6r8oxMP5z4Etor1mgKPpMKFnAO506yf6LbTVtvjcEDo4fiBiOylnbIF4mdTaMllW2eB9bRxAnI7vLwEhCMPYiKFngF_zuoHwxHnd4nGhQXhPJ5vh3bNn_7Q1GVpkuIvCrJug","width":5760}],"place_id":"ChIJo-EiTzQjnEcRPZMj2qvbuNE","plus_code":{"compound_code":"2VX4+87 Landsberg am Lech, Germany","global_code":"8FWG2VX4+87"},"rating":3.3,"reference":"ChIJo-EiTzQjnEcRPZMj2qvbuNE","scope":"GOOGLE","types":["hospital","health","point_of_interest","establishment"],"user_ratings_total":90,"vicinity":"50, Bürgermeister-Dr.-Hartmann-Straße, Landsberg am Lech"},{"geometry":{"location":{"lat":48.26500370000001,"lng":11.4285571},"viewport":{"northeast":{"lat":48.2663977802915,"lng":11.4301438802915},"southwest":{"lat":48.2636998197085,"lng":11.4274459197085}}},"icon":"https://maps.gstatic.com/mapfiles/place_api/icons/doctor-71.png","id":"39b5f4e586cf10dc3c1a4dc010018f08f75f58dc","name":"Helios Amper-Klinikum Dachau","opening_hours":{"open_now":true},"photos":[{"height":3024,"html_attributions":["<a href=\"https://maps.google.com/maps/contrib/106796610051059231823\">Herbert H.</a>"],"photo_reference":"CmRaAAAAm9ObsUAjOgQdr3vlhXrQYFIfB4a9Kl6XVQJAdYNuOt-cUA37oXIPNKZye82_TAxJyMHSUxE4fJGNK9zWtcs-pSUbNY_0JNh1IEM_XHGH60G5j5cVlG--OeeZduitMq6iEhAiftj3LhlyqSHk54vx2MUSGhQUYmL5W9e-RmUuwscDtfWH-H7PzA","width":4032}],"place_id":"ChIJqc4N-6V7nkcRebnUUYQqNWw","plus_code":{"compound_code":"7C8H+2C Dachau, Germany","global_code":"8FWH7C8H+2C"},"rating":2.9,"reference":"ChIJqc4N-6V7nkcRebnUUYQqNWw","scope":"GOOGLE","types":["hospital","health","point_of_interest","establishment"],"user_ratings_total":219,"vicinity":"Krankenhausstraße 15, Dachau"},{"geometry":{"location":{"lat":48.14962310000001,"lng":11.4594203},"viewport":{"northeast":{"lat":48.1508198302915,"lng":11.4606681302915},"southwest":{"lat":48.1481218697085,"lng":11.4579701697085}}},"icon":"https://maps.gstatic.com/mapfiles/place_api/icons/generic_business-71.png","id":"6a170d46212b30d4c11286fdb8b6b010561e22cc","name":"Dr. med. Sarah Gekeler","opening_hours":{"open_now":false},"photos":[{"height":2048,"html_attributions":["<a href=\"https://maps.google.com/maps/contrib/104044176867387566245\">Dr. med. Sarah Gekeler</a>"],"photo_reference":"CmRaAAAAjNxFL33lcxwuxkC8syhmRrhBfOlywb4EDcXE0gl2BFyIKkl2bAS62fmZk0-CFtEZ_aNE9-nCMtA5apBdhD1EjsI798PPrASEkEPEvavV-Jo_RVjcsiXhrS6Vn9BedMJcEhD7hyP4_PP5vDkOi20OnDpcGhRvA4w8ohhea1D-kmxOa-tCcoN6yw","width":1540}],"place_id":"ChIJlUTYOPx3nkcR8EYUJX0FVWU","plus_code":{"compound_code":"4FX5+RQ Munich, Germany","global_code":"8FWH4FX5+RQ"},"rating":4,"reference":"ChIJlUTYOPx3nkcR8EYUJX0FVWU","scope":"GOOGLE","types":["hospital","doctor","health","point_of_interest","establishment"],"user_ratings_total":5,"vicinity":"Pasing"},{"geometry":{"location":{"lat":48.3845869,"lng":10.8395524},"viewport":{"northeast":{"lat":48.38595473029149,"lng":10.8411312802915},"southwest":{"lat":48.3832567697085,"lng":10.8384333197085}}},"icon":"https://maps.gstatic.com/mapfiles/place_api/icons/doctor-71.png","id":"ba4737d9206c9fa61d938091938a0d334c7e2a72","name":"Universitätsklinikum Augsburg - Kinderklinik Augsburg | Mutter-Kind-Zentrum Schwaben","opening_hours":{"open_now":true},"photos":[{"height":2736,"html_attributions":["<a href=\"https://maps.google.com/maps/contrib/111695230854693445351\">M. Y.</a>"],"photo_reference":"CmRaAAAAOR1v3bHPOaSH-L0W8CtsnvKyu_N7ihhrRsR09YtyF9xEPehC2dCgYYu8Y-GSx3UT7OgH1k7Fu8M4CEACk0oB2a9mNGUjlCnS9yjz3_DnbxNCJJkTeY3JHGjVr8iSmKktEhA2bzZZmLenPRkWGZfLfFeAGhQYNTB6NiNl1oS3ZHDduVFAHa0LLw","width":3648}],"place_id":"ChIJg7P2v8O8nkcRucapf4zlcxQ","plus_code":{"compound_code":"9RMQ+RR Augsburg, Germany","global_code":"8FWG9RMQ+RR"},"rating":3.1,"reference":"ChIJg7P2v8O8nkcRucapf4zlcxQ","scope":"GOOGLE","types":["hospital","health","point_of_interest","establishment"],"user_ratings_total":49,"vicinity":"Stenglinstraße 2, Augsburg"},{"geometry":{"location":{"lat":48.14480229999999,"lng":11.454247},"viewport":{"northeast":{"lat":48.1463099802915,"lng":11.4554789802915},"southwest":{"lat":48.1436120197085,"lng":11.4527810197085}}},"icon":"https://maps.gstatic.com/mapfiles/place_api/icons/doctor-71.png","id":"354d1849384d46769f01c1958705fd997267cbcc","name":"HELIOS Hospital west of Munich","opening_hours":{"open_now":true},"photos":[{"height":1192,"html_attributions":["<a href=\"https://maps.google.com/maps/contrib/111175380285612750948\">Helios Klinikum München West</a>"],"photo_reference":"CmRaAAAAjrOj5V5T_hnA_VsNmdVvp9TRSFEY1V3w6O5Psh2iYl6bEM_dmRANMagja4OY4SDT14BOeBtdU7ulGXKE4cegd2yct2kEXfGjUWaYqZUke6xQrtFOKZXgZQc1jsRTvLPVEhCz3B3WMWWibVqgAH-hM-FxGhQLysY8d9z_rTuoUXoxD6jBqwBWxA","width":2119}],"place_id":"ChIJvfDnJAfYnUcRQXBsqoAVRHI","plus_code":{"compound_code":"4FV3+WM Munich, Germany","global_code":"8FWH4FV3+WM"},"rating":2.6,"reference":"ChIJvfDnJAfYnUcRQXBsqoAVRHI","scope":"GOOGLE","types":["hospital","health","point_of_interest","establishment"],"user_ratings_total":338,"vicinity":"Steinerweg 5, München"},{"geometry":{"location":{"lat":48.5183383,"lng":11.4987956},"viewport":{"northeast":{"lat":48.5196228302915,"lng":11.5004158302915},"southwest":{"lat":48.5169248697085,"lng":11.4977178697085}}},"icon":"https://maps.gstatic.com/mapfiles/place_api/icons/doctor-71.png","id":"de034386d9dbcb97e1033d971d2cab485cd6c180","name":"Ilmtalklinik Pfaffenhofen","opening_hours":{"open_now":true},"photos":[{"height":3024,"html_attributions":["<a href=\"https://maps.google.com/maps/contrib/108482515932493741879\">Winfried Wagner</a>"],"photo_reference":"CmRaAAAAoihP7oqF1K_6DYTsIz-MBx0RgnJRq0LmeqhXOqnHfEyRde15tJo2grVzj88o3u-11RzYGYXAJdpzf4fQzdU4Q80oyNDl4MddQC3tuw2F07xBttGJVRC1W7i6E32JYvhBEhBdw5fGXOY9LS-FrbB0ZsVwGhSi3w2qNh4Zhdqy5n2dsbLfzo14ZQ","width":5376}],"place_id":"ChIJHf7QiCZcnkcR7hDPaMEtRb0","plus_code":{"compound_code":"GF9X+8G Pfaffenhofen an der Ilm, Germany","global_code":"8FWHGF9X+8G"},"rating":2.9,"reference":"ChIJHf7QiCZcnkcR7hDPaMEtRb0","scope":"GOOGLE","types":["hospital","health","point_of_interest","establishment"],"user_ratings_total":127,"vicinity":"Krankenhausstraße 70, Pfaffenhofen an der Ilm"},{"geometry":{"location":{"lat":48.36596000000001,"lng":10.8901799},"viewport":{"northeast":{"lat":48.3673767802915,"lng":10.8915058802915},"southwest":{"lat":48.3646788197085,"lng":10.8888079197085}}},"icon":"https://maps.gstatic.com/mapfiles/place_api/icons/generic_business-71.png","id":"799907bf6ab14b44248e6107860ab81cfd511ee2","name":"Zweitmeinung vor Rückenoperationen im Schmerzzentrum Augsburg einholen !","opening_hours":{"open_now":false},"photos":[{"height":3264,"html_attributions":["<a href=\"https://maps.google.com/maps/contrib/107214286462996359124\">Zweitmeinung vor Rückenoperationen im Schmerzzentrum Augsburg einholen !</a>"],"photo_reference":"CmRaAAAAYYU5H7VwNzbXzt20ALfb4Pry0KRZmND2hHaXapsOw0hNifCfVH6emxzPqNe4dsqYbAy0wZBGKCwZiSgiPknAKK_RHeappVau8PiYJGO59xlmdlOO9kXRdpYRWeIqvbkTEhC-mHNZ-ThqgI9eczm7LMraGhTL5NglFTS8KOKZLfKx2G5GhdxYWQ","width":2448}],"place_id":"ChIJ3078dU29nkcRlOCfplLp4Dg","plus_code":{"compound_code":"9V8R+93 Augsburg, Germany","global_code":"8FWG9V8R+93"},"reference":"ChIJ3078dU29nkcRlOCfplLp4Dg","scope":"GOOGLE","types":["hospital","doctor","health","point_of_interest","establishment"],"vicinity":"Bahnhofstraße 17/2. Stock, Augsburg"},{"geometry":{"location":{"lat":48.04099000000001,"lng":10.49298},"viewport":{"northeast":{"lat":48.0422491802915,"lng":10.4940976302915},"southwest":{"lat":48.0395512197085,"lng":10.4913996697085}}},"icon":"https://maps.gstatic.com/mapfiles/place_api/icons/doctor-71.png","id":"18cf92dfcde6dad73bd099a182876cc7cc7589e6","name":"Klinikverbund Allgäu gGmbH - Klinik Mindelheim","opening_hours":{"open_now":true},"photos":[{"height":4032,"html_attributions":["<a href=\"https://maps.google.com/maps/contrib/107703618909395840782\">Damir Stanić</a>"],"photo_reference":"CmRZAAAATQae8QorfMmG6c46OWO2kpUNthPmCjhn4ca1kWHmpR4WyVUmYY4PAMYoThiuPI-COpn7VlGJ_bT3TVCpODooWpeHdV3mYIdioKCEciPbh1aR7VjVrtFADu58Urxz0gxLEhDO3JYrNYBx_2-dII8Vv-5UGhQ9Eklw1UiJam9ONeWmIoz8FfrDoQ","width":3024}],"place_id":"ChIJN_rSSyAPnEcR0G5CBePwwEo","plus_code":{"compound_code":"2FRV+95 Mindelheim, Germany","global_code":"8FWG2FRV+95"},"rating":3,"reference":"ChIJN_rSSyAPnEcR0G5CBePwwEo","scope":"GOOGLE","types":["hospital","health","point_of_interest","establishment"],"user_ratings_total":74,"vicinity":"Bad Wörishofer Straße 44, Mindelheim"},{"geometry":{"location":{"lat":48.5416986,"lng":10.8539071},"viewport":{"northeast":{"lat":48.5431451802915,"lng":10.8552171302915},"southwest":{"lat":48.5404472197085,"lng":10.8525191697085}}},"icon":"https://maps.gstatic.com/mapfiles/place_api/icons/doctor-71.png","id":"6465136f077895b0ae658fd4327bc93b72a30aa1","name":"Medizinisches Zentrum Meitingen","opening_hours":{"open_now":false},"photos":[{"height":3120,"html_attributions":["<a href=\"https://maps.google.com/maps/contrib/115459129682027478231\">Viktor Ballon</a>"],"photo_reference":"CmRaAAAApbl6-DXcisD4N2SbDDNxApu9VBNmLiS4sDVaoCoP-MbpdavDpxm3FtCgodY7mw9G1CWuD9tMVwJFWzxlrbnZ1he8DouX5wMOKmI5TWBBvqBTCZ49s7hWy9dfPLgoNOw2EhC4kvVWEbMtyQ7e-CwywGOFGhSWwUw5KebqaZAkNE36jVxbF3fi8Q","width":4160}],"place_id":"ChIJe4sPh0XHnkcRLqtoqhuhXkw","plus_code":{"compound_code":"GVR3+MH Meitingen, Germany","global_code":"8FWGGVR3+MH"},"rating":3.5,"reference":"ChIJe4sPh0XHnkcRLqtoqhuhXkw","scope":"GOOGLE","types":["hospital","health","point_of_interest","establishment"],"user_ratings_total":8,"vicinity":"Schloßstraße 3, Meitingen"},{"geometry":{"location":{"lat":48.67851,"lng":10.80905},"viewport":{"northeast":{"lat":48.6798738302915,"lng":10.8104718302915},"southwest":{"lat":48.6771758697085,"lng":10.8077738697085}}},"icon":"https://maps.gstatic.com/mapfiles/place_api/icons/generic_business-71.png","id":"a835d64ba408312defe1235fc494700f5a634da4","name":"Physiotherapy Bäumenheim, Heike Klauser + Team","opening_hours":{"open_now":false},"place_id":"ChIJ8w3lbPTPnkcR5fdREd53aS0","plus_code":{"compound_code":"MRH5+CJ Asbach-Bäumenheim, Germany","global_code":"8FWGMRH5+CJ"},"rating":3.9,"reference":"ChIJ8w3lbPTPnkcR5fdREd53aS0","scope":"GOOGLE","types":["hospital","health","point_of_interest","establishment"],"user_ratings_total":7,"vicinity":"Bahnhofstraße 22, Asbach-Bäumenheim"},{"geometry":{"location":{"lat":48.57236,"lng":11.26425},"viewport":{"northeast":{"lat":48.5737253302915,"lng":11.2659435302915},"southwest":{"lat":48.5710273697085,"lng":11.2632455697085}}},"icon":"https://maps.gstatic.com/mapfiles/place_api/icons/doctor-71.png","id":"6d477e11fba0637318a4ac8e4bd75bb52d7b410c","name":"Medizinisches Zentrum SOB MVZ-GmbH","place_id":"ChIJBdnY32LxnkcRJXj67Zm05bw","plus_code":{"compound_code":"H7C7+WP Schrobenhausen, Germany","global_code":"8FWHH7C7+WP"},"rating":4,"reference":"ChIJBdnY32LxnkcRJXj67Zm05bw","scope":"GOOGLE","types":["hospital","doctor","health","point_of_interest","establishment"],"user_ratings_total":3,"vicinity":"Högenauer Weg 5, Schrobenhausen"},{"geometry":{"location":{"lat":48.3827409,"lng":10.8400603},"viewport":{"northeast":{"lat":48.38410458029149,"lng":10.8414311302915},"southwest":{"lat":48.38140661970849,"lng":10.8387331697085}}},"icon":"https://maps.gstatic.com/mapfiles/place_api/icons/doctor-71.png","id":"4d24641bb2ea69a7dcd442ba36798299c751801f","name":"Kommunalunternehmen Klinikum Augsburg Bereich Unfall-, Hand- und Wiederherstellungschirurgie im Chirurgischen Zentrum","place_id":"ChIJg7P2v8O8nkcROeZQA79OuLQ","plus_code":{"compound_code":"9RMR+32 Augsburg, Germany","global_code":"8FWG9RMR+32"},"reference":"ChIJg7P2v8O8nkcROeZQA79OuLQ","scope":"GOOGLE","types":["hospital","health","point_of_interest","establishment"],"vicinity":"Stenglinstraße 2, Augsburg"},{"geometry":{"location":{"lat":48.3844686,"lng":10.8398755},"viewport":{"northeast":{"lat":48.3858319302915,"lng":10.8413046802915},"southwest":{"lat":48.3831339697085,"lng":10.8386067197085}}},"icon":"https://maps.gstatic.com/mapfiles/place_api/icons/doctor-71.png","id":"d954000737c5782bc6344aa94aafc9cf3a3691aa","name":"Universitätsklinikum Augsburg Klinik für Kinder und Jugendliche - Hämatologie, Onkologie, Kinderpalliativmedizin","opening_hours":{"open_now":true},"photos":[{"height":2240,"html_attributions":["<a href=\"https://maps.google.com/maps/contrib/108791234957447865109\">Pierre Bretschneider</a>"],"photo_reference":"CmRaAAAAlyIWtbPwPmn_n8sWXap-AMU2OisWAsLZmMmulnF01PUqPU7enWpVjpuSEIJKAhrEBKxo6xizeMuycYCS4vyiP_LQeMJqOOTsUzUTfk7vZkE76xl-_ucZ8D0fuvJ3pBZJEhDtE-sZUfj5qv9J8TsaNcLWGhQi4v96Uv6Cm-7BktVT6P8AjZcfgg","width":4608}],"place_id":"ChIJhctsOcG8nkcRBoRW6WZ8h1U","plus_code":{"compound_code":"9RMQ+QX Augsburg, Germany","global_code":"8FWG9RMQ+QX"},"rating":3.2,"reference":"ChIJhctsOcG8nkcRBoRW6WZ8h1U","scope":"GOOGLE","types":["hospital","health","point_of_interest","establishment"],"user_ratings_total":6,"vicinity":"Stenglinstraße 2, Augsburg"},{"geometry":{"location":{"lat":48.39443290000001,"lng":10.8499336},"viewport":{"northeast":{"lat":48.3958469302915,"lng":10.8512844802915},"southwest":{"lat":48.3931489697085,"lng":10.8485865197085}}},"icon":"https://maps.gstatic.com/mapfiles/place_api/icons/doctor-71.png","id":"27bfb3d35fece514afed2ce126a43571623d95a4","name":"Hypnosestudio Augsburg","photos":[{"height":281,"html_attributions":["<a href=\"https://maps.google.com/maps/contrib/113050725244770231765\">Hypnosestudio Augsburg</a>"],"photo_reference":"CmRaAAAAb5prG8LAgT_xqa85DtqPo47TLIV9M6mmHNHuwonaffHD1Iox6dx0OeSjkF4VgDFRFZ1lWAIZuNAwVXDR31PmPYEWR5iV4gKvMBJjDBm1uNev-PkFPGVZYhwiWZsD3TE8EhBtl1KOdDqfFhHKSFLXPo5RGhScmrhrJd4zc5w8-pJoR03YXZ8nzg","width":380}],"place_id":"ChIJH-mYiOW8nkcRouDht8L-GVg","plus_code":{"compound_code":"9RVX+QX Augsburg, Germany","global_code":"8FWG9RVX+QX"},"reference":"ChIJH-mYiOW8nkcRouDht8L-GVg","scope":"GOOGLE","types":["hospital","health","point_of_interest","establishment"],"vicinity":"Hirschstraße 139, Augsburg"},{"geometry":{"location":{"lat":48.3827409,"lng":10.8400603},"viewport":{"northeast":{"lat":48.38410458029149,"lng":10.8414311302915},"southwest":{"lat":48.38140661970849,"lng":10.8387331697085}}},"icon":"https://maps.gstatic.com/mapfiles/place_api/icons/doctor-71.png","id":"9e427cdd464d1e27fead1a07995543c8323578f9","name":"Herr Claudio Meiss","place_id":"ChIJ3yV5AMS8nkcR5suMdZ10dBg","plus_code":{"compound_code":"9RMR+32 Augsburg, Germany","global_code":"8FWG9RMR+32"},"reference":"ChIJ3yV5AMS8nkcR5suMdZ10dBg","scope":"GOOGLE","types":["hospital","health","point_of_interest","establishment"],"vicinity":"Stenglinstraße 2, Augsburg"},{"geometry":{"location":{"lat":48.3963277,"lng":10.8791669},"viewport":{"northeast":{"lat":48.39770838029149,"lng":10.8801471302915},"southwest":{"lat":48.3950104197085,"lng":10.8774491697085}}},"icon":"https://maps.gstatic.com/mapfiles/place_api/icons/doctor-71.png","id":"0b81c42002e17aaf426c801e819d9919fbcbd1f7","name":"Herr Dr. med. Thomas Kirschner","place_id":"ChIJ-w64vg-9nkcR0SNFj6oXb0Y","plus_code":{"compound_code":"9VWH+GM Augsburg, Germany","global_code":"8FWG9VWH+GM"},"reference":"ChIJ-w64vg-9nkcR0SNFj6oXb0Y","scope":"GOOGLE","types":["hospital","health","point_of_interest","establishment"],"vicinity":"Zirbelstraße 58, Augsburg"}]