[{"geometry":{"location":{"lat":50.94134870000001,"lng":7.008956299999999},"viewport":{"northeast":{"lat":50.9426910802915,"lng":7.010195380291502},"southwest":{"lat":50.9399931197085,"lng":7.007497419708497}}},"icon":"https://maps.gstatic.com/mapfiles/place_api/icons/doctor-71.png","id":"c8a7050731e408c6955f4294713bf2690c0c96a4","name":"Evangelisches Krankenhaus Kalk gGmbH","opening_hours":{"open_now":true},"photos":[{"height":2322,"html_attributions":["<a href=\"https://maps.google.com/maps/contrib/105095406515583079694\">Alaa Pazzo</a>"],"photo_reference":"CmRaAAAAhXCd21PQw5FVmwYj7NwXhdgAwWfoo978DtgIHftyKw_DfozO5NRB367-b9zYc95Y9oVCGeF_O5ezjabNSSDO-2YzrIcG22uzrfIqXLuN1G836dX_mQukaeW0GKiOrx5SEhDxwnBCkhSFWdFkHdd2UWr6GhTVV72zyrN_Id_5YLx7wb2J9S1j1A","width":4128}],"place_id":"ChIJ2QmkxXEmv0cReEQU5CNTe_E","plus_code":{"compound_code":"W2R5+GH Cologne, Germany","global_code":"9F29W2R5+GH"},"rating":3.1,"reference":"ChIJ2QmkxXEmv0cReEQU5CNTe_E","scope":"GOOGLE","types":["hospital","health","point_of_interest","establishment"],"user_ratings_total":190,"vicinity":"Buchforststraße 2, Köln"},{"geometry":{"location":{"lat":50.9919979,"lng":6.923977199999999},"viewport":{"northeast":{"lat":50.9936475302915,"lng":6.9260625},"southwest":{"lat":50.9909495697085,"lng":6.9232821}}},"icon":"https://maps.gstatic.com/mapfiles/place_api/icons/doctor-71.png","id":"da9e8c77627baf0d9330a25d17b69110c48f3425","name":"Heilig Geist-Krankenhaus","opening_hours":{"open_now":true},"photos":[{"height":572,"html_attributions":["<a href=\"https://maps.google.com/maps/contrib/103360818680299712167\">Heilig Geist-Krankenhaus</a>"],"photo_reference":"CmRaAAAAlenhs3tWwzcM53wT-vwxEySMWUC_Z-ejyZ-u6X29HqDN27HsW--QjLkKxwXLDqzNtZkAZRdUew_0u_xinhzzNEj7CcdPJzHvo25CgKCw87Fq1_Aws40PQ6F06yhZYnu9EhBmv2fP2wgHO6R5qCPzpFABGhS-T-TLeaT9FRryt_DE1Jao2Hp0sA","width":850}],"place_id":"ChIJ57CGw-svv0cR1hH8JSWLWw0","plus_code":{"compound_code":"XWRF+QH Cologne, Germany","global_code":"9F28XWRF+QH"},"rating":2.8,"reference":"ChIJ57CGw-svv0cR1hH8JSWLWw0","scope":"GOOGLE","types":["hospital","health","point_of_interest","establishment"],"user_ratings_total":173,"vicinity":"Graseggerstraße 105, Köln"},{"geometry":{"location":{"lat":50.9237464,"lng":6.897513499999999},"viewport":{"northeast":{"lat":50.9253011302915,"lng":6.898988480291502},"southwest":{"lat":50.9226031697085,"lng":6.896290519708497}}},"icon":"https://maps.gstatic.com/mapfiles/place_api/icons/doctor-71.png","id":"567958741a0806b5b43c1c64055f4794068ec2d4","name":"St. Elisabeth-Krankenhaus Köln-Hohenlind","opening_hours":{"open_now":true},"photos":[{"height":567,"html_attributions":["<a href=\"https://maps.google.com/maps/contrib/105243105449731633879\">St. Elisabeth-Krankenhaus Köln-Hohenlind</a>"],"photo_reference":"CmRaAAAArOl4I9MZcdZaSUhXxAN-CA-onX2fB4xHATQg7g9aVxVb9IqAKKAshcdLsUe-1EFtiDKxcqKD2ECHAsIu8QkUQw5xm18sCNpXjwRwVOghoR1lBXN6TgpQl_9kbEYHyEBzEhB-D_n0OY73kYXFXxqwoIZpGhSmSDBdORR03S6pKbNWQxz1hADHpg","width":851}],"place_id":"ChIJS6xYH84kv0cRSDhNRN4cz8g","plus_code":{"compound_code":"WVFX+F2 Cologne, Germany","global_code":"9F28WVFX+F2"},"rating":3.9,"reference":"ChIJS6xYH84kv0cRSDhNRN4cz8g","scope":"GOOGLE","types":["hospital","health","point_of_interest","establishment"],"user_ratings_total":236,"vicinity":"Werthmannstraße 1, Köln"},{"geometry":{"location":{"lat":51.4452039,"lng":7.337368},"viewport":{"northeast":{"lat":51.44755480000001,"lng":7.3393024},"southwest":{"lat":51.44344960000002,"lng":7.334837200000002}}},"icon":"https://maps.gstatic.com/mapfiles/place_api/icons/doctor-71.png","id":"948f59c810ceca750d0413f2782784556d200b9d","name":"Marien Hospital Witten","opening_hours":{"open_now":true},"photos":[{"height":975,"html_attributions":["<a href=\"https://maps.google.com/maps/contrib/103009997845259376046\">aorta besler</a>"],"photo_reference":"CmRaAAAAoP27T-0-ttcG7QoRREetUZp5Hb1atqTXcEywrto-U8WLQQl-MeFGSG--sbUNPXrd9ZTmbBUBjAaMRLRYkOz62taVmwZPiwZN181kURk6bCFHzgpvEWVCVLxxuniCtuWpEhCiQCUv6Wr5i1jnJFzC3WirGhRr3xp1AEf3NYSz1zGFi_ZTaHUqSg","width":1300}],"place_id":"ChIJ6dNasfkhuUcR0qUvdF-bfbU","plus_code":{"compound_code":"C8WP+3W Witten, Germany","global_code":"9F39C8WP+3W"},"rating":3.4,"reference":"ChIJ6dNasfkhuUcR0qUvdF-bfbU","scope":"GOOGLE","types":["hospital","health","point_of_interest","establishment"],"user_ratings_total":174,"vicinity":"Marienplatz 2, Witten"},{"geometry":{"location":{"lat":51.3969065,"lng":6.784719199999998},"viewport":{"northeast":{"lat":51.3987869802915,"lng":6.785672730291501},"southwest":{"lat":51.3960890197085,"lng":6.782974769708496}}},"icon":"https://maps.gstatic.com/mapfiles/place_api/icons/doctor-71.png","id":"1a9ac6ef914aaaec558de39704028632512a4bf0","name":"Sana Kliniken Duisburg","opening_hours":{"open_now":true},"photos":[{"height":3024,"html_attributions":["<a href=\"https://maps.google.com/maps/contrib/105965013784143738648\">Objektive Fotografie</a>"],"photo_reference":"CmRaAAAAlQeHXtcADZSr39g7zqmgO_Uk7hBB-0BTZBdAiNZzGZgWzBmJoY7XPBTeubC2kvvyFLvyEhGfSAkl8oDZT1tdl-2pHJhlE6W6TqkLTFKsXmcqouMde_0hUMejZWv5HTe2EhCzvXfYVqeNqAOMY2zg84BeGhR7a5oZ0enrAF3qTw1Pz0UkBAmnMA","width":4032}],"place_id":"ChIJOQ-VmK64uEcRP1gm6D57GVQ","plus_code":{"compound_code":"9QWM+QV Duisburg, Germany","global_code":"9F389QWM+QV"},"rating":2.6,"reference":"ChIJOQ-VmK64uEcRP1gm6D57GVQ","scope":"GOOGLE","types":["hospital","health","point_of_interest","establishment"],"user_ratings_total":272,"vicinity":"Zu den Rehwiesen 9-11, Duisburg"},{"geometry":{"location":{"lat":50.927612,"lng":6.925112200000001},"viewport":{"northeast":{"lat":50.9289151802915,"lng":6.926266080291502},"southwest":{"lat":50.9262172197085,"lng":6.923568119708498}}},"icon":"https://maps.gstatic.com/mapfiles/place_api/icons/doctor-71.png","id":"003e117eb560b05565a952877a3ba620390f857a","name":"Evangelisches Klinikum Köln Weyertal gGmbH","opening_hours":{"open_now":true},"photos":[{"height":3120,"html_attributions":["<a href=\"https://maps.google.com/maps/contrib/115789363889831169782\">Howin Raul Teica</a>"],"photo_reference":"CmRaAAAAVgAAgtc-9ClvitqUcLmpYIogbH4Sn0pypmaLh4ngRO8g4GJuUPKDJe2rgBSApSuuX9hectAVqkw0g7K8LjrPE1cjxtmyfJSAFARQ7RvjFvxqxRI-wl8-Q2ltXVGCu897EhAR3iLVa4cdZSRbLXLo4_R1GhQRkdlADoo8zeZPGYpGQIQdS1afAw","width":4160}],"place_id":"ChIJ4w2jZOMkv0cRKgHGRfoFFM8","plus_code":{"compound_code":"WWHG+22 Cologne, Germany","global_code":"9F28WWHG+22"},"rating":3.5,"reference":"ChIJ4w2jZOMkv0cRKgHGRfoFFM8","scope":"GOOGLE","types":["hospital","health","point_of_interest","establishment"],"user_ratings_total":142,"vicinity":"Weyertal 76, Köln"},{"geometry":{"location":{"lat":50.9473778,"lng":6.96236},"viewport":{"northeast":{"lat":50.9486814802915,"lng":6.963908480291502},"southwest":{"lat":50.9459835197085,"lng":6.961210519708497}}},"icon":"https://maps.gstatic.com/mapfiles/place_api/icons/doctor-71.png","id":"a1cd68e362acaf528099a6e0d045e9b0f744f611","name":"St. Marien-Hospital","opening_hours":{"open_now":true},"photos":[{"height":3456,"html_attributions":["<a href=\"https://maps.google.com/maps/contrib/113329547567259653876\">Wanders Mann</a>"],"photo_reference":"CmRaAAAAYuNEcQcb6iCop3evRf6DsxKJLECU7PQ1WYVUQtjw_65QvfK6cWWlVgcihjVhoWmZ5bP--Rm1Hr9AwN2v8Xpu9J-Ocd3q9Fa4wKyCAd6Fd5jna5z-E2DzUNGPQcdOyzI2EhDz8iQIdUPC26wkEUqTBm7QGhTz1jK0_8JG7PoHnNAC8-QNnfsHeA","width":4608}],"place_id":"ChIJ4RhV87wlv0cRQa-stQXPssE","plus_code":{"compound_code":"WXW6+XW Cologne, Germany","global_code":"9F28WXW6+XW"},"rating":2.9,"reference":"ChIJ4RhV87wlv0cRQa-stQXPssE","scope":"GOOGLE","types":["hospital","health","point_of_interest","establishment"],"user_ratings_total":95,"vicinity":"Kunibertskloster 11-13, Köln"},{"geometry":{"location":{"lat":51.204577,"lng":7.226809500000001},"viewport":{"northeast":{"lat":51.2058408802915,"lng":7.228299480291502},"southwest":{"lat":51.2031429197085,"lng":7.225601519708498}}},"icon":"https://maps.gstatic.com/mapfiles/place_api/icons/doctor-71.png","id":"9e6758bf33e79def3a2f39dc19ce35e9521ded21","name":"Evangelische Stiftung Tannenhof","opening_hours":{"open_now":true},"photos":[{"height":3120,"html_attributions":["<a href=\"https://maps.google.com/maps/contrib/108980790245439073747\">Thomas Mühleip</a>"],"photo_reference":"CmRaAAAAeQV8Ld_fh8iXspeXfiU3gGtRTKhAl-ZNVg1cv2Nswlt1HFaoo9AyP_xYD9ViMt4oV-dtelRb1pkibZK9z8xoGWVliBXJZ7SG3HOXqL7bLysKfsv1_tizqY3fPWShzrcfEhCl5OnF_Wm-WA9Auq9cGBsuGhRGKTe2p80gzbXw_In6SO2T1W2-Gw","width":4160}],"place_id":"ChIJ2zvJ99QruUcRslPDer3X38M","plus_code":{"compound_code":"663G+RP Remscheid, Germany","global_code":"9F39663G+RP"},"rating":3.3,"reference":"ChIJ2zvJ99QruUcRslPDer3X38M","scope":"GOOGLE","types":["hospital","health","point_of_interest","establishment"],"user_ratings_total":33,"vicinity":"Remscheider Straße 76, Remscheid"},{"geometry":{"location":{"lat":51.0155118,"lng":7.5680209},"viewport":{"northeast":{"lat":51.0170055302915,"lng":7.569614680291502},"southwest":{"lat":51.0143075697085,"lng":7.566916719708497}}},"icon":"https://maps.gstatic.com/mapfiles/place_api/icons/doctor-71.png","id":"7a608e587b864e109f2039a770a849ccf3c08f70","name":"Kreiskrankenhaus Gummersbach","opening_hours":{"open_now":true},"photos":[{"height":3264,"html_attributions":["<a href=\"https://maps.google.com/maps/contrib/114531160574272138248\">Christian Knoll</a>"],"photo_reference":"CmRZAAAAgGi4cIThZGwzEUS4uwWXXsica8g_hU_N-riO2L_VwyX-txga5YeJGkGSA1Sq-I67U4gi4e4RgIy_jzG1GX3i6tY7XVcpPvvfzYQdBRxgQTTq4uLpQSw78FAx2r_4v64IEhBlB2o30bHBxzPIByO_HgImGhSymmAAhL-JLI0wlMuOfWUZbtOtag","width":2448}],"place_id":"ChIJZZtTmQu2vkcRDGCRKOa5Axk","plus_code":{"compound_code":"2H89+66 Gummersbach, Germany","global_code":"9F392H89+66"},"rating":2.7,"reference":"ChIJZZtTmQu2vkcRDGCRKOa5Axk","scope":"GOOGLE","types":["hospital","health","point_of_interest","establishment"],"user_ratings_total":177,"vicinity":"Wilhelm - Breckow - Allee 20, Gummersbach"},{"geometry":{"location":{"lat":51.2497572,"lng":7.1332991},"viewport":{"northeast":{"lat":51.2511813802915,"lng":7.134830480291502},"southwest":{"lat":51.2484834197085,"lng":7.132132519708498}}},"icon":"https://maps.gstatic.com/mapfiles/place_api/icons/doctor-71.png","id":"b39a9266a4a012b0766f3aacfc1a258a82a1c854","name":"Helios Herzzentrum Wuppertal","opening_hours":{"open_now":false},"photos":[{"height":955,"html_attributions":["<a href=\"https://maps.google.com/maps/contrib/103154013872834825524\">Helios Herzzentrum Wuppertal</a>"],"photo_reference":"CmRaAAAAHzGvdTPJRsG7eD4xWpl7lzNhxvLGU_lYKgdIS6pfCRoLxq9Q6iIUv952TmL9LTqXAGdgvslUjM1IyHYA-qrXgkeMqNwdDhboGEdSd5w2QqmQHPx50JswfA7gh-3hwpKrEhBbimu8MWRRWkR94EiJSw0PGhTD2Pyg6USAAeckhfziwJB4EJ9i5A","width":1580}],"place_id":"ChIJae1EHFTWuEcRCjPSE3k_fXs","plus_code":{"compound_code":"64XM+W8 Wuppertal, Germany","global_code":"9F3964XM+W8"},"rating":3.8,"reference":"ChIJae1EHFTWuEcRCjPSE3k_fXs","scope":"GOOGLE","types":["hospital","health","point_of_interest","establishment"],"user_ratings_total":49,"vicinity":"Arrenberger Straße 20, Wuppertal"},{"geometry":{"location":{"lat":50.9325316,"lng":6.980867700000001},"viewport":{"northeast":{"lat":50.9340209802915,"lng":6.981742430291503},"southwest":{"lat":50.9313230197085,"lng":6.979044469708499}}},"icon":"https://maps.gstatic.com/mapfiles/place_api/icons/doctor-71.png","id":"1202c777ecbec6058a71d91b1f4fc32765d73db3","name":"Eduardus-Krankenhaus","opening_hours":{"open_now":true},"photos":[{"height":819,"html_attributions":["<a href=\"https://maps.google.com/maps/contrib/105354381553159856298\">Eduardus-Krankenhaus</a>"],"photo_reference":"CmRaAAAAExsyymPVkvagGzzwHAH15_mYcaMK3q64MibJ7GxMhWFBkWlkcLn1dkq22NCjigka7gHnAg3FIJbHuAPEJNv1HZNesTAoEpE59toyp0fw0F9t40YbHIMi1LvKdn1UKICHEhCO7ab5AugDNnc4n_bJgk_RGhTOO4W53KtBl5GezY8dlbF1j7ZbIg","width":1229}],"place_id":"ChIJZ4Ldvc0lv0cRtg49nlVCSGQ","plus_code":{"compound_code":"WXMJ+28 Cologne, Germany","global_code":"9F28WXMJ+28"},"rating":3.5,"reference":"ChIJZ4Ldvc0lv0cRtg49nlVCSGQ","scope":"GOOGLE","types":["hospital","health","point_of_interest","establishment"],"user_ratings_total":175,"vicinity":"Custodisstraße 3-17, Köln"},{"geometry":{"location":{"lat":51.30979670000001,"lng":7.238013499999999},"viewport":{"northeast":{"lat":51.3110740802915,"lng":7.239453930291502},"southwest":{"lat":51.3083761197085,"lng":7.236755969708497}}},"icon":"https://maps.gstatic.com/mapfiles/place_api/icons/generic_business-71.png","id":"bf35b468cdd24061704efb3bce09bd04b09f673c","name":"Dr. Becker Klinik Juliana","photos":[{"height":1000,"html_attributions":["<a href=\"https://maps.google.com/maps/contrib/103333416056333797348\">Dr. Becker Klinik Juliana</a>"],"photo_reference":"CmRaAAAAeVz3vingSPrxzW9UpZmRx0j-lWDnAU9xsVji3hbpTaxVrfGflb6DnQKabepxxYgs14mf9Jc3fZOUwz44KTk5V97fPdXqeWPA10pVvweeHMYUUYPaUgqBDm4pm00VGfzEEhDXaX2XmIGGspWzY70_A1YpGhSzrAZur1y6AfGzMN7qBri8kwvE-w","width":1500}],"place_id":"ChIJRdZkh8gnuUcRa14f4IhY2OY","plus_code":{"compound_code":"865Q+W6 Wuppertal, Germany","global_code":"9F39865Q+W6"},"rating":2.7,"reference":"ChIJRdZkh8gnuUcRa14f4IhY2OY","scope":"GOOGLE","types":["hospital","health","point_of_interest","establishment"],"user_ratings_total":26,"vicinity":"Mollenkotten 195, Wuppertal"},{"geometry":{"location":{"lat":50.9871227,"lng":6.960106299999999},"viewport":{"northeast":{"lat":50.9890145302915,"lng":6.961398230291502},"southwest":{"lat":50.9863165697085,"lng":6.958700269708499}}},"icon":"https://maps.gstatic.com/mapfiles/place_api/icons/doctor-71.png","id":"373ec0cc817f9bb21e88d9c8f8817e8d95a593d3","name":"St. Agatha hospital Cologne","opening_hours":{"open_now":true},"photos":[{"height":1536,"html_attributions":["<a href=\"https://maps.google.com/maps/contrib/116557121844111024530\">Patrick Obytz</a>"],"photo_reference":"CmRZAAAADbrMsBDdFv8eW7ZADCP8cQd_9JM9v8Ter9MIwwM5VE8I3SV2646txV15NrVa2OZJaM_QouB48ZOubvNy_9Cj8FFO8HJpNEgjpl74QlYGO6CqEbGbvQAyqK-J1wopOr8mEhBO4wp3K9Nk0QIyz7aB9CQQGhT-jk-D7mNrFOOJ9XfOyRI0cL0rFg","width":2048}],"place_id":"ChIJvbA0dXYvv0cR5FvODqypEl4","plus_code":{"compound_code":"XXP6+R2 Cologne, Germany","global_code":"9F28XXP6+R2"},"rating":3.2,"reference":"ChIJvbA0dXYvv0cR5FvODqypEl4","scope":"GOOGLE","types":["hospital","health","point_of_interest","establishment"],"user_ratings_total":88,"vicinity":"Feldgärtenstraße 97, Köln"},{"geometry":{"location":{"lat":51.2117305,"lng":6.7607537},"viewport":{"northeast":{"lat":51.2131457302915,"lng":6.762124730291502},"southwest":{"lat":51.2104477697085,"lng":6.759426769708497}}},"icon":"https://maps.gstatic.com/mapfiles/place_api/icons/doctor-71.png","id":"a8422e2b7ec59248bd1a83f1d627651273dfb9dd","name":"St. Martin's Hospital Dusseldorf","opening_hours":{"open_now":true},"photos":[{"height":4032,"html_attributions":["<a href=\"https://maps.google.com/maps/contrib/100436402754564177445\">Elke Pusch</a>"],"photo_reference":"CmRaAAAANhhYy1NfYhKUjrcKTiySf0SvGwkhQZidm3ynmqxOpnzZdJjc6beJP-eCDfD9V_n3zqRwYaleWo_LjvhlVzAyejlpZeEZi7DcIlcbW7zZ8Qs8gh82JaRXy8VBTsNnoBZIEhCP2Qb6pgqLS-U8Dqo8XcEtGhT1Z9QTEfNXqtl9dEBYqOv5K6E0aw","width":3024}],"place_id":"ChIJxWV2kG3KuEcRnXYzAFxHZls","plus_code":{"compound_code":"6Q66+M8 Düsseldorf, Germany","global_code":"9F386Q66+M8"},"rating":3.7,"reference":"ChIJxWV2kG3KuEcRnXYzAFxHZls","scope":"GOOGLE","types":["hospital","health","point_of_interest","establishment"],"user_ratings_total":96,"vicinity":"Gladbacher Straße 26, Düsseldorf"},{"geometry":{"location":{"lat":51.44518540000001,"lng":7.0327251},"viewport":{"northeast":{"lat":51.4467840802915,"lng":7.034221080291502},"southwest":{"lat":51.4440861197085,"lng":7.031523119708498}}},"icon":"https://maps.gstatic.com/mapfiles/place_api/icons/doctor-71.png","id":"311869caf41ea27276515e3c19132a5aaa47b4de","name":"Elisabeth-Krankenhaus Essen","opening_hours":{"open_now":true},"photos":[{"height":2976,"html_attributions":["<a href=\"https://maps.google.com/maps/contrib/115843508939075461318\">Michael</a>"],"photo_reference":"CmRaAAAAF9S_z34EGK7UiOtanEiqzMgqpgX-Cnk4fxPotHpYVQbFra8vorYYeTmE8okWAPYpmshXDChnciJZqXlcYDVb2rmafuJLdGT3HGmRlQW014ljOLHzo0REG-op7u0m3apPEhDothmVPv8naiMG0exn6XvLGhT9dlX4WXMaIYCxQ_aJQ4E0CCIbNQ","width":3968}],"place_id":"ChIJIX3BCTrduEcRVxB4WBRvH5E","plus_code":{"compound_code":"C2WM+33 Essen, Germany","global_code":"9F39C2WM+33"},"rating":3.4,"reference":"ChIJIX3BCTrduEcRVxB4WBRvH5E","scope":"GOOGLE","types":["hospital","health","point_of_interest","establishment"],"user_ratings_total":182,"vicinity":"Klara-Kopp-Weg 1, Essen"},{"geometry":{"location":{"lat":51.3202457,"lng":6.567502499999999},"viewport":{"northeast":{"lat":51.32377865,"lng":6.571534750000001},"southwest":{"lat":51.31906805000001,"lng":6.562277750000001}}},"icon":"https://maps.gstatic.com/mapfiles/place_api/icons/doctor-71.png","id":"f5a64be96b9d74a1881d021438df237d20e50468","name":"Helios Klinikum Krefeld","opening_hours":{"open_now":true},"photos":[{"height":574,"html_attributions":["<a href=\"https://maps.google.com/maps/contrib/115107659526908658643\">Helios Klinikum Krefeld</a>"],"photo_reference":"CmRaAAAAwmUl-KRo9H_MIcvfZjBtoyrZ6VLaXEx4LmTD1GcArJiZgQ2zr6tkvJUUH9gO6zG4NzH67DFaiwLJEAgw8gay-g-avEshb0mw6NDN0hITkH1XDsBlg0VKi2NUIewikpwXEhA4yXI4xDM-80iXTw7Pwt9yGhR3YVD2ktE7ID0DYnIlCVEyRGU80Q","width":1021}],"place_id":"ChIJ73ezqgSwuEcRIpUmOVkv9lM","plus_code":{"compound_code":"8HC9+32 Krefeld, Germany","global_code":"9F388HC9+32"},"rating":2.9,"reference":"ChIJ73ezqgSwuEcRIpUmOVkv9lM","scope":"GOOGLE","types":["hospital","health","point_of_interest","establishment"],"user_ratings_total":356,"vicinity":"Lutherplatz 40, Krefeld"},{"geometry":{"location":{"lat":51.22411109999999,"lng":6.7796458},"viewport":{"northeast":{"lat":51.22546183029149,"lng":6.780831230291502},"southwest":{"lat":51.22276386970849,"lng":6.778133269708498}}},"icon":"https://maps.gstatic.com/mapfiles/place_api/icons/shopping-71.png","id":"6c31d9af95a59f9d8fe9d290712a2348a4d4ca4c","name":"Smash","place_id":"ChIJkZlUKj3KuEcRATOYD2bIwSk","plus_code":{"compound_code":"6QFH+JV Düsseldorf, Germany","global_code":"9F386QFH+JV"},"rating":5,"reference":"ChIJkZlUKj3KuEcRATOYD2bIwSk","scope":"GOOGLE","types":["hospital","health","point_of_interest","store","establishment"],"user_ratings_total":2,"vicinity":"Königsallee 36, Düsseldorf"},{"geometry":{"location":{"lat":51.03243759999999,"lng":7.033229599999999},"viewport":{"northeast":{"lat":51.034087,"lng":7.038146200000001},"southwest":{"lat":51.02896699999999,"lng":7.025734999999999}}},"icon":"https://maps.gstatic.com/mapfiles/place_api/icons/doctor-71.png","id":"b79a4dc9a0f8ec86159261dd8a289e3abbd5805b","name":"Klinikum Leverkusen","opening_hours":{"open_now":true},"photos":[{"height":3024,"html_attributions":["<a href=\"https://maps.google.com/maps/contrib/112284300815410119955\">Enno Nilson</a>"],"photo_reference":"CmRaAAAAGFUgcMKSgl65_LXl6Fr0PLfWwk2cd7U0Rt9NGqFfjwtfVOzQOFfhOh-5lcYnq1umEuxjYDsQ9RhHyIK-gU_pBkKDj0Zwbp7R6Huh3PJ5neR-wa0F_xQvTAj8XWW1EW9CEhBjWoBc7IeuhOZKiEQ-arlKGhR5a7yIOP__BB2IxqA-1zMKHKf_NQ","width":4032}],"place_id":"ChIJnUyKEkgpv0cRqH3RNN0YBqM","plus_code":{"compound_code":"22JM+X7 Leverkusen, Germany","global_code":"9F3922JM+X7"},"rating":2.7,"reference":"ChIJnUyKEkgpv0cRqH3RNN0YBqM","scope":"GOOGLE","types":["hospital","health","point_of_interest","establishment"],"user_ratings_total":251,"vicinity":"Am Gesundheitspark 11, Leverkusen"},{"geometry":{"location":{"lat":50.9353663,"lng":7.0520496},"viewport":{"northeast":{"lat":50.9367205302915,"lng":7.053167330291503},"southwest":{"lat":50.9340225697085,"lng":7.050469369708498}}},"icon":"https://maps.gstatic.com/mapfiles/place_api/icons/doctor-71.png","id":"44fa87d2a4e1d308b4bffc1221e1e3a17a32bf59","name":"Rheinische Landesklinik Köln Fachklin. für Psychopsychatrie und Psychotherapie","place_id":"ChIJyVe3nLInv0cR5cuU5DZoHQs","plus_code":{"compound_code":"W3P2+4R Cologne, Germany","global_code":"9F29W3P2+4R"},"reference":"ChIJyVe3nLInv0cR5cuU5DZoHQs","scope":"GOOGLE","types":["hospital","health","point_of_interest","establishment"],"vicinity":"Wilhelm-Griesinger-Straße 23, Köln"},{"geometry":{"location":{"lat":51.21287659999999,"lng":6.773189400000001},"viewport":{"northeast":{"lat":51.2140572802915,"lng":6.774618630291502},"southwest":{"lat":51.2113593197085,"lng":6.771920669708497}}},"icon":"https://maps.gstatic.com/mapfiles/place_api/icons/doctor-71.png","id":"adfddb61937a1942d9b5bbc4338ea62c19788e75","name":"Evangelical Hospital Düsseldorf","opening_hours":{"open_now":true},"photos":[{"height":3456,"html_attributions":["<a href=\"https://maps.google.com/maps/contrib/110568832538687026178\">FRM</a>"],"photo_reference":"CmRaAAAA8q5llmlcTj47hgexAdmcimrax_uLoljCVr8yg-Jx9idjhI_oRrSymolW0YMYWtNEAljh5RBi6q-R9Xu19grvGF3Yp_yYPgPAcnOasqcAi0xZJ5KQIXeIIWXYiUg0bbVLEhAL0nNvtQ1e6zaNzlckrYTKGhQfRqkuBnF1-wXGPZOtGKknSoZu5Q","width":4608}],"place_id":"ChIJkc3em2rKuEcR_GsIyUyaOng","plus_code":{"compound_code":"6Q7F+57 Düsseldorf, Germany","global_code":"9F386Q7F+57"},"rating":3,"reference":"ChIJkc3em2rKuEcR_GsIyUyaOng","scope":"GOOGLE","types":["hospital","health","point_of_interest","establishment"],"user_ratings_total":287,"vicinity":"Kirchfeldstraße 40, Düsseldorf"}]