[{"geometry":{"location":{"lat":52.5264618,"lng":13.3766245},"viewport":{"northeast":{"lat":52.53053245000001,"lng":13.38001105},"southwest":{"lat":52.52106224999999,"lng":13.37549565}}},"icon":"https://maps.gstatic.com/mapfiles/place_api/icons/doctor-71.png","id":"04f049538fb01b810d81343c51b93d9f579dc489","name":"Charité – Universitätsmedizin Berlin","photos":[{"height":3000,"html_attributions":["<a href=\"https://maps.google.com/maps/contrib/108641940617330434174\">Dima Skomorochin</a>"],"photo_reference":"CmRaAAAAxPwhz_A4RqICuBqG8cFOvD_dXfTD8Ugsd_YOs9jGmu3f2x1wWIXV5Efv4BzpSHtXg5amvlr2Jrzk-DCA1EPc6UznmEaFUJSOAcr5q0_E_32mGPK1SHH6hSw97WeoIBZCEhAZ_02XfQp5sp-OXXq8BjSLGhSi4Xd5L_cKfRtLjsaIxDnjH9ulZw","width":4000}],"place_id":"ChIJ9dw3SJVRqEcRZp4sOB0XfEE","plus_code":{"compound_code":"G9GG+HJ Berlin, Germany","global_code":"9F4MG9GG+HJ"},"rating":3.3,"reference":"ChIJ9dw3SJVRqEcRZp4sOB0XfEE","scope":"GOOGLE","types":["hospital","health","point_of_interest","establishment"],"user_ratings_total":490,"vicinity":"Charitéplatz 1, Berlin"},{"geometry":{"location":{"lat":52.5264499,"lng":13.3978024},"viewport":{"northeast":{"lat":52.52784553029149,"lng":13.3994554302915},"southwest":{"lat":52.52514756970849,"lng":13.3967574697085}}},"icon":"https://maps.gstatic.com/mapfiles/place_api/icons/doctor-71.png","id":"15400e94e1e9dccca98c93671c2fb3b381f67e3f","name":"Alexianer St. Hedwig-Krankenhaus","opening_hours":{"open_now":true},"photos":[{"height":278,"html_attributions":["<a href=\"https://maps.google.com/maps/contrib/100643495495693344226\">Alexianer St. Hedwig-Krankenhaus</a>"],"photo_reference":"CmRaAAAAok2bNaRT7neVFwwSAgkYWyZRZ3_Dtm1_xDziXcK8gtQcE4el5uvYNkprGxiJFtekQqSqfOsiVFxKgWZKnFnKswAW-sS0ge0RnpPWvo37Is_hF9FxkPjPEiQ3ptvl7OaiEhDn79XXoX-AHXb7mzmoodLuGhTnLMM_cRkPQRrBwmARgejlTrCV5A","width":489}],"place_id":"ChIJfQExjOZRqEcRRze7sZ8pKOw","plus_code":{"compound_code":"G9GX+H4 Berlin, Germany","global_code":"9F4MG9GX+H4"},"rating":3.7,"reference":"ChIJfQExjOZRqEcRRze7sZ8pKOw","scope":"GOOGLE","types":["hospital","health","point_of_interest","establishment"],"user_ratings_total":182,"vicinity":"Große Hamburger Straße 5-11, Berlin"},{"geometry":{"location":{"lat":52.51919830000001,"lng":13.5675249},"viewport":{"northeast":{"lat":52.5204874302915,"lng":13.56832505},"southwest":{"lat":52.5177894697085,"lng":13.56512445}}},"icon":"https://maps.gstatic.com/mapfiles/place_api/icons/doctor-71.png","id":"c79d5f69babb15140f8b02a963b19b9c5c4f977c","name":"Unfallkrankenhaus Berlin","opening_hours":{"open_now":true},"photos":[{"height":3120,"html_attributions":["<a href=\"https://maps.google.com/maps/contrib/114174767906901760820\">Tzvetan Jilkov</a>"],"photo_reference":"CmRZAAAAsqG_86UOsyXRgkK2nYp6bxnkuYl4Vw-wiN3dKxTVZZe1S0_DiT2qM631ss1iFI7OaMVy3L-jP2DtRwjwSXuq9yIK4Yiaz5er_GIRaMBttCJ1xCzCy_Jpk2dcThQW2Y6hEhBmXYIjvdofW9K4jicPyx_MGhQGA945uq7AnCMO_NPHbDY6ZZIg9w","width":4160}],"place_id":"ChIJi0SWTWFJqEcRLueAeMX0EX4","plus_code":{"compound_code":"GH99+M2 Berlin, Germany","global_code":"9F4MGH99+M2"},"rating":3.3,"reference":"ChIJi0SWTWFJqEcRLueAeMX0EX4","scope":"GOOGLE","types":["hospital","health","point_of_interest","establishment"],"user_ratings_total":366,"vicinity":"Warener Straße 7, Berlin"},{"geometry":{"location":{"lat":52.43901390000001,"lng":13.4584758},"viewport":{"northeast":{"lat":52.4403011802915,"lng":13.4600920302915},"southwest":{"lat":52.4376032197085,"lng":13.4573940697085}}},"icon":"https://maps.gstatic.com/mapfiles/place_api/icons/doctor-71.png","id":"4f6ab038dc46ba343f75a3fea47783dbed996c23","name":"Vivantes Klinikum Neukölln","opening_hours":{"open_now":true},"photos":[{"height":313,"html_attributions":["<a href=\"https://maps.google.com/maps/contrib/116555550087694785866\">Vivantes Klinikum Neukölln</a>"],"photo_reference":"CmRaAAAAjlm3PhyuE6_epY7xMZVZWKJBMg2l5RPvc-ft5_qGQHqrxFcipKVMHj2m-3CjbyVYt2fwJRWncxh_FkyOkhBqmY8c17NvhLnh4nSLGAT3JnwSX1Md87E_tCb5sZveHtAlEhBHQwwin4eJrmIyyQEiWeF_GhQj2x5cGWmVqr3ShRfXn2eHYEdHEA","width":849}],"place_id":"ChIJ_Q5ESO1FqEcRP92F_-vf6k8","plus_code":{"compound_code":"CFQ5+J9 Berlin, Germany","global_code":"9F4MCFQ5+J9"},"rating":2.5,"reference":"ChIJ_Q5ESO1FqEcRP92F_-vf6k8","scope":"GOOGLE","types":["hospital","health","point_of_interest","establishment"],"user_ratings_total":466,"vicinity":"Rudower Straße 48, Berlin"},{"geometry":{"location":{"lat":52.4193455,"lng":13.16421},"viewport":{"northeast":{"lat":52.42089653029149,"lng":13.1656105302915},"southwest":{"lat":52.41819856970849,"lng":13.1629125697085}}},"icon":"https://maps.gstatic.com/mapfiles/place_api/icons/doctor-71.png","id":"0ec66aca521ef07dfa8c59758a2dc65743c7900a","name":"Immanuel Hospital Berlin (Wannsee site)","opening_hours":{"open_now":true},"photos":[{"height":400,"html_attributions":["<a href=\"https://maps.google.com/maps/contrib/106725100372103727139\">Immanuel Krankenhaus Berlin (Standort Wannsee)</a>"],"photo_reference":"CmRaAAAAQRwutoKOODsJWRwUiSMTXoyIoj5RdCT-6k2SjztzBUKTu0dQdiWy45qgJh8BJNzttjoghKMEOKZ8Ly-jpkmkrrHAZMhLZ8GGWvMnEGBrWbnMXoH5PDXPmwXOWUhOmd1kEhCcsL0gBRfNwwI2evY1J2m-GhTyYv5iHAiMF4lGEG5VcnAdanzUzg","width":600}],"place_id":"ChIJBeaPS-dYqEcRsQcVCeQ_iJo","plus_code":{"compound_code":"C597+PM Berlin, Germany","global_code":"9F4MC597+PM"},"rating":4.1,"reference":"ChIJBeaPS-dYqEcRsQcVCeQ_iJo","scope":"GOOGLE","types":["hospital","doctor","health","point_of_interest","establishment"],"user_ratings_total":70,"vicinity":"Königstraße 63, Berlin"},{"geometry":{"location":{"lat":52.4809058,"lng":13.3174124},"viewport":{"northeast":{"lat":52.4824088302915,"lng":13.3183950802915},"southwest":{"lat":52.47971086970851,"lng":13.3156971197085}}},"icon":"https://maps.gstatic.com/mapfiles/place_api/icons/doctor-71.png","id":"824709b91f8fde4114b947afc85730b848325342","name":"Sankt Gertrauden Krankenhaus GmbH","opening_hours":{"open_now":true},"photos":[{"height":3024,"html_attributions":["<a href=\"https://maps.google.com/maps/contrib/104893518193966032115\">Дамир Бикмухаметов</a>"],"photo_reference":"CmRaAAAAmXGdwoIpOEtLCPQ3Mp5HiDWw8RQ-p24TnR24J_OaZqayzAwF0RX-6Cd-S_XM-Ezxn2IV1bterxeWNVUZzYLhrfXJT9jJVRgAOF_hUUL63T1Bz_ErDJ6EWvdZ1IpVBHqgEhBw8_sYUIK7C_algz1fCNfaGhSpwg3Lnkz8PRGxQyQ1zRRFnoWSrw","width":4032}],"place_id":"ChIJw9Jry45QqEcRiI8L4MJLJEQ","plus_code":{"compound_code":"F8J8+9X Berlin, Germany","global_code":"9F4MF8J8+9X"},"rating":3.2,"reference":"ChIJw9Jry45QqEcRiI8L4MJLJEQ","scope":"GOOGLE","types":["hospital","health","point_of_interest","establishment"],"user_ratings_total":265,"vicinity":"Paretzer Straße 12, Berlin"},{"geometry":{"location":{"lat":52.54666589999999,"lng":13.3582516},"viewport":{"northeast":{"lat":52.54805658029149,"lng":13.3596690802915},"southwest":{"lat":52.54535861970849,"lng":13.3569711197085}}},"icon":"https://maps.gstatic.com/mapfiles/place_api/icons/doctor-71.png","id":"17b052bbf8695d9e46bf597a4b5f355c8a593547","name":"Medico Leopoldplatz - Ihr Facharztzentrum","opening_hours":{"open_now":true},"photos":[{"height":960,"html_attributions":["<a href=\"https://maps.google.com/maps/contrib/106496408712178984451\">Medico Leopoldplatz - Ihr Facharztzentrum</a>"],"photo_reference":"CmRaAAAAW1UEQEXqP-QCTdG8LLgMwY73O79vM9wyH2htsahv1360hl1jIMlngBDE1R1CY3DU-TbOWF0HAtxfEIB7mnq09TnHhSui8yjjfTporXGGSAMgX5KbuGlPhevisZNy93J8EhDGsFdkhguKulut7U40xaWlGhTpHm4mMjiq-BPSvAvRIlSQX1au0g","width":1280}],"place_id":"ChIJB-FaJIBRqEcRp-gjhhJxhZc","plus_code":{"compound_code":"G9W5+M8 Berlin, Germany","global_code":"9F4MG9W5+M8"},"rating":2.4,"reference":"ChIJB-FaJIBRqEcRp-gjhhJxhZc","scope":"GOOGLE","types":["hospital","health","point_of_interest","establishment"],"user_ratings_total":257,"vicinity":"Müllerstraße 151, Berlin"},{"geometry":{"location":{"lat":52.4782303,"lng":13.3729353},"viewport":{"northeast":{"lat":52.47970524999999,"lng":13.3759656},"southwest":{"lat":52.47653105,"lng":13.36987}}},"icon":"https://maps.gstatic.com/mapfiles/place_api/icons/doctor-71.png","id":"b16e697eb56747808f2db585ac9ab07fe370c37c","name":"St. Joseph Krankenhaus Klinik für Orthopädie und Unfallchirurgie","opening_hours":{"open_now":true},"photos":[{"height":692,"html_attributions":["<a href=\"https://maps.google.com/maps/contrib/109416154419552073035\">Volker Gustedt</a>"],"photo_reference":"CmRaAAAA-CYX9IQWuIL2ak85MWa2ZncG8x7ShO2sYEiSyfen0zEmOoJ6C0rLtRnKJbjPE0-CoTEsjxKetrYn9v56VKMKN9CSLt9GBlo07TXWuGpVnbbNC8jp02JhKxg0Q1714-cZEhDRpRYO9lRfPm8mwAUAMYolGhRe4yhdMCDq5afONjPYsMVJd_8M1Q","width":886}],"place_id":"ChIJ7zt_pRlQqEcRKmpRmadAkNg","plus_code":{"compound_code":"F9HF+75 Berlin, Germany","global_code":"9F4MF9HF+75"},"rating":3.2,"reference":"ChIJ7zt_pRlQqEcRKmpRmadAkNg","scope":"GOOGLE","types":["hospital","health","point_of_interest","establishment"],"user_ratings_total":189,"vicinity":"Wüsthoffstraße 15, Berlin"},{"geometry":{"location":{"lat":52.5062581,"lng":13.3452206},"viewport":{"northeast":{"lat":52.50764128029149,"lng":13.3468741802915},"southwest":{"lat":52.5049433197085,"lng":13.3441762197085}}},"icon":"https://maps.gstatic.com/mapfiles/place_api/icons/doctor-71.png","id":"a7dc9c37275b8eead271b938e7befba756713df8","name":"Franziskus-Krankenhaus","opening_hours":{"open_now":true},"photos":[{"height":2080,"html_attributions":["<a href=\"https://maps.google.com/maps/contrib/100830325366307341539\">rudi kaatz</a>"],"photo_reference":"CmRaAAAA0YbJDDrq7w5Ts5JKgYrNT22Vn7tEsaYHwpUGCOOsqaz5O5R2NFM_0bjQRZZ_T5MqLQD8mlZ_yN_UFnXH4QTw_cE0UD8KUt_Lf-iBYRIxbr3e_lX12k1X0Hje8CAFzf2AEhDq5h_eOKwomT0EqnazbOGmGhSD8giUuhOR-f5tOnmdqTuU0F0vnA","width":3250}],"place_id":"ChIJF-MpqFRQqEcRhIgT0mHyTO4","plus_code":{"compound_code":"G84W+G3 Berlin, Germany","global_code":"9F4MG84W+G3"},"rating":3.6,"reference":"ChIJF-MpqFRQqEcRhIgT0mHyTO4","scope":"GOOGLE","types":["hospital","health","point_of_interest","establishment"],"user_ratings_total":164,"vicinity":"Budapester Straße 15-19, Berlin"},{"geometry":{"location":{"lat":52.4939905,"lng":13.408856},"viewport":{"northeast":{"lat":52.49581638029149,"lng":13.41273985},"southwest":{"lat":52.49311841970849,"lng":13.40531565}}},"icon":"https://maps.gstatic.com/mapfiles/place_api/icons/doctor-71.png","id":"eff02d32bb640818f2151a2733fce6bd0309ef69","name":"Vivantes Hospital Am Urban","opening_hours":{"open_now":true},"photos":[{"height":3240,"html_attributions":["<a href=\"https://maps.google.com/maps/contrib/101899018555914182241\">Michael Mccarthy</a>"],"photo_reference":"CmRaAAAAiLahA9BIp-cgrPENHvSi70XOTQSxpr2td_v7J4kAwXey6YqNygdHtDbM6bJOqbHq0fXfClHSL_Gn9n5a20XTFibyqsMPV50Tp9_erP59eNMw740zdCu9LszYwDiVJbgeEhDFIe54PVQm7wYyfOswn9v9GhRLfRp_GYIKBmD86qxCvuh_OY3gpQ","width":4320}],"place_id":"ChIJ6U9L0c1PqEcRi-fYqlc1qSs","plus_code":{"compound_code":"FCV5+HG Berlin, Germany","global_code":"9F4MFCV5+HG"},"rating":2.5,"reference":"ChIJ6U9L0c1PqEcRi-fYqlc1qSs","scope":"GOOGLE","types":["hospital","health","point_of_interest","establishment"],"user_ratings_total":399,"vicinity":"Dieffenbachstraße 1, Berlin"},{"geometry":{"location":{"lat":52.491378,"lng":13.2911302},"viewport":{"northeast":{"lat":52.4928005302915,"lng":13.2924899802915},"southwest":{"lat":52.4901025697085,"lng":13.2897920197085}}},"icon":"https://maps.gstatic.com/mapfiles/place_api/icons/doctor-71.png","id":"a355fdfdd7d79e735e2b26b36207b4cb770a3d9b","name":"Martin Luther Hospital","opening_hours":{"open_now":true},"photos":[{"height":1363,"html_attributions":["<a href=\"https://maps.google.com/maps/contrib/118277973148041964064\">Martin Luther Krankenhaus</a>"],"photo_reference":"CmRaAAAAN_1TDOMMuqOJcrovYX2lrDqYzvIjosHCWqKXukZkFoMI-xyoj--fsEywL5Uk-zeEKfy2mtOTN_9YQd9saf39mAC-_Nqtn2ifb_T9J0u5EIo8UJlZnNZhwDLrU-4Ib8FwEhBiNUrgukJQ-z4zM9NhTFjCGhSaFDR0S5HE_rzVOIc6UYlkmVIQuQ","width":2048}],"place_id":"ChIJGwErq8BQqEcR5TCCrsKvvQE","plus_code":{"compound_code":"F7RR+HF Berlin, Germany","global_code":"9F4MF7RR+HF"},"rating":3.4,"reference":"ChIJGwErq8BQqEcR5TCCrsKvvQE","scope":"GOOGLE","types":["hospital","health","point_of_interest","establishment"],"user_ratings_total":216,"vicinity":"Caspar-Theyß-Straße 27-31, Berlin"},{"geometry":{"location":{"lat":52.5627078,"lng":13.1560409},"viewport":{"northeast":{"lat":52.56523840000001,"lng":13.16264195},"southwest":{"lat":52.5611864,"lng":13.15059135}}},"icon":"https://maps.gstatic.com/mapfiles/place_api/icons/doctor-71.png","id":"b1d0e65f8b4f98e213c5333ed2ebf23a504546dd","name":"Evangelisches Waldkrankenhaus Spandau","opening_hours":{"open_now":true},"photos":[{"height":1365,"html_attributions":["<a href=\"https://maps.google.com/maps/contrib/100825789689803721824\">Evangelisches Waldkrankenhaus Spandau</a>"],"photo_reference":"CmRaAAAAKh7WZtgNINTbzdxQvTfyVxytpOmw7DLsvkD0u3r2TkWs2vAt-wQ303BSvaD-CyjjKFJoJttP1MuQX0u3O58EZqibNJEshcA6Wtz3mLNAAwFGRtoT7tVEQ9RjNlkg9SLREhC1lKzAtdwHsFiYkyLlCq7BGhR7SWmI803hjgGM-12hu-8Puu5JYg","width":2048}],"place_id":"ChIJz8vQxLD4qEcR0ojgU6LyWFI","plus_code":{"compound_code":"H574+3C Berlin, Germany","global_code":"9F4MH574+3C"},"rating":2.9,"reference":"ChIJz8vQxLD4qEcR0ojgU6LyWFI","scope":"GOOGLE","types":["hospital","health","point_of_interest","establishment"],"user_ratings_total":263,"vicinity":"Haus 20, Stadtrandstraße 555, Berlin"},{"geometry":{"location":{"lat":52.5507637,"lng":13.4680247},"viewport":{"northeast":{"lat":52.5521231302915,"lng":13.4692887302915},"southwest":{"lat":52.5494251697085,"lng":13.4665907697085}}},"icon":"https://maps.gstatic.com/mapfiles/place_api/icons/generic_business-71.png","id":"aaa6c94d36124b914eee051567f97935903b6cdd","name":"Alexian St. Joseph Hospital Berlin-Weissensee","opening_hours":{"open_now":true},"photos":[{"height":3456,"html_attributions":["<a href=\"https://maps.google.com/maps/contrib/108457329496987351701\">Alexianer St. Joseph-Krankenhaus Berlin-Weißensee</a>"],"photo_reference":"CmRaAAAA30AYfq20bRyooVeANukN38qseV4wOmmmvQjwwsw9-V49cX1ACi1BB-EC5XU0VIiWnxKL33ebug8c5KCyp9_erElNp3Dt27UtUdfTH5eqFm_sN2t6SYHu_TE-pat_57yPEhC2lMJn227iI6mQdOZDnm2yGhS--A0KJOfo9jZlk3O5JB8GDHUBxQ","width":4608}],"place_id":"ChIJa-dn8cVNqEcReoCx46CRc0I","plus_code":{"compound_code":"HF29+86 Berlin, Germany","global_code":"9F4MHF29+86"},"rating":3.4,"reference":"ChIJa-dn8cVNqEcReoCx46CRc0I","scope":"GOOGLE","types":["hospital","doctor","health","point_of_interest","establishment"],"user_ratings_total":46,"vicinity":"Gartenstraße 1, Berlin"},{"geometry":{"location":{"lat":52.54966579999999,"lng":13.2068704},"viewport":{"northeast":{"lat":52.5513099802915,"lng":13.2081330802915},"southwest":{"lat":52.5486120197085,"lng":13.2054351197085}}},"icon":"https://maps.gstatic.com/mapfiles/place_api/icons/doctor-71.png","id":"86cff77f66c6c4c1e28e3451342c1cbb64285108","name":"Vivantes Klinikum Spandau","opening_hours":{"open_now":true},"photos":[{"height":313,"html_attributions":["<a href=\"https://maps.google.com/maps/contrib/106883469498904896863\">Vivantes Klinikum Spandau</a>"],"photo_reference":"CmRaAAAAxEC14_63oJEpFc_YQQrhccfXVAzEMMMOofq2O9kpaNCSGjbtcljgwNrlO7xsOylBgJz3mLSRHO-LqwIWGQraMLj-D13AYO4C8e7HMLuLMh5Es6cNmoTk_zjV6VVFls0bEhBiJiR32nrlS6I1rnBDNRcnGhQ_QVlz-rPiMzpKHxaMpJodSrveEA","width":849}],"place_id":"ChIJBQRDnGxWqEcRD0bjmGMdOl4","plus_code":{"compound_code":"G6X4+VP Berlin, Germany","global_code":"9F4MG6X4+VP"},"rating":2.7,"reference":"ChIJBQRDnGxWqEcRD0bjmGMdOl4","scope":"GOOGLE","types":["hospital","health","point_of_interest","establishment"],"user_ratings_total":209,"vicinity":"Neue Bergstraße 6, Berlin"},{"geometry":{"location":{"lat":52.5029005,"lng":13.324507},"viewport":{"northeast":{"lat":52.5040406802915,"lng":13.3259559302915},"southwest":{"lat":52.5013427197085,"lng":13.3232579697085}}},"icon":"https://maps.gstatic.com/mapfiles/place_api/icons/generic_business-71.png","id":"c77289b682dbd2da7be604715673f24d0f0e27fe","name":"goMedus Gesundheitszentrum","opening_hours":{"open_now":false},"photos":[{"height":600,"html_attributions":["<a href=\"https://maps.google.com/maps/contrib/104999060754238138583\">goMedus Gesundheitszentrum</a>"],"photo_reference":"CmRaAAAAysNH4R1F2f8EX4_IcZqqUhMaSdGCex04S_7jJmu9PaCum4zSTY-azostR2KTUqvdxDBndQ8Pr0u74LQBDHXyJsFHrgC_GcixkgbdafPjRJP159hZ3pkE5VN30fAOYq3KEhCGZJswu8TnI5rS8SIrsCdmGhTUGsn0P5Z--4rR3UYNaSW8PK8CvQ","width":800}],"place_id":"ChIJ0-OLd_tQqEcR0wiVbkl85yg","plus_code":{"compound_code":"G83F+5R Berlin, Germany","global_code":"9F4MG83F+5R"},"rating":4,"reference":"ChIJ0-OLd_tQqEcR0wiVbkl85yg","scope":"GOOGLE","types":["doctor","hospital","health","point_of_interest","establishment"],"user_ratings_total":28,"vicinity":"Kurfürstendamm 33, Berlin"},{"geometry":{"location":{"lat":52.8128934,"lng":13.0362547},"viewport":{"northeast":{"lat":52.8142071802915,"lng":13.0378479302915},"southwest":{"lat":52.8115092197085,"lng":13.0351499697085}}},"icon":"https://maps.gstatic.com/mapfiles/place_api/icons/doctor-71.png","id":"bd12c1bc8f211225483a9b3a303fff01b23aebb5","name":"Sana Kliniken Sommerfeld","opening_hours":{"open_now":true},"photos":[{"height":3776,"html_attributions":["<a href=\"https://maps.google.com/maps/contrib/104208502772960967775\">Sana Kliniken Sommerfeld</a>"],"photo_reference":"CmRaAAAAXdIk2hahvwad4v-GrpbmdRq95Kdvqk8YtZpwdxmQ-XFK73RqYPT8Uo38adq-9FEVAK7RxVS1qVkw0d5VVryuzVOLt4f7HpeDCB7c_KIBnwPfs5Avpkyx9tI4iPgMjzQ4EhAu6cjhXCU6xb58CS2rYvUwGhSzznwF0wJ2x10j73OXq6jmgz1GXg","width":5664}],"place_id":"ChIJm1tekdcaqUcRljJKVore2Zs","plus_code":{"compound_code":"R27P+5G Kremmen, Germany","global_code":"9F4MR27P+5G"},"rating":4.1,"reference":"ChIJm1tekdcaqUcRljJKVore2Zs","scope":"GOOGLE","types":["hospital","health","point_of_interest","establishment"],"user_ratings_total":75,"vicinity":"Waldhausstraße 44, Kremmen"},{"geometry":{"location":{"lat":52.42280999999999,"lng":13.2532001},"viewport":{"northeast":{"lat":52.4240998802915,"lng":13.2541527802915},"southwest":{"lat":52.4214019197085,"lng":13.2514548197085}}},"icon":"https://maps.gstatic.com/mapfiles/place_api/icons/doctor-71.png","id":"47632322eff496eb8565606473540baa21b1ccac","name":"Helios Klinikum Emil von Behring","opening_hours":{"open_now":true},"photos":[{"height":2268,"html_attributions":["<a href=\"https://maps.google.com/maps/contrib/102774543226663379230\">Kurt Gruhlke</a>"],"photo_reference":"CmRaAAAAv91LPNNZGHGcyAUTT3C-_LVzv5NiZhXlsOw0sLW5_5Rw6I_w_w6Cvfl11CcV0kx999ygwucWpxmuABh2MnVgptlHEWypfFwZbUQselxcF0PvZIs-gVKojgsIjpR3JioPEhDSE2y5JPZokBX2KLH0q1IGGhRpjX0BzlYHYX1uLAmwExgEOybi8w","width":4032}],"place_id":"ChIJPUOhRc5bqEcR-Gz6PvaT9D8","plus_code":{"compound_code":"C7F3+47 Berlin, Germany","global_code":"9F4MC7F3+47"},"rating":3.2,"reference":"ChIJPUOhRc5bqEcR-Gz6PvaT9D8","scope":"GOOGLE","types":["hospital","health","point_of_interest","establishment"],"user_ratings_total":199,"vicinity":"Walterhöferstraße 11, Berlin"},{"geometry":{"location":{"lat":52.5028629,"lng":13.4130016},"viewport":{"northeast":{"lat":52.5042773302915,"lng":13.4143997302915},"southwest":{"lat":52.5015793697085,"lng":13.4117017697085}}},"icon":"https://maps.gstatic.com/mapfiles/place_api/icons/doctor-71.png","id":"eac3d4495c66065bd673e8b823a4c76ccdcb8001","name":"MVZ Moritzplatz","opening_hours":{"open_now":false},"photos":[{"height":342,"html_attributions":["<a href=\"https://maps.google.com/maps/contrib/116438232110968858768\">MVZ am Moritzplatz</a>"],"photo_reference":"CmRaAAAAacYpgAuCjm5vogxNTLGQ659yyuiCHvIRurJxJ5nU8e3lJWRWEyL8qfFyRtB_fDzwt8cE5xnfSQKpyXcV_LJkQVV8aGFUCgpEvcECSwynlvalVzBmYoEOXLX0AAWdWHZxEhC4AYrxxohYadc4Mn7DeiTYGhTPdb0Ny33d7HPCM4oKZ7BFgwvahw","width":500}],"place_id":"ChIJoyrK9S1OqEcRJdl57cs5OyE","plus_code":{"compound_code":"GC37+46 Berlin, Germany","global_code":"9F4MGC37+46"},"rating":3.1,"reference":"ChIJoyrK9S1OqEcRJdl57cs5OyE","scope":"GOOGLE","types":["hospital","doctor","health","point_of_interest","establishment"],"user_ratings_total":45,"vicinity":"Oranienstraße 158, Berlin"},{"geometry":{"location":{"lat":52.45932140000001,"lng":13.3882586},"viewport":{"northeast":{"lat":52.4607019802915,"lng":13.3892327302915},"southwest":{"lat":52.4580040197085,"lng":13.3865347697085}}},"icon":"https://maps.gstatic.com/mapfiles/place_api/icons/doctor-71.png","id":"473c0bc1f9fc0b30a268583ef4c620f6e6ef60a5","name":"Vivantes Wenckebach-Klinikum","opening_hours":{"open_now":true},"photos":[{"height":313,"html_attributions":["<a href=\"https://maps.google.com/maps/contrib/117415597889253327364\">Vivantes Wenckebach-Klinikum</a>"],"photo_reference":"CmRaAAAA4YLDIt_VL6SX-lHvhUZhzZEZ3TmTxvOVtKayhtQ76fPyLMaWq42s4MZ1h5ZIQFsW2fz_Vao9c4CWjr4XZTERwqpamE7gcU4wZWexyZPUs-NbNey-1dy7jzZ7Ij97RizKEhA83IIUgZxR7_AH_tSzWbkhGhRXRvYMXVMmOloTnEkn_Ua2hK4paA","width":849}],"place_id":"ChIJM5e1avhPqEcRBfp8QFIxDEs","plus_code":{"compound_code":"F95Q+P8 Berlin, Germany","global_code":"9F4MF95Q+P8"},"rating":2.9,"reference":"ChIJM5e1avhPqEcRBfp8QFIxDEs","scope":"GOOGLE","types":["hospital","health","point_of_interest","establishment"],"user_ratings_total":140,"vicinity":"Wenckebachstraße 23, Berlin"},{"geometry":{"location":{"lat":52.5188832,"lng":13.2768899},"viewport":{"northeast":{"lat":52.5201564802915,"lng":13.2782022802915},"southwest":{"lat":52.51745851970851,"lng":13.2755043197085}}},"icon":"https://maps.gstatic.com/mapfiles/place_api/icons/doctor-71.png","id":"2d9e20b3b69a74bdf55189ac93d4f92c8a6d7568","name":"DRK Kliniken Berlin","opening_hours":{"open_now":true},"photos":[{"height":1192,"html_attributions":["<a href=\"https://maps.google.com/maps/contrib/101351945779163713887\">DRK Kliniken Berlin Westend</a>"],"photo_reference":"CmRaAAAAv34yc7DvHtmAkzG5MThgOfm0dSKjH8nPIyesj9XFRjB5KssPt8vW2LwP9SUxHE_Ca-TLHSVxOOAbvWGCeWXY9mbegj5bT0acMukEhJvr6JesVXsqrG1OIcfWmuPZwIUFEhDmvNoix5ke_xjO40fYVvO-GhQ3L8LK0wzK4dW_i19MmFi5jrs6VA","width":2119}],"place_id":"ChIJ5b6hl9RWqEcRzOd2FmyhpVQ","plus_code":{"compound_code":"G79G+HQ Berlin, Germany","global_code":"9F4MG79G+HQ"},"rating":3,"reference":"ChIJ5b6hl9RWqEcRzOd2FmyhpVQ","scope":"GOOGLE","types":["hospital","health","point_of_interest","establishment"],"user_ratings_total":274,"vicinity":"Spandauer Damm 130, Berlin"}]