[{"geometry":{"location":{"lat":53.1426197,"lng":8.205065199999998},"viewport":{"northeast":{"lat":53.1440034802915,"lng":8.206797530291501},"southwest":{"lat":53.1413055197085,"lng":8.204099569708497}}},"icon":"https://maps.gstatic.com/mapfiles/place_api/icons/doctor-71.png","id":"8dbe7d390132935b6c81a0b9a403c082b2f2b606","name":"Evangelisches Krankenhaus Oldenburg","opening_hours":{"open_now":true},"photos":[{"height":2058,"html_attributions":["<a href=\"https://maps.google.com/maps/contrib/111914867524989596998\">Klaus Mittasch</a>"],"photo_reference":"CmRaAAAAjl8I007PhCxnEdeVhxRsoEtwApccZH1ClkK3hcdm3jEe0lgWn8hq_hszYFnbe09ir7xBQ9eeHjLLakdlgGTmnWgjRyY2RYQFEBb_gO3sJfYYofgwSE2p518cxqycEmxTEhAVBSVbxSBI66ZwhtAaYUFVGhRpHyQRW-OvMAXDt8d79m316Bzcrw","width":3660}],"place_id":"ChIJsWJz5qjftkcRZFV4i0ePvOc","plus_code":{"compound_code":"46V4+22 Oldenburg, Germany","global_code":"9F5C46V4+22"},"rating":3.6,"reference":"ChIJsWJz5qjftkcRZFV4i0ePvOc","scope":"GOOGLE","types":["hospital","health","point_of_interest","establishment"],"user_ratings_total":164,"vicinity":"Steinweg 13-17, Oldenburg"},{"geometry":{"location":{"lat":53.0834723,"lng":8.8350782},"viewport":{"northeast":{"lat":53.0849373302915,"lng":8.836939080291502},"southwest":{"lat":53.0822393697085,"lng":8.834241119708498}}},"icon":"https://maps.gstatic.com/mapfiles/place_api/icons/doctor-71.png","id":"0899b3fafc19c4ab0cc0e2aabdb51d6e11f1e753","name":"Hospital St. Joseph-Stift Bremen","opening_hours":{"open_now":true},"photos":[{"height":3024,"html_attributions":["<a href=\"https://maps.google.com/maps/contrib/113953448628312944904\">Mario Lueddecke</a>"],"photo_reference":"CmRaAAAAONq923xW2eOOIeuCCu-g62t5AW4-iqsQ1S-zY27YpNQV20L6eUzLSb46oquUBwwlpQsh7C-AUE3f83ByWlw5rZJqQat9RhMgXk86cniK1TwCxX1gjRmy9hzedcWLUbXcEhBQrtVdjhz8lSwX3dvjRRVDGhQRrBcsdHRtY_4BaD5L8b54_ggymw","width":5376}],"place_id":"ChIJQdTZleAnsUcRc13Vjj-uYp4","plus_code":{"compound_code":"3RMP+92 Bremen, Germany","global_code":"9F5C3RMP+92"},"rating":3.3,"reference":"ChIJQdTZleAnsUcRc13Vjj-uYp4","scope":"GOOGLE","types":["hospital","health","point_of_interest","establishment"],"user_ratings_total":214,"vicinity":"Schwachhauser Heerstraße 54, Bremen"},{"geometry":{"location":{"lat":53.03611519999999,"lng":8.818856499999999},"viewport":{"northeast":{"lat":53.0376022302915,"lng":8.8201908802915},"southwest":{"lat":53.0349042697085,"lng":8.817492919708496}}},"icon":"https://maps.gstatic.com/mapfiles/place_api/icons/doctor-71.png","id":"e8810421140f077e7f95a5c4e1743868150062d9","name":"Klinikum Links der Weser","opening_hours":{"open_now":true},"photos":[{"height":2592,"html_attributions":["<a href=\"https://maps.google.com/maps/contrib/115229580807569660728\">Reiner Hartmann</a>"],"photo_reference":"CmRaAAAAgxGpTThrTUL00y57xUOLElED_idQQKH9y0ay3eqt4bWDViHQ7z5KJ5cNg2b4KHMxWVZPCDbo2TQKP2v7KCmL-ceHsg0z48jibc6rfgEi3AsogKEsffyTzmh80jT2iKI1EhAKB1gb9R6ue1sDN7xrOr3JGhS1lqNVEdBhNmYg7jk5a6CiDFsjFA","width":4608}],"place_id":"ChIJ1w9nxCbYsEcRrpBWHKv0T9k","plus_code":{"compound_code":"2RP9+CG Bremen, Germany","global_code":"9F5C2RP9+CG"},"rating":3.3,"reference":"ChIJ1w9nxCbYsEcRrpBWHKv0T9k","scope":"GOOGLE","types":["hospital","health","point_of_interest","establishment"],"user_ratings_total":201,"vicinity":"Senator-Weßling-Straße 1, Bremen"},{"geometry":{"location":{"lat":53.0445276,"lng":8.592930400000002},"viewport":{"northeast":{"lat":53.0460483802915,"lng":8.594283030291502},"southwest":{"lat":53.0433504197085,"lng":8.591585069708497}}},"icon":"https://maps.gstatic.com/mapfiles/place_api/icons/doctor-71.png","id":"7c5f3b942bdb96721802bd2c4433e495ca2fa33b","name":"Josef Hospital Delmenhorst","opening_hours":{"open_now":true},"photos":[{"height":2250,"html_attributions":["<a href=\"https://maps.google.com/maps/contrib/111914867524989596998\">Klaus Mittasch</a>"],"photo_reference":"CmRaAAAAUUhOhduMSf_oKkx6Bt5ZI1JJcEnz_GNsUyaeDZ_JPj34hvT6XqRFqSUgOeHTdelLpKP-Qpdd-M66JoVU5WHY9r7XMYxFOtGDkVwYTMDDgKGuDwluTvWJEe__lsu6TB0REhBKRiGPCDWSMzVBIP0l6B-hGhQlUaK9XS809yXpJLJwqAeK3p99kA","width":4000}],"place_id":"ChIJcR6Hiy7VsEcRVYePmbWtCc0","plus_code":{"compound_code":"2HVV+R5 Delmenhorst, Germany","global_code":"9F5C2HVV+R5"},"rating":2.5,"reference":"ChIJcR6Hiy7VsEcRVYePmbWtCc0","scope":"GOOGLE","types":["hospital","health","point_of_interest","establishment"],"user_ratings_total":137,"vicinity":"Wildeshauser Straße 92, Delmenhorst"},{"geometry":{"location":{"lat":53.125911,"lng":8.7463731},"viewport":{"northeast":{"lat":53.1274402302915,"lng":8.748129430291502},"southwest":{"lat":53.1247422697085,"lng":8.745431469708498}}},"icon":"https://maps.gstatic.com/mapfiles/place_api/icons/doctor-71.png","id":"63b80e2389b8fb3681e1036e797c14ce608f3c68","name":"DIAKO Ev. Diakonie-Krankenhaus gemeinnützige GmbH","opening_hours":{"open_now":true},"photos":[{"height":2169,"html_attributions":["<a href=\"https://maps.google.com/maps/contrib/106590441281845078538\">DIAKO Ev. Diakonie-Krankenhaus gemeinnützige GmbH</a>"],"photo_reference":"CmRZAAAAfjW607DawSfcx_id_r5Nik57dcS0ZvHUJti1rV8ogQi4EeXmw-SPK-hAMh6u1FK-EpHBr-hdZLSAna2Gqx-Ch78p-NMnhFXV1fqVP7WRGtwsZWVh0T8EaKKkXDz5pcdcEhC0oySLKk7bwhz-iL3RWZGbGhTcvgQYM9VPxkDrp7E4Ab4gWaIzlg","width":2961}],"place_id":"ChIJwWqGU24psUcR1Sglo37n22Q","plus_code":{"compound_code":"4PGW+9G Bremen, Germany","global_code":"9F5C4PGW+9G"},"rating":2.6,"reference":"ChIJwWqGU24psUcR1Sglo37n22Q","scope":"GOOGLE","types":["hospital","health","point_of_interest","establishment"],"user_ratings_total":180,"vicinity":"Gröpelinger Heerstraße 406-408, Bremen"},{"geometry":{"location":{"lat":53.0744168,"lng":8.8398572},"viewport":{"northeast":{"lat":53.07781694999999,"lng":8.848073350000004},"southwest":{"lat":53.07085355000001,"lng":8.832113549999999}}},"icon":"https://maps.gstatic.com/mapfiles/place_api/icons/doctor-71.png","id":"861d1e2a35a316696170280f6a9d97267316a36f","name":"Klinikum Bremen-Mitte","opening_hours":{"open_now":true},"photos":[{"height":4032,"html_attributions":["<a href=\"https://maps.google.com/maps/contrib/111129122953921252585\">Knice Guy</a>"],"photo_reference":"CmRaAAAA-45Gz9lCQirashUnJcXwK3ZMoLvr0qYLN6ogjwdvxUvJIbDxCQTrgOA9YeD1NnHZhaHok5iih0sCWy5Bqvvh7emflQ-8acFgOVpGjQAOzJV2zHnxUsqrnSG03_crWukrEhCXd7DEy-whIKJ0djSbqxZiGhTkQKDX3ZHR_GoooinUQO7xFR91Sg","width":3024}],"place_id":"ChIJ44nu6-QnsUcRkXgPZH8Clug","plus_code":{"compound_code":"3RFQ+QW Bremen, Germany","global_code":"9F5C3RFQ+QW"},"rating":2.6,"reference":"ChIJ44nu6-QnsUcRkXgPZH8Clug","scope":"GOOGLE","types":["hospital","health","point_of_interest","establishment"],"user_ratings_total":305,"vicinity":"Sankt-Jürgen-Straße 1, Bremen"},{"geometry":{"location":{"lat":53.0689349,"lng":8.8032524},"viewport":{"northeast":{"lat":53.0705002802915,"lng":8.8047069302915},"southwest":{"lat":53.0678023197085,"lng":8.802008969708496}}},"icon":"https://maps.gstatic.com/mapfiles/place_api/icons/doctor-71.png","id":"2ebd0348d44513d4df5cee929026f95e83f3b244","name":"Rote Kreuz Krankenhaus","opening_hours":{"open_now":true},"photos":[{"height":3024,"html_attributions":["<a href=\"https://maps.google.com/maps/contrib/102231547975950107922\">Martin Prinzler</a>"],"photo_reference":"CmRaAAAA5TfyVcNTczzqsOGC7pzoupUKT7pVbuKe6GZwxJDFNaNvM41Prsv1pl3s6sRDB9Q9MQJkLPCafya7ZM_L5a7Ow4Vx0VkkxigR2Z1XtxEm2iUWcx13ZxhulE4aNCmmXq8OEhCfjvCHaIxJ1k-UcCOlKrHlGhToKR_UDRomtHavOnb3QMkf4I87hA","width":4032}],"place_id":"ChIJeaSaoB4osUcRxzweyeIa17E","plus_code":{"compound_code":"3R93+H8 Bremen, Germany","global_code":"9F5C3R93+H8"},"rating":3.2,"reference":"ChIJeaSaoB4osUcRxzweyeIa17E","scope":"GOOGLE","types":["hospital","health","point_of_interest","establishment"],"user_ratings_total":100,"vicinity":"Sankt-Pauli-Deich 24, Bremen"},{"geometry":{"location":{"lat":53.1436979,"lng":8.210485799999999},"viewport":{"northeast":{"lat":53.1450710802915,"lng":8.211759630291501},"southwest":{"lat":53.1423731197085,"lng":8.209061669708497}}},"icon":"https://maps.gstatic.com/mapfiles/place_api/icons/doctor-71.png","id":"fa8a51cc141a95b0e7cba289f8d686f448895469","name":"Pius-Hospital Oldenburg","opening_hours":{"open_now":true},"photos":[{"height":1006,"html_attributions":["<a href=\"https://maps.google.com/maps/contrib/116317685274387932493\">Michael Dernoscheck</a>"],"photo_reference":"CmRaAAAAZ_cvEM-v6b_NGp4n8xnbV0A9RtLnTbb37FH0gUu3-RJR3O-TcYU7guJVzZYQ8tr4SxF2_KHG9tKEWCch3s6uG9odK2ESCjjmeKNGktTVsjgT6m4O7Cgod5t78bWxe4tMEhCMmR2sim0VK5W58fOWFxMqGhRGI4UJo20G1lvZiAVoDd7g1fDtuQ","width":1575}],"place_id":"ChIJ-2CWZwfftkcRuqQla1a7ims","plus_code":{"compound_code":"46V6+F5 Oldenburg, Germany","global_code":"9F5C46V6+F5"},"rating":4,"reference":"ChIJ-2CWZwfftkcRuqQla1a7ims","scope":"GOOGLE","types":["hospital","health","point_of_interest","establishment"],"user_ratings_total":114,"vicinity":"Georgstraße 12, Oldenburg"},{"geometry":{"location":{"lat":53.07952239999999,"lng":8.877458800000001},"viewport":{"northeast":{"lat":53.0809460302915,"lng":8.879027030291503},"southwest":{"lat":53.0782480697085,"lng":8.876329069708499}}},"icon":"https://maps.gstatic.com/mapfiles/place_api/icons/doctor-71.png","id":"e865a2b8759a6f2af217cfc6346f97aef4806e9c","name":"Paracelsus Kliniken","opening_hours":{"open_now":false},"photos":[{"height":2362,"html_attributions":["<a href=\"https://maps.google.com/maps/contrib/115523255919801320840\">Paracelsus-Klinik Bremen</a>"],"photo_reference":"CmRaAAAAWbHV16DEbkfiiVwnRgHGyfiBClhDvVeCiOVNXEoUku5YqSXztkD_tvg5c2YcISqFyfhMjBTh9-qMZ6E8NMlGh_YnQ0oaefGtTAU_Vt34A3mO2mssDGZqcM-6ae6HLjaSEhB2MLZxMiHw8KMRppcduSLlGhTpsdIPy72Ub7w3SHnj0KS8gevqEw","width":3543}],"place_id":"ChIJW0aC7JgnsUcR-A4Y5OAvtWg","plus_code":{"compound_code":"3VHG+RX Bremen, Germany","global_code":"9F5C3VHG+RX"},"rating":4.3,"reference":"ChIJW0aC7JgnsUcR-A4Y5OAvtWg","scope":"GOOGLE","types":["hospital","health","point_of_interest","establishment"],"user_ratings_total":59,"vicinity":"In der Vahr 65, Bremen"},{"geometry":{"location":{"lat":53.0750202,"lng":8.8377837},"viewport":{"northeast":{"lat":53.0763375302915,"lng":8.838788430291501},"southwest":{"lat":53.0736395697085,"lng":8.836090469708497}}},"icon":"https://maps.gstatic.com/mapfiles/place_api/icons/generic_business-71.png","id":"0ccf141ff60ac7a02e8a7212b91778096bf12c42","name":"Klinikum Bremen-Mitte Klinik für Mund-Kiefer-Gesichtschirurgie","opening_hours":{"open_now":true},"photos":[{"height":284,"html_attributions":["<a href=\"https://maps.google.com/maps/contrib/109094532874628395664\">Klinikum Bremen-Mitte Klinik für Mund-Kiefer-Gesichtschirurgie</a>"],"photo_reference":"CmRaAAAAl8JMgcKgG7VEmWQmyUan_nsyTvb6unKpu6b5pm08fC81E09BxoVICX07bNdXmcsP73G7XVsfPNs4sAA17KTb0t9kmBm_nPb-uQ3fWJtvsYHQRV-lV-mndMyB8rYQMzXkEhCy-7uy_xt7ZnxKkkjqnH_LGhQoonkKWOWWwQ-aocrHii5hjx1V2w","width":972}],"place_id":"ChIJ44nu6-QnsUcRlwO0rKTOtCg","plus_code":{"compound_code":"3RGQ+24 Bremen, Germany","global_code":"9F5C3RGQ+24"},"rating":2.6,"reference":"ChIJ44nu6-QnsUcRlwO0rKTOtCg","scope":"GOOGLE","types":["hospital","doctor","health","point_of_interest","establishment"],"user_ratings_total":11,"vicinity":"Sankt-Jürgen-Straße 1, Bremen"},{"geometry":{"location":{"lat":53.14375800000001,"lng":8.210499000000002},"viewport":{"northeast":{"lat":53.1451260802915,"lng":8.211788580291502},"southwest":{"lat":53.14242811970851,"lng":8.209090619708498}}},"icon":"https://maps.gstatic.com/mapfiles/place_api/icons/doctor-71.png","id":"d443750aa819f170649b4fc29506e0bb66be1cbf","name":"Pius-Hospital Oldenburg Klinik für Frauenheilkunde und Geburtshilfe","opening_hours":{"open_now":true},"place_id":"ChIJ-2CWZwfftkcRt-KeIQFh13o","plus_code":{"compound_code":"46V6+G5 Oldenburg, Germany","global_code":"9F5C46V6+G5"},"rating":4,"reference":"ChIJ-2CWZwfftkcRt-KeIQFh13o","scope":"GOOGLE","types":["hospital","health","point_of_interest","establishment"],"user_ratings_total":1,"vicinity":"Georgstraße 12, Oldenburg"},{"geometry":{"location":{"lat":53.0826179,"lng":8.8358949},"viewport":{"northeast":{"lat":53.0838680802915,"lng":8.8373101302915},"southwest":{"lat":53.0811701197085,"lng":8.834612169708496}}},"icon":"https://maps.gstatic.com/mapfiles/place_api/icons/doctor-71.png","id":"335071703d1bc061a82c1ddb3147fcc385353c36","name":"Dr. med. Alexandra Haase","place_id":"ChIJ5XcixuAnsUcRDj_gPchk3NQ","plus_code":{"compound_code":"3RMP+29 Bremen, Germany","global_code":"9F5C3RMP+29"},"reference":"ChIJ5XcixuAnsUcRDj_gPchk3NQ","scope":"GOOGLE","types":["hospital","health","point_of_interest","establishment"],"vicinity":"Schwachhauser Heerstraße 54, Bremen"},{"geometry":{"location":{"lat":53.1698141,"lng":8.1402866},"viewport":{"northeast":{"lat":53.17139048029149,"lng":8.141362230291502},"southwest":{"lat":53.16869251970849,"lng":8.138664269708498}}},"icon":"https://maps.gstatic.com/mapfiles/place_api/icons/doctor-71.png","id":"db2f9d2ebdfe019adcd6fc8561662cc71c5df939","name":"Karl-Jaspers-Klinik","opening_hours":{"open_now":true},"photos":[{"height":1365,"html_attributions":["<a href=\"https://maps.google.com/maps/contrib/104466617677631315184\">Karl-Jaspers-Klinik</a>"],"photo_reference":"CmRaAAAAATkKoIN51FsZe-X0c1vtGdlto-B3L0plitkp8X78H-IAGYC4X7HjHslV2DHcjsRqnK-53uIVW1_i_qETsFychL1yirnYKAfdlF287JxFpYNc1-USpwP8tbwPj14XTn6BEhDKIJjBNCLBACQi7_7-tI-OGhS0BPKlMtfgx8psBh4WtJmfB-cswA","width":2048}],"place_id":"ChIJ3YsyU5DgtkcRQux57M91VP0","plus_code":{"compound_code":"549R+W4 Bad Zwischenahn, Germany","global_code":"9F5C549R+W4"},"rating":3.4,"reference":"ChIJ3YsyU5DgtkcRQux57M91VP0","scope":"GOOGLE","types":["hospital","health","point_of_interest","establishment"],"user_ratings_total":70,"vicinity":"Hermann-Ehlers-Straße 7, Bad Zwischenahn"},{"geometry":{"location":{"lat":53.1113233,"lng":8.2161325},"viewport":{"northeast":{"lat":53.1124045302915,"lng":8.217804930291503},"southwest":{"lat":53.1097065697085,"lng":8.215106969708499}}},"icon":"https://maps.gstatic.com/mapfiles/place_api/icons/doctor-71.png","id":"f4fcff7f881e929744d67cc348b41e6ea9e9a012","name":"Hospital Oldenburg","opening_hours":{"open_now":true},"photos":[{"height":2640,"html_attributions":["<a href=\"https://maps.google.com/maps/contrib/117046776680975256180\">Klinikum Oldenburg AöR</a>"],"photo_reference":"CmRaAAAAceiXji_WfOYhkUxhFUeYDSJkXR5qYYIx4Op-QiS183VvqUpRkv7EWqRAVhtGbGbn7DW6NCend3OKe_oAYurqVDzWI3f9CGa9_bZbTJtW3tIkaM1g8oQRCt4om5ttyaDMEhA25-bR6s7VNKTMkiTKDHvZGhS3UXa3VluO4yT_SgCsy0p9CnKO3A","width":3960}],"place_id":"ChIJe0-UcGPftkcREpeOU4vNH54","plus_code":{"compound_code":"4668+GF Oldenburg, Germany","global_code":"9F5C4668+GF"},"rating":3.5,"reference":"ChIJe0-UcGPftkcREpeOU4vNH54","scope":"GOOGLE","types":["hospital","health","point_of_interest","establishment"],"user_ratings_total":203,"vicinity":"Rahel-Straus-Straße 10, Oldenburg"},{"geometry":{"location":{"lat":53.10081959999999,"lng":8.7872722},"viewport":{"northeast":{"lat":53.1020675802915,"lng":8.788308380291504},"southwest":{"lat":53.0993696197085,"lng":8.7856104197085}}},"icon":"https://maps.gstatic.com/mapfiles/place_api/icons/doctor-71.png","id":"aae505bb24b95cbca2752946a9d9bab1c6fc1abf","name":"Praxis für Kinder- und Jugendpsychiatrie und Psychotherapie","opening_hours":{"open_now":false},"photos":[{"height":1000,"html_attributions":["<a href=\"https://maps.google.com/maps/contrib/105013615306646972300\">Praxis für Kinder- und Jugendpsychiatrie und Psychotherapie</a>"],"photo_reference":"CmRaAAAAbevpLB8g7lrekE5SfccE9G6ESZ8X-jJfftm-mn0za8TuTOl0eB32XtyJgh24-AC-awWZvBscvGaZ5xrkXt5-Um6mIik_pFrkzmqVLeTUHteJdni4gXIj5ke4Loa5h8FLEhAr_O9kNA0v_-EVk01g21AjGhRtFLk1JLHZ3srYwQnn3Yp3pREPLQ","width":1000}],"place_id":"ChIJMe7O7AspsUcRtNOxBZIWRN0","plus_code":{"compound_code":"4Q2P+8W Bremen, Germany","global_code":"9F5C4Q2P+8W"},"rating":3.5,"reference":"ChIJMe7O7AspsUcRtNOxBZIWRN0","scope":"GOOGLE","types":["hospital","health","point_of_interest","establishment"],"user_ratings_total":6,"vicinity":"Waller Heerstraße 99, Bremen"},{"geometry":{"location":{"lat":53.06524,"lng":8.935439999999998},"viewport":{"northeast":{"lat":53.0666104302915,"lng":8.9366340302915},"southwest":{"lat":53.0639124697085,"lng":8.933936069708498}}},"icon":"https://maps.gstatic.com/mapfiles/place_api/icons/doctor-71.png","id":"30c4706e67136e16801febdb15fbc7c0e99a1a20","name":"Klinik für Anästhesie, Intensivmedizin und Schmerztherapie","place_id":"ChIJ5XiNbVInsUcRbOGkTVSagog","plus_code":{"compound_code":"3W8P+35 Bremen, Germany","global_code":"9F5C3W8P+35"},"reference":"ChIJ5XiNbVInsUcRbOGkTVSagog","scope":"GOOGLE","types":["hospital","health","point_of_interest","establishment"],"vicinity":"Züricher Straße 40, Bremen"},{"geometry":{"location":{"lat":52.8378216,"lng":8.306149699999999},"viewport":{"northeast":{"lat":52.8391765302915,"lng":8.307170880291501},"southwest":{"lat":52.8364785697085,"lng":8.304472919708497}}},"icon":"https://maps.gstatic.com/mapfiles/place_api/icons/generic_business-71.png","id":"e6bfb262bb9c1febb6d36b09c3756316bb29ba44","name":"Fachklinik St. Vitus GmbH","place_id":"ChIJ14cskE03t0cRlq9aY_oJBlw","plus_code":{"compound_code":"R8Q4+4F Visbek, Germany","global_code":"9F4CR8Q4+4F"},"rating":4,"reference":"ChIJ14cskE03t0cRlq9aY_oJBlw","scope":"GOOGLE","types":["hospital","health","point_of_interest","establishment"],"user_ratings_total":17,"vicinity":"Ahlhorner Straße 32, Visbek"},{"geometry":{"location":{"lat":53.07307179999999,"lng":8.835855899999999},"viewport":{"northeast":{"lat":53.0744930302915,"lng":8.8369133802915},"southwest":{"lat":53.0717950697085,"lng":8.834215419708496}}},"icon":"https://maps.gstatic.com/mapfiles/place_api/icons/doctor-71.png","id":"4171bf83a26cd52a7225239b99242cea5132049f","name":"Klinikum Bremen-Mitte gGmbH Urology","place_id":"ChIJ44nu6-QnsUcRtxKh3knL-p4","plus_code":{"compound_code":"3RFP+68 Bremen, Germany","global_code":"9F5C3RFP+68"},"rating":5,"reference":"ChIJ44nu6-QnsUcRtxKh3knL-p4","scope":"GOOGLE","types":["hospital","health","point_of_interest","establishment"],"user_ratings_total":2,"vicinity":"Sankt-Jürgen-Straße 1, Bremen"},{"geometry":{"location":{"lat":53.0777321,"lng":8.8175019},"viewport":{"northeast":{"lat":53.07901938029149,"lng":8.818886830291504},"southwest":{"lat":53.0763214197085,"lng":8.8161888697085}}},"icon":"https://maps.gstatic.com/mapfiles/place_api/icons/doctor-71.png","id":"0a8b824d49d3068545d5896f0ac6229f9b81ce0b","name":"Verkehrspsychologisches Institut Nord","place_id":"ChIJj6HN_Q4osUcRGaoSeSqJg_U","plus_code":{"compound_code":"3RH9+32 Bremen, Germany","global_code":"9F5C3RH9+32"},"reference":"ChIJj6HN_Q4osUcRGaoSeSqJg_U","scope":"GOOGLE","types":["hospital","health","point_of_interest","establishment"],"vicinity":"Fedelhören 88, Bremen"},{"geometry":{"location":{"lat":53.1839684,"lng":8.594317799999999},"viewport":{"northeast":{"lat":53.18526913029151,"lng":8.595561280291502},"southwest":{"lat":53.18257116970851,"lng":8.592863319708497}}},"icon":"https://maps.gstatic.com/mapfiles/place_api/icons/doctor-71.png","id":"ed39057ded57acc8643daa3012c87198749835cd","name":"Department of Pathology","place_id":"ChIJ3TVD3WvTtkcRwnUAdPISf7Q","plus_code":{"compound_code":"5HMV+HP Bremen, Germany","global_code":"9F5C5HMV+HP"},"reference":"ChIJ3TVD3WvTtkcRwnUAdPISf7Q","scope":"GOOGLE","types":["hospital","health","point_of_interest","establishment"],"vicinity":"Hammersbecker Straße 228, Bremen"}]