[{"geometry":{"location":{"lat":51.3969065,"lng":6.784719199999998},"viewport":{"northeast":{"lat":51.3987869802915,"lng":6.785672730291501},"southwest":{"lat":51.3960890197085,"lng":6.782974769708496}}},"icon":"https://maps.gstatic.com/mapfiles/place_api/icons/doctor-71.png","id":"1a9ac6ef914aaaec558de39704028632512a4bf0","name":"Sana Kliniken Duisburg","opening_hours":{"open_now":true},"photos":[{"height":3024,"html_attributions":["<a href=\"https://maps.google.com/maps/contrib/105965013784143738648\">Objektive Fotografie</a>"],"photo_reference":"CmRaAAAA0PZdV_sCY5uPADdoeMymt_jk5IpLe5Sb5KzzyiKZ8tKM7e7lR-7ca_XorfR1dEgg1nhaRFZUsL7-EXck9_RqhiltTsHwUlvY1kNmFLeI8jI2MNXcPRVZf8zqbWzwtr3SEhDXQz_skR6BvYfYJ5jNZnEHGhTvvdU_iTBJuEust5-Sa1pAJ_ziAA","width":4032}],"place_id":"ChIJOQ-VmK64uEcRP1gm6D57GVQ","plus_code":{"compound_code":"9QWM+QV Duisburg, Germany","global_code":"9F389QWM+QV"},"rating":2.6,"reference":"ChIJOQ-VmK64uEcRP1gm6D57GVQ","scope":"GOOGLE","types":["hospital","health","point_of_interest","establishment"],"user_ratings_total":272,"vicinity":"Zu den Rehwiesen 9-11, Duisburg"},{"geometry":{"location":{"lat":50.9919979,"lng":6.923977199999999},"viewport":{"northeast":{"lat":50.9936475302915,"lng":6.9260625},"southwest":{"lat":50.9909495697085,"lng":6.9232821}}},"icon":"https://maps.gstatic.com/mapfiles/place_api/icons/doctor-71.png","id":"da9e8c77627baf0d9330a25d17b69110c48f3425","name":"Heilig Geist-Krankenhaus","opening_hours":{"open_now":true},"photos":[{"height":572,"html_attributions":["<a href=\"https://maps.google.com/maps/contrib/103360818680299712167\">Heilig Geist-Krankenhaus</a>"],"photo_reference":"CmRaAAAACZxt-j_gej7_wFqrS8NDhrYW8b7on7OSgKiys2Blosp3_SDcXOBlcxZ8kJ-Lh4O_nQSof8AY1oGuQcr-pkRlJ7r8rjPmkdDLbi1rzx-piHF2Ea254Vc7EwaBTikXhTzCEhC-o3wthmUH3bRGpLqqHENhGhQ5JnVqpP80JVQAFj_A7ZQYeqUXEQ","width":850}],"place_id":"ChIJ57CGw-svv0cR1hH8JSWLWw0","plus_code":{"compound_code":"XWRF+QH Cologne, Germany","global_code":"9F28XWRF+QH"},"rating":2.8,"reference":"ChIJ57CGw-svv0cR1hH8JSWLWw0","scope":"GOOGLE","types":["hospital","health","point_of_interest","establishment"],"user_ratings_total":173,"vicinity":"Graseggerstraße 105, Köln"},{"geometry":{"location":{"lat":51.3202457,"lng":6.567502499999999},"viewport":{"northeast":{"lat":51.32377865,"lng":6.571534750000001},"southwest":{"lat":51.31906805000001,"lng":6.562277750000001}}},"icon":"https://maps.gstatic.com/mapfiles/place_api/icons/doctor-71.png","id":"f5a64be96b9d74a1881d021438df237d20e50468","name":"Helios Klinikum Krefeld","opening_hours":{"open_now":true},"photos":[{"height":574,"html_attributions":["<a href=\"https://maps.google.com/maps/contrib/115107659526908658643\">Helios Klinikum Krefeld</a>"],"photo_reference":"CmRaAAAA_XNHRBo9w4RGcA18QN5MIZS8k5yS2_G87znoZN7ODlMC3EAMeuPLIGxpEeUWdye9TDY7_-3uRger3y8ctHpIQBuc64ep_AyyUDc4IJujRHeQvWsObCdcmOpqpq6MqSrMEhCj1TsMJu9SDN501EIOTizgGhRqMNgzRtekP_-sWv_YmpSmRVsaGw","width":1021}],"place_id":"ChIJ73ezqgSwuEcRIpUmOVkv9lM","plus_code":{"compound_code":"8HC9+32 Krefeld, Germany","global_code":"9F388HC9+32"},"rating":2.9,"reference":"ChIJ73ezqgSwuEcRIpUmOVkv9lM","scope":"GOOGLE","types":["hospital","health","point_of_interest","establishment"],"user_ratings_total":356,"vicinity":"Lutherplatz 40, Krefeld"},{"geometry":{"location":{"lat":50.94134870000001,"lng":7.008956299999999},"viewport":{"northeast":{"lat":50.9426910802915,"lng":7.010195380291502},"southwest":{"lat":50.9399931197085,"lng":7.007497419708497}}},"icon":"https://maps.gstatic.com/mapfiles/place_api/icons/doctor-71.png","id":"c8a7050731e408c6955f4294713bf2690c0c96a4","name":"Evangelisches Krankenhaus Kalk gGmbH","opening_hours":{"open_now":true},"photos":[{"height":2322,"html_attributions":["<a href=\"https://maps.google.com/maps/contrib/105095406515583079694\">Alaa Pazzo</a>"],"photo_reference":"CmRaAAAAg6355ahnSjOHVnCP7WhdgHNAY_EOGJVeP4TnVuYWCjo37BBgYBmbaveq3RQ6AyftRi7KIXDcJOq5nZhk6GnLxh-JNWZdrPERTnKyGLHamadOCcsXo_npSRdoHRqIlroKEhAjC-fd2ZbIBTPiyqzKCY4QGhQHAUC72b9-iKSeAeFc5iN54cLzsQ","width":4128}],"place_id":"ChIJ2QmkxXEmv0cReEQU5CNTe_E","plus_code":{"compound_code":"W2R5+GH Cologne, Germany","global_code":"9F29W2R5+GH"},"rating":3.1,"reference":"ChIJ2QmkxXEmv0cReEQU5CNTe_E","scope":"GOOGLE","types":["hospital","health","point_of_interest","establishment"],"user_ratings_total":190,"vicinity":"Buchforststraße 2, Köln"},{"geometry":{"location":{"lat":50.9237464,"lng":6.897513499999999},"viewport":{"northeast":{"lat":50.9253011302915,"lng":6.898988480291502},"southwest":{"lat":50.9226031697085,"lng":6.896290519708497}}},"icon":"https://maps.gstatic.com/mapfiles/place_api/icons/doctor-71.png","id":"567958741a0806b5b43c1c64055f4794068ec2d4","name":"St. Elisabeth-Krankenhaus Köln-Hohenlind","opening_hours":{"open_now":true},"photos":[{"height":567,"html_attributions":["<a href=\"https://maps.google.com/maps/contrib/105243105449731633879\">St. Elisabeth-Krankenhaus Köln-Hohenlind</a>"],"photo_reference":"CmRaAAAAe-iNZJbsqRlAtagkSdy2yOms_sVrCti3tbo5Ngye5ECgoQ5jhk2kKoFBSbsgqQ3hXYRAIzoacRY3a6vS9wEbz3lftPIimIy0Y0LidtHkgsvOGzzzRX5h3pcZlr1f2iM0EhAAOzmc3DHptoiITSWEIshOGhRggO-i4qYD3KaCTOnmvJV_C5CJ-A","width":851}],"place_id":"ChIJS6xYH84kv0cRSDhNRN4cz8g","plus_code":{"compound_code":"WVFX+F2 Cologne, Germany","global_code":"9F28WVFX+F2"},"rating":3.9,"reference":"ChIJS6xYH84kv0cRSDhNRN4cz8g","scope":"GOOGLE","types":["hospital","health","point_of_interest","establishment"],"user_ratings_total":236,"vicinity":"Werthmannstraße 1, Köln"},{"geometry":{"location":{"lat":50.927612,"lng":6.925112200000001},"viewport":{"northeast":{"lat":50.9289151802915,"lng":6.926266080291502},"southwest":{"lat":50.9262172197085,"lng":6.923568119708498}}},"icon":"https://maps.gstatic.com/mapfiles/place_api/icons/doctor-71.png","id":"003e117eb560b05565a952877a3ba620390f857a","name":"Evangelisches Klinikum Köln Weyertal gGmbH","opening_hours":{"open_now":true},"photos":[{"height":3120,"html_attributions":["<a href=\"https://maps.google.com/maps/contrib/115789363889831169782\">Howin Raul Teica</a>"],"photo_reference":"CmRaAAAAfGPWDkSfEAkvg58eit6Cnfj-KPjkPa7RfU9Y-oGyH_0PiEKzKPQQUwPK-aWsOs2QpJ9f6IIcuJ_k2x-JnHmjQVqbtm6vAZRBIHQ-aAgA0DVq4U26bKmV-_KR0yH7SO5nEhDl_xfrwxy1VI6sZOK69Mq9GhS5mOztocl1KUmTVEhDRL3q6ZbapA","width":4160}],"place_id":"ChIJ4w2jZOMkv0cRKgHGRfoFFM8","plus_code":{"compound_code":"WWHG+22 Cologne, Germany","global_code":"9F28WWHG+22"},"rating":3.5,"reference":"ChIJ4w2jZOMkv0cRKgHGRfoFFM8","scope":"GOOGLE","types":["hospital","health","point_of_interest","establishment"],"user_ratings_total":142,"vicinity":"Weyertal 76, Köln"},{"geometry":{"location":{"lat":51.204577,"lng":7.226809500000001},"viewport":{"northeast":{"lat":51.2058408802915,"lng":7.228299480291502},"southwest":{"lat":51.2031429197085,"lng":7.225601519708498}}},"icon":"https://maps.gstatic.com/mapfiles/place_api/icons/doctor-71.png","id":"9e6758bf33e79def3a2f39dc19ce35e9521ded21","name":"Evangelische Stiftung Tannenhof","opening_hours":{"open_now":true},"photos":[{"height":3120,"html_attributions":["<a href=\"https://maps.google.com/maps/contrib/108980790245439073747\">Thomas Mühleip</a>"],"photo_reference":"CmRaAAAAh_2nO3jPdsEixxeEsow9ohuo177gZI3U4-dAMu2y_6GPu16-PWiFX9ThdwKY65-6k7xIti5VkGtQrJiRPQaaz8qwfh8gY6ojJx_Eahujxuh1LIiD-tZIkLOetoo3DhsQEhAgS_nJzudqzAjjRQPT7F0HGhQm8Fs_fIBuhSCve1j7cM9CDdWEMQ","width":4160}],"place_id":"ChIJ2zvJ99QruUcRslPDer3X38M","plus_code":{"compound_code":"663G+RP Remscheid, Germany","global_code":"9F39663G+RP"},"rating":3.3,"reference":"ChIJ2zvJ99QruUcRslPDer3X38M","scope":"GOOGLE","types":["hospital","health","point_of_interest","establishment"],"user_ratings_total":33,"vicinity":"Remscheider Straße 76, Remscheid"},{"geometry":{"location":{"lat":50.9473778,"lng":6.96236},"viewport":{"northeast":{"lat":50.9486814802915,"lng":6.963908480291502},"southwest":{"lat":50.9459835197085,"lng":6.961210519708497}}},"icon":"https://maps.gstatic.com/mapfiles/place_api/icons/doctor-71.png","id":"a1cd68e362acaf528099a6e0d045e9b0f744f611","name":"St. Marien-Hospital","opening_hours":{"open_now":true},"photos":[{"height":3456,"html_attributions":["<a href=\"https://maps.google.com/maps/contrib/113329547567259653876\">Wanders Mann</a>"],"photo_reference":"CmRaAAAArxsk5E0J_H4mE50C9A54weDMKPJ4RpF19hA3nXv3yjfHttvsGH8BqJR9bF5f82jbvOKZkg62cDwZe5VhHjfyHyd-Qip2aU8C8V3CesbQzRSpkuqcW2qkwvozbGx8Cm7zEhDhQr1CeURzEPkGSOyL6rN7GhSFHCVagN7K0ANWvnULMukM0J8asg","width":4608}],"place_id":"ChIJ4RhV87wlv0cRQa-stQXPssE","plus_code":{"compound_code":"WXW6+XW Cologne, Germany","global_code":"9F28WXW6+XW"},"rating":2.9,"reference":"ChIJ4RhV87wlv0cRQa-stQXPssE","scope":"GOOGLE","types":["hospital","health","point_of_interest","establishment"],"user_ratings_total":95,"vicinity":"Kunibertskloster 11-13, Köln"},{"geometry":{"location":{"lat":51.4452039,"lng":7.337368},"viewport":{"northeast":{"lat":51.44755480000001,"lng":7.3393024},"southwest":{"lat":51.44344960000002,"lng":7.334837200000002}}},"icon":"https://maps.gstatic.com/mapfiles/place_api/icons/doctor-71.png","id":"948f59c810ceca750d0413f2782784556d200b9d","name":"Marien Hospital Witten","opening_hours":{"open_now":true},"photos":[{"height":975,"html_attributions":["<a href=\"https://maps.google.com/maps/contrib/103009997845259376046\">aorta besler</a>"],"photo_reference":"CmRaAAAAiEuz8Ba1oQPnoA444hrIFRosZrmAaU-AA6FymHefYIKZLNDR8dj-HwFsOXi8aIoCAPongWNQl7n8RDsmUu78FVIu6Vr6bmI5jdxD9pyv7wS3mX2l6v98CaIGI3ZL3o2nEhDRgu2KuUCNPry9VfxL5gAAGhSl6ZxSkmzFfnUCsM5reXJNrV2e_w","width":1300}],"place_id":"ChIJ6dNasfkhuUcR0qUvdF-bfbU","plus_code":{"compound_code":"C8WP+3W Witten, Germany","global_code":"9F39C8WP+3W"},"rating":3.4,"reference":"ChIJ6dNasfkhuUcR0qUvdF-bfbU","scope":"GOOGLE","types":["hospital","health","point_of_interest","establishment"],"user_ratings_total":174,"vicinity":"Marienplatz 2, Witten"},{"geometry":{"location":{"lat":51.2497572,"lng":7.1332991},"viewport":{"northeast":{"lat":51.2511813802915,"lng":7.134830480291502},"southwest":{"lat":51.2484834197085,"lng":7.132132519708498}}},"icon":"https://maps.gstatic.com/mapfiles/place_api/icons/doctor-71.png","id":"b39a9266a4a012b0766f3aacfc1a258a82a1c854","name":"Helios Herzzentrum Wuppertal","opening_hours":{"open_now":false},"photos":[{"height":955,"html_attributions":["<a href=\"https://maps.google.com/maps/contrib/103154013872834825524\">Helios Herzzentrum Wuppertal</a>"],"photo_reference":"CmRaAAAAwsSsgxTfgTuOa_974d5Iq_i-ug0UkO12wBDHDZeJ3qwko8AenGX9pCgYEYdnQqNnXK-gw6ToLGhsKjrRaNfiOeUi3-eYS5uN6GRnKfOfYdEcGE9KwDA6eTOKyTZRmGALEhCD1sGS3XTYGST87X1LmnOfGhQZTqg9CLTQL616YIP04jxW6OQMog","width":1580}],"place_id":"ChIJae1EHFTWuEcRCjPSE3k_fXs","plus_code":{"compound_code":"64XM+W8 Wuppertal, Germany","global_code":"9F3964XM+W8"},"rating":3.8,"reference":"ChIJae1EHFTWuEcRCjPSE3k_fXs","scope":"GOOGLE","types":["hospital","health","point_of_interest","establishment"],"user_ratings_total":49,"vicinity":"Arrenberger Straße 20, Wuppertal"},{"geometry":{"location":{"lat":51.44518540000001,"lng":7.0327251},"viewport":{"northeast":{"lat":51.4467840802915,"lng":7.034221080291502},"southwest":{"lat":51.4440861197085,"lng":7.031523119708498}}},"icon":"https://maps.gstatic.com/mapfiles/place_api/icons/doctor-71.png","id":"311869caf41ea27276515e3c19132a5aaa47b4de","name":"Elisabeth-Krankenhaus Essen","opening_hours":{"open_now":true},"photos":[{"height":2976,"html_attributions":["<a href=\"https://maps.google.com/maps/contrib/115843508939075461318\">Michael</a>"],"photo_reference":"CmRaAAAA7cTRvSSnem-Bz8IoGNdQ-4is79Z9QjK-2V4ZOKAYqdaUbIxWDSHIVo7VtIlMNebFsEtWusbILU6FEUsBpqmHP7Z8Y84rwcNi3Th80jp83fJeQpdfs3eJjIae9IBNLA_REhAtSRu1tBzQecUYlUnfI8jfGhQiTwKFL98--SJKnez9RIf6revARA","width":3968}],"place_id":"ChIJIX3BCTrduEcRVxB4WBRvH5E","plus_code":{"compound_code":"C2WM+33 Essen, Germany","global_code":"9F39C2WM+33"},"rating":3.4,"reference":"ChIJIX3BCTrduEcRVxB4WBRvH5E","scope":"GOOGLE","types":["hospital","health","point_of_interest","establishment"],"user_ratings_total":182,"vicinity":"Klara-Kopp-Weg 1, Essen"},{"geometry":{"location":{"lat":51.30979670000001,"lng":7.238013499999999},"viewport":{"northeast":{"lat":51.3110740802915,"lng":7.239453930291502},"southwest":{"lat":51.3083761197085,"lng":7.236755969708497}}},"icon":"https://maps.gstatic.com/mapfiles/place_api/icons/generic_business-71.png","id":"bf35b468cdd24061704efb3bce09bd04b09f673c","name":"Dr. Becker Klinik Juliana","photos":[{"height":1000,"html_attributions":["<a href=\"https://maps.google.com/maps/contrib/103333416056333797348\">Dr. Becker Klinik Juliana</a>"],"photo_reference":"CmRaAAAAcOqV8fLwPpVVrBiKHG6lM7_5YUc7HfF63-503xolAE8q2z46HGKK48TlE_PVJLoOi5IlDUt0MZdt69CboGSIuQzZznhPz_fTdVp8IMCPUUSVmmKZ594nhVZGTpMnVESiEhDSVmJ9VJ3e6g1HAexqPsSAGhQ0RD3jWe3QySAWSw0xH2fO73FOYw","width":1500}],"place_id":"ChIJRdZkh8gnuUcRa14f4IhY2OY","plus_code":{"compound_code":"865Q+W6 Wuppertal, Germany","global_code":"9F39865Q+W6"},"rating":2.7,"reference":"ChIJRdZkh8gnuUcRa14f4IhY2OY","scope":"GOOGLE","types":["hospital","health","point_of_interest","establishment"],"user_ratings_total":26,"vicinity":"Mollenkotten 195, Wuppertal"},{"geometry":{"location":{"lat":51.2117305,"lng":6.7607537},"viewport":{"northeast":{"lat":51.2131457302915,"lng":6.762124730291502},"southwest":{"lat":51.2104477697085,"lng":6.759426769708497}}},"icon":"https://maps.gstatic.com/mapfiles/place_api/icons/doctor-71.png","id":"a8422e2b7ec59248bd1a83f1d627651273dfb9dd","name":"St. Martin's Hospital Dusseldorf","opening_hours":{"open_now":true},"photos":[{"height":4032,"html_attributions":["<a href=\"https://maps.google.com/maps/contrib/100436402754564177445\">Elke Pusch</a>"],"photo_reference":"CmRaAAAAGLvssPAv4Fo6Kwg3bikthANCVdyHy7Egkh9A1694fwheMs1evI3u8tq0QrvEhrUqga7yZa5ITirPh2sU-V-MQpdjEDC5FsAoEbqFGO__a_lqq1aq4Y9-seHvh-UgWd4qEhB83eTnoHxrC1psdBoyH1TVGhTRkRqi8Fb9s0L4Y8u14gO4gNvLvw","width":3024}],"place_id":"ChIJxWV2kG3KuEcRnXYzAFxHZls","plus_code":{"compound_code":"6Q66+M8 Düsseldorf, Germany","global_code":"9F386Q66+M8"},"rating":3.7,"reference":"ChIJxWV2kG3KuEcRnXYzAFxHZls","scope":"GOOGLE","types":["hospital","health","point_of_interest","establishment"],"user_ratings_total":96,"vicinity":"Gladbacher Straße 26, Düsseldorf"},{"geometry":{"location":{"lat":50.9325316,"lng":6.980867700000001},"viewport":{"northeast":{"lat":50.9340209802915,"lng":6.981742430291503},"southwest":{"lat":50.9313230197085,"lng":6.979044469708499}}},"icon":"https://maps.gstatic.com/mapfiles/place_api/icons/doctor-71.png","id":"1202c777ecbec6058a71d91b1f4fc32765d73db3","name":"Eduardus-Krankenhaus","opening_hours":{"open_now":true},"photos":[{"height":819,"html_attributions":["<a href=\"https://maps.google.com/maps/contrib/105354381553159856298\">Eduardus-Krankenhaus</a>"],"photo_reference":"CmRaAAAAz7gmNxu-4jVoOVBbUpA_SnQlnXOjxrae5bVc9IifHu6-EJRhEHcTJSi3qovDhACsuY0TEx2dIaSXDwIWiAiZ-1ZkILT7NRJUdEudyloFhhl-ZX_6qP-jtiGxt98xXmLyEhBNLpR7Bu_goWuAnerimbXlGhSGWkQjc1dWxZgJbLJ_xAsMeIrYVQ","width":1229}],"place_id":"ChIJZ4Ldvc0lv0cRtg49nlVCSGQ","plus_code":{"compound_code":"WXMJ+28 Cologne, Germany","global_code":"9F28WXMJ+28"},"rating":3.5,"reference":"ChIJZ4Ldvc0lv0cRtg49nlVCSGQ","scope":"GOOGLE","types":["hospital","health","point_of_interest","establishment"],"user_ratings_total":175,"vicinity":"Custodisstraße 3-17, Köln"},{"geometry":{"location":{"lat":50.9871227,"lng":6.960106299999999},"viewport":{"northeast":{"lat":50.9890145302915,"lng":6.961398230291502},"southwest":{"lat":50.9863165697085,"lng":6.958700269708499}}},"icon":"https://maps.gstatic.com/mapfiles/place_api/icons/doctor-71.png","id":"373ec0cc817f9bb21e88d9c8f8817e8d95a593d3","name":"St. Agatha hospital Cologne","opening_hours":{"open_now":true},"photos":[{"height":1536,"html_attributions":["<a href=\"https://maps.google.com/maps/contrib/116557121844111024530\">Patrick Obytz</a>"],"photo_reference":"CmRZAAAAIl-bD4CWe4mr8mRXTP-RbIG_PLH1lPUN3jZTpKCd83EwUExP8GGPTWPjisxmYCEnuSDPUK-Xz33oa3mRE2uKyAdViUOXlslLBOJKUqQbRFyFHs9Zd9uemkOMgMyCpeX7EhAkrHtVfLwCK7FQCVDT4g7oGhQ7sLFZz5X-SEYa6aixS2o2Y1dj4Q","width":2048}],"place_id":"ChIJvbA0dXYvv0cR5FvODqypEl4","plus_code":{"compound_code":"XXP6+R2 Cologne, Germany","global_code":"9F28XXP6+R2"},"rating":3.2,"reference":"ChIJvbA0dXYvv0cR5FvODqypEl4","scope":"GOOGLE","types":["hospital","health","point_of_interest","establishment"],"user_ratings_total":88,"vicinity":"Feldgärtenstraße 97, Köln"},{"geometry":{"location":{"lat":51.2185321,"lng":6.419532299999998},"viewport":{"northeast":{"lat":51.2198133302915,"lng":6.420839380291502},"southwest":{"lat":51.2171153697085,"lng":6.418141419708498}}},"icon":"https://maps.gstatic.com/mapfiles/place_api/icons/doctor-71.png","id":"61dd6a8285da80743e826e4b45fa720deb7cbcbb","name":"Krankenhaus St. Franziskus","opening_hours":{"open_now":true},"photos":[{"height":1434,"html_attributions":["<a href=\"https://maps.google.com/maps/contrib/103762595844828395731\">Norbert Kurpiers</a>"],"photo_reference":"CmRaAAAAN6v95vo-N28OVUKdPthnM802h2cCfE_I1ULdYbddhfI_2UUHmIxzs08OLZgjOTqYqaTwGtUnzR7pHvbahyM7XoAsjOkOs-Bxs8BHuk_WthFd7vljK_URolPDtsXOrG7REhCNzlpIsdSYo9k8aThlk1rXGhSL4FOtrPfhJlC-c1KfhomiRwkzuQ","width":2048}],"place_id":"ChIJTazKOZuruEcR6XBJB0AtBaQ","plus_code":{"compound_code":"6C99+CR Mönchengladbach, Germany","global_code":"9F386C99+CR"},"rating":2.7,"reference":"ChIJTazKOZuruEcR6XBJB0AtBaQ","scope":"GOOGLE","types":["hospital","health","point_of_interest","establishment"],"user_ratings_total":164,"vicinity":"Viersener Straße 450, Mönchengladbach"},{"geometry":{"location":{"lat":51.42622409999999,"lng":7.0077929},"viewport":{"northeast":{"lat":51.42779208029149,"lng":7.008865080291502},"southwest":{"lat":51.42509411970849,"lng":7.006167119708498}}},"icon":"https://maps.gstatic.com/mapfiles/place_api/icons/doctor-71.png","id":"224004996959c9470e8baeff35086eaae7cf0f47","name":"Alfried Krupp Hospital Ruettenscheid","opening_hours":{"open_now":true},"photos":[{"height":2448,"html_attributions":["<a href=\"https://maps.google.com/maps/contrib/100536928769676429338\">Rainer Richter</a>"],"photo_reference":"CmRaAAAAKKMnzgWpku_YKOAlY5tBYI4nACcqkOZgIIeoZz2WqL4xcyJExmkwBYkxxDUBi7TXI6Xz4fBtuDHRBRGKTYS7wsoTB2QQ4RCzd_9YHkBh3UkxM-Qy6vWLAEvb1QzIrsMiEhAkdqI0EXMfTW93MaMRhBbNGhRMb6A0kiAAgMkBuYcKepdEgA2QDg","width":3264}],"place_id":"ChIJA59SDyzDuEcRgszc1zjTzt0","plus_code":{"compound_code":"C2G5+F4 Essen, Germany","global_code":"9F39C2G5+F4"},"rating":3.6,"reference":"ChIJA59SDyzDuEcRgszc1zjTzt0","scope":"GOOGLE","types":["hospital","health","point_of_interest","establishment"],"user_ratings_total":218,"vicinity":"Alfried-Krupp-Straße 21, Essen"},{"geometry":{"location":{"lat":51.22411109999999,"lng":6.7796458},"viewport":{"northeast":{"lat":51.22546183029149,"lng":6.780831230291502},"southwest":{"lat":51.22276386970849,"lng":6.778133269708498}}},"icon":"https://maps.gstatic.com/mapfiles/place_api/icons/shopping-71.png","id":"6c31d9af95a59f9d8fe9d290712a2348a4d4ca4c","name":"Smash","place_id":"ChIJkZlUKj3KuEcRATOYD2bIwSk","plus_code":{"compound_code":"6QFH+JV Düsseldorf, Germany","global_code":"9F386QFH+JV"},"rating":5,"reference":"ChIJkZlUKj3KuEcRATOYD2bIwSk","scope":"GOOGLE","types":["hospital","health","point_of_interest","store","establishment"],"user_ratings_total":2,"vicinity":"Königsallee 36, Düsseldorf"},{"geometry":{"location":{"lat":51.2135644,"lng":6.6595308},"viewport":{"northeast":{"lat":51.2151727802915,"lng":6.661318580291502},"southwest":{"lat":51.2124748197085,"lng":6.658620619708498}}},"icon":"https://maps.gstatic.com/mapfiles/place_api/icons/doctor-71.png","id":"029d66298952be24e959cf0769fcf5c0b7e6eff3","name":"Johanna Etienne Hospital","opening_hours":{"open_now":true},"photos":[{"height":4480,"html_attributions":["<a href=\"https://maps.google.com/maps/contrib/109871891322183609974\">Johanna Etienne Krankenhaus</a>"],"photo_reference":"CmRaAAAANLnh568fssUC2E6bDX3uczxiNuZXhCtBbfQQKYCMMlDKisuMB_PEXTBi6QRJltqF_FNTutr9BjUjRWM_cSIi3q04-RQ20TNIknZszuDAti1cHJEyAfokzbC-9TAa1BK6EhCgcQiTEXvlKiUxR1bM1AvbGhS3mmKHONuGDtjGHjIS3JoY-bh-8w","width":6720}],"place_id":"ChIJydLU5G60uEcRiolIljB7_z0","plus_code":{"compound_code":"6M75+CR Neuss, Germany","global_code":"9F386M75+CR"},"rating":3.1,"reference":"ChIJydLU5G60uEcRiolIljB7_z0","scope":"GOOGLE","types":["hospital","health","point_of_interest","establishment"],"user_ratings_total":168,"vicinity":"Am Hasenberg 46, Neuss"},{"geometry":{"location":{"lat":51.21287659999999,"lng":6.773189400000001},"viewport":{"northeast":{"lat":51.2140572802915,"lng":6.774618630291502},"southwest":{"lat":51.2113593197085,"lng":6.771920669708497}}},"icon":"https://maps.gstatic.com/mapfiles/place_api/icons/doctor-71.png","id":"adfddb61937a1942d9b5bbc4338ea62c19788e75","name":"Evangelical Hospital Düsseldorf","opening_hours":{"open_now":true},"photos":[{"height":3456,"html_attributions":["<a href=\"https://maps.google.com/maps/contrib/110568832538687026178\">FRM</a>"],"photo_reference":"CmRaAAAAEHZ9tqeuT0El9eh3yEV_s5uIH7TWHD1k95metlbLVJUt0INoLkqx8eCFGluZdlOvKz4rXVkUNHtE2ZkpbUokF2jbdesweWDDagSE06ztyf6E4yIAkD4iI6KzM4zMu2E3EhBR-Lvskv3tbAGx2pZBCXocGhSy57pPMwWrCXMGCbNoYZ27IxQwxg","width":4608}],"place_id":"ChIJkc3em2rKuEcR_GsIyUyaOng","plus_code":{"compound_code":"6Q7F+57 Düsseldorf, Germany","global_code":"9F386Q7F+57"},"rating":3,"reference":"ChIJkc3em2rKuEcR_GsIyUyaOng","scope":"GOOGLE","types":["hospital","health","point_of_interest","establishment"],"user_ratings_total":287,"vicinity":"Kirchfeldstraße 40, Düsseldorf"}]