[{"geometry":{"location":{"lat":51.4452039,"lng":7.337368},"viewport":{"northeast":{"lat":51.44755480000001,"lng":7.3393024},"southwest":{"lat":51.44344960000002,"lng":7.334837200000002}}},"icon":"https://maps.gstatic.com/mapfiles/place_api/icons/doctor-71.png","id":"948f59c810ceca750d0413f2782784556d200b9d","name":"Marien Hospital Witten","opening_hours":{"open_now":true},"photos":[{"height":975,"html_attributions":["<a href=\"https://maps.google.com/maps/contrib/103009997845259376046\">aorta besler</a>"],"photo_reference":"CmRaAAAAnokuO6OqUadPX0a5QdbvcQKMHn3R3gCQ3cgvLBClZKfYqQP6BES8W_zpgWXT9tyPU1WPdPzy8ssJo2GHkWddBa1gsVjm4b_xajPi-K7HULaaRVLlOuERVeuHJqTL4ecVEhCrh_RjLZNYxEX8hWx7sDrIGhRyPSOO9NbnXEHUONVCV8ZWmumoJQ","width":1300}],"place_id":"ChIJ6dNasfkhuUcR0qUvdF-bfbU","plus_code":{"compound_code":"C8WP+3W Witten, Germany","global_code":"9F39C8WP+3W"},"rating":3.4,"reference":"ChIJ6dNasfkhuUcR0qUvdF-bfbU","scope":"GOOGLE","types":["hospital","health","point_of_interest","establishment"],"user_ratings_total":174,"vicinity":"Marienplatz 2, Witten"},{"geometry":{"location":{"lat":51.5080665,"lng":7.457942999999998},"viewport":{"northeast":{"lat":51.50942278029149,"lng":7.4594405802915},"southwest":{"lat":51.5067248197085,"lng":7.456742619708495}}},"icon":"https://maps.gstatic.com/mapfiles/place_api/icons/doctor-71.png","id":"961d610f546ddbb9a8e2ec515fb6af3a8bc86cc5","name":"Klinikum Dortmund - Endokrinologie, Diabetologie, Rheumatologie","opening_hours":{"open_now":true},"photos":[{"height":4032,"html_attributions":["<a href=\"https://maps.google.com/maps/contrib/106588741215207176927\">Ulrike Less</a>"],"photo_reference":"CmRaAAAAz5P8VCS9-ohSfl1734qpJDceiI9oh7UWB9FpnbnVagH9DDR__VHikwqHcu7h1bLlEwbTlY3GEXcKmPTz_WW5vg7K0PcIlNwiBs3orGYCEHPv-IYRkA0EFbojQ_ErBKvREhCKqnWiONjHoYtJzUmFCJahGhRyQGq7gLkAuvwWZJNrPgRdo95Xxg","width":3024}],"place_id":"ChIJ10Q12t0ZuUcRtxWD2noTICk","plus_code":{"compound_code":"GF55+65 Dortmund, Germany","global_code":"9F39GF55+65"},"rating":2.9,"reference":"ChIJ10Q12t0ZuUcRtxWD2noTICk","scope":"GOOGLE","types":["hospital","doctor","health","point_of_interest","establishment"],"user_ratings_total":266,"vicinity":"Beurhausstraße 40, Dortmund"},{"geometry":{"location":{"lat":51.51161279999999,"lng":7.4577386},"viewport":{"northeast":{"lat":51.5127573802915,"lng":7.458913030291502},"southwest":{"lat":51.5100594197085,"lng":7.456215069708497}}},"icon":"https://maps.gstatic.com/mapfiles/place_api/icons/doctor-71.png","id":"54e37e37e60c0ec679bf118bab66085ba25ecb60","name":"St.-Johannes-Hospital Dortmund","opening_hours":{"open_now":false},"photos":[{"height":3094,"html_attributions":["<a href=\"https://maps.google.com/maps/contrib/101996726449103821728\">Hosam</a>"],"photo_reference":"CmRaAAAAOOsNHgAcbKneYr_7ml-1-Luvwo-nzHjJ2aipFpEXgDvwMr5bDSD9vPnpgLbngbbeuUuLDI0GZ61yEV_qMXvIcl3LIq-8ndRoZKxc9yzVXxGqQx00VQaeZUxo-OpcKjayEhC-79hPjEOwDeRrPjLbkbdGGhSCldO2Qxi6w1Acyc10wAPNHv7P9w","width":2728}],"place_id":"ChIJqU6GF-cZuUcRmn22YHQI_MY","plus_code":{"compound_code":"GF65+J3 Dortmund, Germany","global_code":"9F39GF65+J3"},"rating":3.5,"reference":"ChIJqU6GF-cZuUcRmn22YHQI_MY","scope":"GOOGLE","types":["hospital","health","point_of_interest","establishment"],"user_ratings_total":216,"vicinity":"Johannesstraße 9-17, Dortmund"},{"geometry":{"location":{"lat":51.204577,"lng":7.226809500000001},"viewport":{"northeast":{"lat":51.2058408802915,"lng":7.228299480291502},"southwest":{"lat":51.2031429197085,"lng":7.225601519708498}}},"icon":"https://maps.gstatic.com/mapfiles/place_api/icons/doctor-71.png","id":"9e6758bf33e79def3a2f39dc19ce35e9521ded21","name":"Evangelische Stiftung Tannenhof","opening_hours":{"open_now":true},"photos":[{"height":3120,"html_attributions":["<a href=\"https://maps.google.com/maps/contrib/108980790245439073747\">Thomas Mühleip</a>"],"photo_reference":"CmRaAAAAFW4Q2JnvEhgp7LYka3_kDgkc9DAD9PWJrE24vsFnYTt123hMRO7mxAp7TY5NraPgET2rDN0XTnWWg6NhGHqooRUXvE0vdN0TZSRkjbLtHqjUBv-iqL0_UH-XK9BfJUQuEhCfP8L0L1bbLMvch0H8dxRwGhQII6z-x5Up0UhjpOUdYF2cZY4Tyg","width":4160}],"place_id":"ChIJ2zvJ99QruUcRslPDer3X38M","plus_code":{"compound_code":"663G+RP Remscheid, Germany","global_code":"9F39663G+RP"},"rating":3.3,"reference":"ChIJ2zvJ99QruUcRslPDer3X38M","scope":"GOOGLE","types":["hospital","health","point_of_interest","establishment"],"user_ratings_total":33,"vicinity":"Remscheider Straße 76, Remscheid"},{"geometry":{"location":{"lat":51.30979670000001,"lng":7.238013499999999},"viewport":{"northeast":{"lat":51.3110740802915,"lng":7.239453930291502},"southwest":{"lat":51.3083761197085,"lng":7.236755969708497}}},"icon":"https://maps.gstatic.com/mapfiles/place_api/icons/generic_business-71.png","id":"bf35b468cdd24061704efb3bce09bd04b09f673c","name":"Dr. Becker Klinik Juliana","photos":[{"height":1000,"html_attributions":["<a href=\"https://maps.google.com/maps/contrib/103333416056333797348\">Dr. Becker Klinik Juliana</a>"],"photo_reference":"CmRaAAAAjIHVT27HS8TSqAVA_htm5olFp7I7TTIDVm_h5doZDP1ugCuQ4MDaOYEjX2cnEpo2wm4Smw2QsaCONy9BySAm0vypJ1ucUvlYlt9B0HB5hxbjyrLrtvcf-FGfmxWrOrFpEhBML2Cs6CyxQ0dKMkCTTCJgGhSbinqmnC7bB_nVI2e3hgVrdu_Ycg","width":1500}],"place_id":"ChIJRdZkh8gnuUcRa14f4IhY2OY","plus_code":{"compound_code":"865Q+W6 Wuppertal, Germany","global_code":"9F39865Q+W6"},"rating":2.7,"reference":"ChIJRdZkh8gnuUcRa14f4IhY2OY","scope":"GOOGLE","types":["hospital","health","point_of_interest","establishment"],"user_ratings_total":26,"vicinity":"Mollenkotten 195, Wuppertal"},{"geometry":{"location":{"lat":51.44518540000001,"lng":7.0327251},"viewport":{"northeast":{"lat":51.4467840802915,"lng":7.034221080291502},"southwest":{"lat":51.4440861197085,"lng":7.031523119708498}}},"icon":"https://maps.gstatic.com/mapfiles/place_api/icons/doctor-71.png","id":"311869caf41ea27276515e3c19132a5aaa47b4de","name":"Elisabeth-Krankenhaus Essen","opening_hours":{"open_now":true},"photos":[{"height":2976,"html_attributions":["<a href=\"https://maps.google.com/maps/contrib/115843508939075461318\">Michael</a>"],"photo_reference":"CmRaAAAAz4pm8_gNZzjPZQ2xLQkQVyKNqPdDG4rCiLVrquLXS3C_SmFZhIL8M53RDLLbKFESrIz-aq60-4LVWtrA-BxRdsRg3pmw87HtC2c9akvBrW9XUBqJzptmFH-5k-vC4kzIEhAZyh4SO8nuCjDDREoJihlKGhTsejaruIQ2glfuznG2XkcClbqH8g","width":3968}],"place_id":"ChIJIX3BCTrduEcRVxB4WBRvH5E","plus_code":{"compound_code":"C2WM+33 Essen, Germany","global_code":"9F39C2WM+33"},"rating":3.4,"reference":"ChIJIX3BCTrduEcRVxB4WBRvH5E","scope":"GOOGLE","types":["hospital","health","point_of_interest","establishment"],"user_ratings_total":182,"vicinity":"Klara-Kopp-Weg 1, Essen"},{"geometry":{"location":{"lat":51.5018379,"lng":7.329546499999999},"viewport":{"northeast":{"lat":51.5032359802915,"lng":7.331192230291503},"southwest":{"lat":51.5005380197085,"lng":7.328494269708498}}},"icon":"https://maps.gstatic.com/mapfiles/place_api/icons/doctor-71.png","id":"e61f87a66978cb08baec5ed194cb6395a4e17848","name":"Klinikum Westfalen Knappschaftskrankenhaus Lütgendortmund","opening_hours":{"open_now":true},"photos":[{"height":4912,"html_attributions":["<a href=\"https://maps.google.com/maps/contrib/110126872534299377903\">Knappschaftskrankenhaus Lütgendortmund</a>"],"photo_reference":"CmRaAAAA4aOXCdbJ9xhSm1_fIUWW-9vAc5GI0CdFX3QKLpnGVpHelUlJjt-1XmJkJuH5Ds7_H6gCTqEfAUmN4WW8B4v-BvLrG12_zM3VLfMLeeUZ9aOUBha_zKdaCJvQbYIWCXvsEhCLt4h9DSlTa31B9UNpxj8fGhQqZTMrllWpAaZQledQ8qRFuXNR9g","width":7360}],"place_id":"ChIJxeaj6N0euUcR3GLnr61yWyY","plus_code":{"compound_code":"G82H+PR Dortmund, Germany","global_code":"9F39G82H+PR"},"rating":2.5,"reference":"ChIJxeaj6N0euUcR3GLnr61yWyY","scope":"GOOGLE","types":["hospital","health","point_of_interest","establishment"],"user_ratings_total":51,"vicinity":"Volksgartenstraße 40, Dortmund"},{"geometry":{"location":{"lat":51.2497572,"lng":7.1332991},"viewport":{"northeast":{"lat":51.2511813802915,"lng":7.134830480291502},"southwest":{"lat":51.2484834197085,"lng":7.132132519708498}}},"icon":"https://maps.gstatic.com/mapfiles/place_api/icons/doctor-71.png","id":"b39a9266a4a012b0766f3aacfc1a258a82a1c854","name":"Helios Herzzentrum Wuppertal","opening_hours":{"open_now":false},"photos":[{"height":955,"html_attributions":["<a href=\"https://maps.google.com/maps/contrib/103154013872834825524\">Helios Herzzentrum Wuppertal</a>"],"photo_reference":"CmRaAAAAF7fkoida7lpu4URbp2jhlcsuqZZltUzyXBTRKGAKpQPi-nodo2pK98xRQZtsa3q5p8SVZGuED3jikI-9u_RxZ-2qlkwicuXn9EKxB2J_1ct2WoSjaGxWocxW7Fajt2ZVEhBZioYdA0ItOFa1hEdkIK44GhQAkrmLiDRVuPbGhYTyoMnQYTd0Ug","width":1580}],"place_id":"ChIJae1EHFTWuEcRCjPSE3k_fXs","plus_code":{"compound_code":"64XM+W8 Wuppertal, Germany","global_code":"9F3964XM+W8"},"rating":3.8,"reference":"ChIJae1EHFTWuEcRCjPSE3k_fXs","scope":"GOOGLE","types":["hospital","health","point_of_interest","establishment"],"user_ratings_total":49,"vicinity":"Arrenberger Straße 20, Wuppertal"},{"geometry":{"location":{"lat":51.4683754,"lng":7.211418099999999},"viewport":{"northeast":{"lat":51.470882,"lng":7.214177100000001},"southwest":{"lat":51.46593160000001,"lng":7.2088903}}},"icon":"https://maps.gstatic.com/mapfiles/place_api/icons/doctor-71.png","id":"ebb0275243140ef8a90b8ee69fe63894d95a6a5f","name":"BG University Hospital Bergmannsheil Bochum","opening_hours":{"open_now":true},"photos":[{"height":1334,"html_attributions":["<a href=\"https://maps.google.com/maps/contrib/110199963261809798111\">BG Universitätsklinikum Bergmannsheil Bochum</a>"],"photo_reference":"CmRaAAAAdynopDQGVqc4Rt3qN_x-hD7w1w3lQD-x0PSDpTyXTv1tdGdXz7pMjVSHIoqW0q2MpgnTfZVjsdfzdaAUn7BuvJ4Xw8qRdc1zaO-rM4q4h_H61tRjSAZnXzGH8Lk2mx2hEhBMCUlJmmopk6l6v-h9zuVHGhQUTnh3x91B1lAVSRIGcIhKJGVADg","width":2048}],"place_id":"ChIJIajTR3PguEcR-ruBjY4KCwU","plus_code":{"compound_code":"F696+9H Bochum, Germany","global_code":"9F39F696+9H"},"rating":3.1,"reference":"ChIJIajTR3PguEcR-ruBjY4KCwU","scope":"GOOGLE","types":["hospital","health","point_of_interest","establishment"],"user_ratings_total":236,"vicinity":"Bürkle de la Camp-Platz 1, Bochum"},{"geometry":{"location":{"lat":51.42622409999999,"lng":7.0077929},"viewport":{"northeast":{"lat":51.42779208029149,"lng":7.008865080291502},"southwest":{"lat":51.42509411970849,"lng":7.006167119708498}}},"icon":"https://maps.gstatic.com/mapfiles/place_api/icons/doctor-71.png","id":"224004996959c9470e8baeff35086eaae7cf0f47","name":"Alfried Krupp Hospital Ruettenscheid","opening_hours":{"open_now":true},"photos":[{"height":2448,"html_attributions":["<a href=\"https://maps.google.com/maps/contrib/100536928769676429338\">Rainer Richter</a>"],"photo_reference":"CmRaAAAAkVXxr_EkXrm6BTkf-Q8Gu1somOjezWq8xVuojN4ZUqTwHrvFxjC_OwZug0_o3tF-WEjj2xVhZE8xbZ1WfjGsVtJMout5K4q3IYqIqP43U1SHDz331czZePHgcXudCp_MEhDIhI9ElaTjM08lZNeoDAutGhRRm1_OFaYZOw4uciyJQVA_VTxe7g","width":3264}],"place_id":"ChIJA59SDyzDuEcRgszc1zjTzt0","plus_code":{"compound_code":"C2G5+F4 Essen, Germany","global_code":"9F39C2G5+F4"},"rating":3.6,"reference":"ChIJA59SDyzDuEcRgszc1zjTzt0","scope":"GOOGLE","types":["hospital","health","point_of_interest","establishment"],"user_ratings_total":218,"vicinity":"Alfried-Krupp-Straße 21, Essen"},{"geometry":{"location":{"lat":51.60621589999999,"lng":7.191748399999999},"viewport":{"northeast":{"lat":51.6076480802915,"lng":7.192710930291502},"southwest":{"lat":51.6049501197085,"lng":7.190012969708498}}},"icon":"https://maps.gstatic.com/mapfiles/place_api/icons/doctor-71.png","id":"481ae17339fb06e9c84ba5d71db5690e3dd0aaf9","name":"Prosper Hospital","opening_hours":{"open_now":true},"photos":[{"height":3744,"html_attributions":["<a href=\"https://maps.google.com/maps/contrib/107828746342806787774\">Prosper-Hospital gGmbH</a>"],"photo_reference":"CmRaAAAAXia_0dZ4gzfEN_8BDM2PcAi2JBJU4Xx4-wopI2Nbgc0JAvZZAtE37ofFuVWpycIMBMbcGaFK4r4miSxvoXBDx-jQad1-rTe-Y7jTtDvbPRFR0gaxKW3vS8OKw2aK2WfmEhC-vGFoE5ODhULNUcO1Zx2iGhQT5Z6TnYdUicqST_rEy979oXDViw","width":5616}],"place_id":"ChIJRWtmZWvjuEcRkjOPxSY1wWQ","plus_code":{"compound_code":"J54R+FM Recklinghausen, Germany","global_code":"9F39J54R+FM"},"rating":2.9,"reference":"ChIJRWtmZWvjuEcRkjOPxSY1wWQ","scope":"GOOGLE","types":["hospital","health","point_of_interest","establishment"],"user_ratings_total":186,"vicinity":"Mühlenstraße 27, Recklinghausen"},{"geometry":{"location":{"lat":51.4826249,"lng":7.221382500000002},"viewport":{"northeast":{"lat":51.48381313029149,"lng":7.223038580291504},"southwest":{"lat":51.4811151697085,"lng":7.220340619708499}}},"icon":"https://maps.gstatic.com/mapfiles/place_api/icons/doctor-71.png","id":"b3a520d3060ea3919b0debe60e6ab7f4db0a15a8","name":"Catholic Hospital Bochum - Saint Elisabeth Hospital","opening_hours":{"open_now":true},"photos":[{"height":630,"html_attributions":["<a href=\"https://maps.google.com/maps/contrib/115553626657217427192\">St. Elisabeth-Hospital - Katholisches Klinikum Bochum</a>"],"photo_reference":"CmRaAAAAfLxTOf9k_dCx1PDCgPfndygobqhMwG7VqWpFF3dEftTV2fohHl41C5te4euL0b-WQfyuamhTqywnv6l-b-ttg6C732mdSleKPYq3xLk2RLFGzK1v08aS0_451TNVQKEwEhBOyVAfuOY0n2c8uEBdQ7DzGhRRaqHbY1QHPfQqYe3asFBV8ZQCwg","width":944}],"place_id":"ChIJgxjlAz7guEcRLP_F_WF9iVM","plus_code":{"compound_code":"F6MC+2H Bochum, Germany","global_code":"9F39F6MC+2H"},"rating":3.2,"reference":"ChIJgxjlAz7guEcRLP_F_WF9iVM","scope":"GOOGLE","types":["hospital","health","point_of_interest","establishment"],"user_ratings_total":127,"vicinity":"Bleichstraße 15, Bochum"},{"geometry":{"location":{"lat":51.5343318,"lng":7.230654500000001},"viewport":{"northeast":{"lat":51.5357172802915,"lng":7.232052280291502},"southwest":{"lat":51.5330193197085,"lng":7.229354319708498}}},"icon":"https://maps.gstatic.com/mapfiles/place_api/icons/doctor-71.png","id":"9d1c1f48135fe94ac7341097db96c828ff3bf00b","name":"ZEW GmbH","place_id":"ChIJ7wWmo_LhuEcRNIQBiJpc6C0","plus_code":{"compound_code":"G6MJ+P7 Herne, Germany","global_code":"9F39G6MJ+P7"},"reference":"ChIJ7wWmo_LhuEcRNIQBiJpc6C0","scope":"GOOGLE","types":["hospital","laundry","health","point_of_interest","establishment"],"vicinity":"Wiescherstraße 24, Herne"},{"geometry":{"location":{"lat":51.5351452,"lng":6.9192232},"viewport":{"northeast":{"lat":51.5364480302915,"lng":6.920522230291502},"southwest":{"lat":51.5337500697085,"lng":6.917824269708498}}},"icon":"https://maps.gstatic.com/mapfiles/place_api/icons/doctor-71.png","id":"f6a1b09e1305c6186346687d7c0ac6b990303e15","name":"Marienhospital Bottrop gGmbH","opening_hours":{"open_now":true},"photos":[{"height":1584,"html_attributions":["<a href=\"https://maps.google.com/maps/contrib/109201937139647359653\">Marienhospital Bottrop gGmbH</a>"],"photo_reference":"CmRaAAAA3cbAKw7XjkxxjVTXV1bjWYDEikGbi6vTmgS5Nh50x4iEfMGY8s6_3amHGSn_OYwMmcclD2eNUh-x4DSsI1zK8_PgevJCgi78cBpS2YMtkgSnzelZHeR5EutduzPNrbnDEhAy151Y3hOrbrMa_DPecywwGhRDSkVAwgoOk_g7N2osOReGwDJuBQ","width":2480}],"place_id":"ChIJ-92IMsXruEcRfD29OA88m_Q","plus_code":{"compound_code":"GWP9+3M Bottrop, Germany","global_code":"9F38GWP9+3M"},"rating":2.8,"reference":"ChIJ-92IMsXruEcRfD29OA88m_Q","scope":"GOOGLE","types":["hospital","health","point_of_interest","establishment"],"user_ratings_total":154,"vicinity":"Josef-Albers-Straße 70, Bottrop"},{"geometry":{"location":{"lat":51.4641507,"lng":7.327410700000001},"viewport":{"northeast":{"lat":51.4653218802915,"lng":7.3282832},"southwest":{"lat":51.46262391970851,"lng":7.3247932}}},"icon":"https://maps.gstatic.com/mapfiles/place_api/icons/doctor-71.png","id":"d35b1c2f39f219c3277dc6d5ad62542a9690cc45","name":"University Hospital Knappschaftskrankenhaus Bochum GmbH","opening_hours":{"open_now":true},"photos":[{"height":1365,"html_attributions":["<a href=\"https://maps.google.com/maps/contrib/111361697615355251829\">Universitätsklinikum Knappschaftskrankenhaus Bochum</a>"],"photo_reference":"CmRaAAAA2na5fGpmDBKM66w35DU8YjeAQWWczxAq50l4JLp2_Zg8eBd2IUBsJlQ-vvE7xF0EWmJFxkffG0gILTLr-liToWl139kKBoQ5hGkcqmEY8MuJ7ght2rVLA42lxfDfBp__EhDo8SGJprlU29Shi6XWtLZmGhShdrZl1UIsTh9z4kGmjW5relzyZw","width":2048}],"place_id":"ChIJfevFPFsfuUcRZ78Oic2n-Sk","plus_code":{"compound_code":"F87G+MX Bochum, Germany","global_code":"9F39F87G+MX"},"rating":3,"reference":"ChIJfevFPFsfuUcRZ78Oic2n-Sk","scope":"GOOGLE","types":["hospital","health","point_of_interest","establishment"],"user_ratings_total":147,"vicinity":"In der Schornau 23-25, Bochum"},{"geometry":{"location":{"lat":51.27326559999999,"lng":7.172603},"viewport":{"northeast":{"lat":51.27624895000001,"lng":7.178922},"southwest":{"lat":51.27184954999998,"lng":7.167875999999999}}},"icon":"https://maps.gstatic.com/mapfiles/place_api/icons/doctor-71.png","id":"604c306b453cbd20c5c0fc1faa18cc6ac697755f","name":"Helios Universitätsklinikum Wuppertal","opening_hours":{"open_now":true},"photos":[{"height":1920,"html_attributions":["<a href=\"https://maps.google.com/maps/contrib/115405140858181491479\">Andre Fuffel</a>"],"photo_reference":"CmRaAAAAAiEqG6-EUngD-0KJ3TTvgoTvWP7QB8DsIR7FnzwCB5nTEqUj-mW7nwxTTTtn-HtCnGVeLZb6Ia-XlLxh4RM0g_t2fhMrO3P-t_PvXBl5ObFu6zIeo9_dsE3d0x3LvohyEhD0Fq_YNYshvQ7HzPmX2_ncGhRYEBiMuIIYbgIsRBjBfWpWOxFbzQ","width":2560}],"place_id":"ChIJVzAar8LXuEcR0UpV5Y99F10","plus_code":{"compound_code":"75FF+82 Wuppertal, Germany","global_code":"9F3975FF+82"},"rating":2.6,"reference":"ChIJVzAar8LXuEcR0UpV5Y99F10","scope":"GOOGLE","types":["hospital","health","point_of_interest","establishment"],"user_ratings_total":306,"vicinity":"Heusnerstraße 40, Wuppertal"},{"geometry":{"location":{"lat":51.509708,"lng":7.0891552},"viewport":{"northeast":{"lat":51.5112066302915,"lng":7.090516330291501},"southwest":{"lat":51.5085086697085,"lng":7.087818369708497}}},"icon":"https://maps.gstatic.com/mapfiles/place_api/icons/doctor-71.png","id":"027443871b278fb72dfc6cdfc2ec12587bf6f5c6","name":"Evangelische Kliniken Gelsenkirchen","opening_hours":{"open_now":true},"photos":[{"height":1536,"html_attributions":["<a href=\"https://maps.google.com/maps/contrib/114815252203008404020\">Evangelische Kliniken Gelsenkirchen</a>"],"photo_reference":"CmRaAAAA-t8QrC9kD4P038SaXApppcEe1niUsJ5XFr04LBSWHTIyg7i0XuiHGRmCxqKbZi20ItsQ2EPwbPCMlIFfV1iFyNbH2C-v2kzfW9Br54IqCL8Dhuyd4C6gCdQ9ejwjrxiIEhAajEPTyzhxODZrgQeFXtPXGhR6GLK2oZAtkWkiNKIas0ur3ncqDQ","width":2048}],"place_id":"ChIJy9soaQDnuEcRLaJt5_uEoX0","plus_code":{"compound_code":"G35Q+VM Gelsenkirchen, Germany","global_code":"9F39G35Q+VM"},"rating":2.5,"reference":"ChIJy9soaQDnuEcRLaJt5_uEoX0","scope":"GOOGLE","types":["hospital","health","point_of_interest","establishment"],"user_ratings_total":160,"vicinity":"Munckelstraße 27, Gelsenkirchen"},{"geometry":{"location":{"lat":51.52400009999999,"lng":7.367711499999998},"viewport":{"northeast":{"lat":51.52508193029149,"lng":7.369085180291501},"southwest":{"lat":51.52238396970849,"lng":7.366387219708496}}},"icon":"https://maps.gstatic.com/mapfiles/place_api/icons/doctor-71.png","id":"ec3ef61e008505d31fa3192331e492eac1f262fd","name":"Katholisches Krankenhaus Dortmund-West","opening_hours":{"open_now":true},"photos":[{"height":2448,"html_attributions":["<a href=\"https://maps.google.com/maps/contrib/100886312746560908547\">Werner H.</a>"],"photo_reference":"CmRaAAAAsumgiBUkk4tYdzPqfZ_SDKQcoWGr1qFRqBXcmTHE41AnONYElRnv2CMCs-6RnitW4mKGVpg9BJ4TaMTqeyS-V517wi_sPs5_qb_9vhP3UcCBojKVmAIZEOKqHlgo5L-NEhAakLrkvmmcqcvTGbZTxdbMGhQ0p-R_7IF9GOhMhAgJxLqW9o3KfQ","width":3264}],"place_id":"ChIJC2qt2U0ZuUcRbrsECdBd8tE","plus_code":{"compound_code":"G9F9+J3 Dortmund, Germany","global_code":"9F39G9F9+J3"},"rating":2.6,"reference":"ChIJC2qt2U0ZuUcRbrsECdBd8tE","scope":"GOOGLE","types":["hospital","health","point_of_interest","establishment"],"user_ratings_total":46,"vicinity":"Zollernstraße 40, Dortmund"},{"geometry":{"location":{"lat":51.5371259,"lng":7.684675899999998},"viewport":{"northeast":{"lat":51.5385946802915,"lng":7.685873330291503},"southwest":{"lat":51.5358967197085,"lng":7.683175369708498}}},"icon":"https://maps.gstatic.com/mapfiles/place_api/icons/doctor-71.png","id":"c9c25426a62f5ceaaec3c4ccf39e47c64d8ba117","name":"Katharinen-Hospital Unna gGmbH","opening_hours":{"open_now":true},"photos":[{"height":3456,"html_attributions":["<a href=\"https://maps.google.com/maps/contrib/112293820965455948512\">Claudia Graul</a>"],"photo_reference":"CmRaAAAAr7qoiyvN87NPGP25x_AUWaN-iiSKGSLp_A9OLH0UpnTZej-gkCrfmI9rD03sss7taDpGsX-6mlgyv-F3cyavihoum-CTYw1_jRbwXBVD4_LAz1olJwc-GOWoLR88z6X8EhAtzUZjHFS5MzOSf5QcynKSGhQ3zHLEEuhi_dPIIhJ17EtQNjcd2Q","width":4608}],"place_id":"ChIJOWcLCUoTuUcRj9LBPICdKmk","plus_code":{"compound_code":"GMPM+VV Unna, Germany","global_code":"9F39GMPM+VV"},"rating":3,"reference":"ChIJOWcLCUoTuUcRj9LBPICdKmk","scope":"GOOGLE","types":["hospital","health","point_of_interest","establishment"],"user_ratings_total":101,"vicinity":"Obere Husemannstraße 2, Unna"},{"geometry":{"location":{"lat":51.4849999,"lng":7.504822399999999},"viewport":{"northeast":{"lat":51.4862953302915,"lng":7.505936280291503},"southwest":{"lat":51.4835973697085,"lng":7.503238319708498}}},"icon":"https://maps.gstatic.com/mapfiles/place_api/icons/doctor-71.png","id":"77a0eb5d2fefa903cd6522a70d317b54e43c3e93","name":"St.-Josefs-Hospital Dortmund","opening_hours":{"open_now":true},"photos":[{"height":1228,"html_attributions":["<a href=\"https://maps.google.com/maps/contrib/112138991508163564582\">Tragschrauberrundflug-NRW Christian Wolff</a>"],"photo_reference":"CmRaAAAAKflhiLEWSYASUG-tGBzrC4iVWXHVk0PshaJKJhQlXLPOcboMHgpnRjtE0OwFdIPEBOngv43z05D1IuiLwixm4ftl0YqBs5W5p4-cOSwvHPSDMMFL9eJnYgJB9CkB_COKEhAn-PObQfvrcQVvT-lNhD8tGhQ5HZ53LxdPOEVpSI30QdDCwrTwVw","width":1920}],"place_id":"ChIJnf816KkXuUcR2ceG85OvsOU","plus_code":{"compound_code":"FGM3+XW Dortmund, Germany","global_code":"9F39FGM3+XW"},"rating":3,"reference":"ChIJnf816KkXuUcR2ceG85OvsOU","scope":"GOOGLE","types":["hospital","health","point_of_interest","establishment"],"user_ratings_total":147,"vicinity":"Wilhelm-Schmidt-Straße 4, Dortmund"}]