[{"geometry":{"location":{"lat":51.15552999999999,"lng":10.84106},"viewport":{"northeast":{"lat":51.15722098029149,"lng":10.8421128302915},"southwest":{"lat":51.15452301970849,"lng":10.8394148697085}}},"icon":"https://maps.gstatic.com/mapfiles/place_api/icons/generic_business-71.png","id":"9cd8652f188bb887eee46f4985b1a49288aec3ed","name":"MEDIAN Klinik Bad Tennstedt","opening_hours":{"open_now":true},"photos":[{"height":2736,"html_attributions":["<a href=\"https://maps.google.com/maps/contrib/106827489993287262479\">Ulli Koch</a>"],"photo_reference":"CmRaAAAAp9IR5F02STj-MjhyiabQPchm2tLpI1TpOS8Bgon7cArpmfEvHQdm3fJq7YRTanMt-LNPNXvBeqXZ-aUnGLsux_J8FUNF1nsY-j1Wm9PdaZj-4V1rlyWXm3YLzgMj6kVlEhC6q7uRL7nL6KMYyDQztpS2GhSd-rP7N-A6C0a5pLV6TgQ84HnV8g","width":3648}],"place_id":"ChIJ1w_5tgtnpEcRDQBOGypeQXE","plus_code":{"compound_code":"5R4R+6C Bad Tennstedt, Germany","global_code":"9F3G5R4R+6C"},"rating":2.6,"reference":"ChIJ1w_5tgtnpEcRDQBOGypeQXE","scope":"GOOGLE","types":["hospital","health","point_of_interest","establishment"],"user_ratings_total":25,"vicinity":"Badeweg 2, Bad Tennstedt"},{"geometry":{"location":{"lat":50.97566310000001,"lng":11.0335609},"viewport":{"northeast":{"lat":50.9768747302915,"lng":11.0349900802915},"southwest":{"lat":50.97417676970851,"lng":11.0322921197085}}},"icon":"https://maps.gstatic.com/mapfiles/place_api/icons/generic_business-71.png","id":"bb3f98ce84c8fa59ef688513608fc692bdcb54c5","name":"Marcus-Matthias Woytas","opening_hours":{"open_now":false},"photos":[{"height":250,"html_attributions":["<a href=\"https://maps.google.com/maps/contrib/116566421281587498237\">Marcus-Matthias Woytas</a>"],"photo_reference":"CmRaAAAAnHT88j_lqBkxZwTsP-xAE6tor8nOzbHQQpRWPKq6OhaHDZ0XBjqpaE5_ijoLnEef5LnbX-CrGY1MfBIq7o48hDsNQL7mTXgZSjbjoxx-iKNeLyVvK7MYCx_s-AUOZrqFEhCkarQMAvPytBoB8XJcxFALGhSyzp7LrYB7ZtpDgheMtiHQ0GnYaA","width":250}],"place_id":"ChIJ98Rm9r5ypEcRP5U_d-PO658","plus_code":{"compound_code":"X2GM+7C Erfurt, Germany","global_code":"9F2HX2GM+7C"},"rating":3.6,"reference":"ChIJ98Rm9r5ypEcRP5U_d-PO658","scope":"GOOGLE","types":["hospital","doctor","health","point_of_interest","establishment"],"user_ratings_total":9,"vicinity":"Anger 58, Erfurt"},{"geometry":{"location":{"lat":50.9613541,"lng":11.3227795},"viewport":{"northeast":{"lat":50.9627743302915,"lng":11.3240176802915},"southwest":{"lat":50.9600763697085,"lng":11.3213197197085}}},"icon":"https://maps.gstatic.com/mapfiles/place_api/icons/doctor-71.png","id":"b15bd2070d5766e076a6c04eeaf8231b60ea54fd","name":"Sophien- und Hufeland Klinikum","opening_hours":{"open_now":true},"photos":[{"height":2358,"html_attributions":["<a href=\"https://maps.google.com/maps/contrib/117522601182502612157\">Sophien-und Hufeland Klinikum</a>"],"photo_reference":"CmRaAAAASIlusVLT17kiHbTB6JZ_ehdLtsiUiavM44uX5AEUwoq7MnUh7uFQVOhIvyzwRY54r6PwVDST5zC-Yl1eo9h4htIfHaR0P2cVVs5VtdC1FJLYgAwDqVkcVSiOF1E4DCjXEhDYQqY08W1BaHozjSS4_03vGhQrF_E6EVnlWWjrZhzfZ3uJ65zUPA","width":3543}],"place_id":"ChIJsXwo-S0FpEcRFkfrck38uL4","plus_code":{"compound_code":"X86F+G4 Weimar, Germany","global_code":"9F2HX86F+G4"},"rating":3.6,"reference":"ChIJsXwo-S0FpEcRFkfrck38uL4","scope":"GOOGLE","types":["hospital","health","point_of_interest","establishment"],"user_ratings_total":96,"vicinity":"Henry-van-de-Velde-Straße 2, Weimar"},{"geometry":{"location":{"lat":50.88970579999999,"lng":11.2663271},"viewport":{"northeast":{"lat":50.8911205302915,"lng":11.2680697802915},"southwest":{"lat":50.8884225697085,"lng":11.2653718197085}}},"icon":"https://maps.gstatic.com/mapfiles/place_api/icons/doctor-71.png","id":"d9b52901e1743e1d50d51f9a65f6783d18c62541","name":"Central Clinic Bad Berka","opening_hours":{"open_now":true},"photos":[{"height":3120,"html_attributions":["<a href=\"https://maps.google.com/maps/contrib/107735144488277440031\">UF G</a>"],"photo_reference":"CmRaAAAAAFftlGTWWA6vzVcVwTj4x4wsk8pwypUappSC_pnUEEcZBSj8x_-u0-dVC7BmvHXFZ2Bx7_YdJ2TqpwKNlNVEGNbsoob4sy60LyWDGv7k4OfFGlWjiEN0ISwb-2zn1gJ6EhC624SM34-Rk7MrSLCEN019GhQXwNII_XDbNEnXFvrGbUPfGDcCtw","width":4160}],"place_id":"ChIJjTFmFeMFpEcRjggFxPprbRQ","plus_code":{"compound_code":"V7Q8+VG Bad Berka, Germany","global_code":"9F2HV7Q8+VG"},"rating":4.5,"reference":"ChIJjTFmFeMFpEcRjggFxPprbRQ","scope":"GOOGLE","types":["hospital","health","point_of_interest","establishment"],"user_ratings_total":85,"vicinity":"Robert-Koch-Allee 9, Bad Berka"},{"geometry":{"location":{"lat":50.8850491,"lng":11.6212351},"viewport":{"northeast":{"lat":50.88615023029149,"lng":11.6228884802915},"southwest":{"lat":50.88345226970849,"lng":11.6201905197085}}},"icon":"https://maps.gstatic.com/mapfiles/place_api/icons/doctor-71.png","id":"96a8ae20bb0a5cdf94df1d27ccce0837b2899e35","name":"Jena University Hospital - Hospital Lobeda","opening_hours":{"open_now":true},"photos":[{"height":2448,"html_attributions":["<a href=\"https://maps.google.com/maps/contrib/104729949085642531919\">Paolo Calo</a>"],"photo_reference":"CmRaAAAAtiIDwoSbEIfqowrsuRuohtegrWwViOfD9DccWNZIYgdNe-nvbzIZNGRoSsT9p9rAOsXu04atPbW5VYowx3gSj-FzAUtzoyRaeklIhBoRg7UCpv82SssmJvhuG4WRfA39EhDyal1AwnmHQWJxMixwbxRiGhSamUzgfbbKoXHXXIh0ILT0ezgSvA","width":3264}],"place_id":"ChIJTYCIgM6opkcRRIPG54TGFlM","plus_code":{"compound_code":"VJPC+2F Jena, Germany","global_code":"9F2HVJPC+2F"},"rating":3.2,"reference":"ChIJTYCIgM6opkcRRIPG54TGFlM","scope":"GOOGLE","types":["hospital","health","point_of_interest","establishment"],"user_ratings_total":139,"vicinity":"Am Klinikum 1, Jena"},{"geometry":{"location":{"lat":50.8811104,"lng":11.5999764},"viewport":{"northeast":{"lat":50.8824670802915,"lng":11.6014195802915},"southwest":{"lat":50.8797691197085,"lng":11.5987216197085}}},"icon":"https://maps.gstatic.com/mapfiles/place_api/icons/doctor-71.png","id":"68e3d8f4c7eadc7157e8ff5eef0d5817cfafae53","name":"MVZet GmbH","place_id":"ChIJ76PeH8-upkcRD5gV0JrFmgk","plus_code":{"compound_code":"VHJX+CX Jena, Germany","global_code":"9F2HVHJX+CX"},"rating":5,"reference":"ChIJ76PeH8-upkcRD5gV0JrFmgk","scope":"GOOGLE","types":["hospital","health","point_of_interest","establishment"],"user_ratings_total":2,"vicinity":"Fregestraße 6, Jena"},{"geometry":{"location":{"lat":50.9691367,"lng":11.0217386},"viewport":{"northeast":{"lat":50.97052188029151,"lng":11.0229861302915},"southwest":{"lat":50.96782391970851,"lng":11.0202881697085}}},"icon":"https://maps.gstatic.com/mapfiles/place_api/icons/doctor-71.png","id":"782a5ad5b44ed81d8f0995e2abebf84436532ce3","name":"Dr. med. Dörte Wolf","place_id":"ChIJe3pVppNypEcRHg_z3J1VT9g","plus_code":{"compound_code":"X29C+MM Erfurt, Germany","global_code":"9F2HX29C+MM"},"rating":3.5,"reference":"ChIJe3pVppNypEcRHg_z3J1VT9g","scope":"GOOGLE","types":["hospital","health","point_of_interest","establishment"],"user_ratings_total":2,"vicinity":"Dalbergsweg 21, Erfurt"},{"geometry":{"location":{"lat":50.89100939999999,"lng":11.2684732},"viewport":{"northeast":{"lat":50.89238148029149,"lng":11.2697894802915},"southwest":{"lat":50.8896835197085,"lng":11.2670915197085}}},"icon":"https://maps.gstatic.com/mapfiles/place_api/icons/doctor-71.png","id":"ba166c5de8970869dbb3fe282d89998e0934e116","name":"Zentralklinik Bad Berka : Klinik für Kardiochirurgie","opening_hours":{"open_now":false},"place_id":"ChIJo901GuMFpEcRcG9iVTujtvQ","plus_code":{"compound_code":"V7R9+C9 Bad Berka, Germany","global_code":"9F2HV7R9+C9"},"rating":3.7,"reference":"ChIJo901GuMFpEcRcG9iVTujtvQ","scope":"GOOGLE","types":["hospital","health","point_of_interest","establishment"],"user_ratings_total":6,"vicinity":"Robert-Koch-Allee 9, Bad Berka"},{"geometry":{"location":{"lat":50.6017304,"lng":10.7106348},"viewport":{"northeast":{"lat":50.60308433029149,"lng":10.7121375302915},"southwest":{"lat":50.6003863697085,"lng":10.7094395697085}}},"icon":"https://maps.gstatic.com/mapfiles/place_api/icons/doctor-71.png","id":"5b47cce663e18821a79276564f5ed6bec75d5ad1","name":"SRH Zentralklinikum Suhl","opening_hours":{"open_now":true},"photos":[{"height":1152,"html_attributions":["<a href=\"https://maps.google.com/maps/contrib/113011611944548731767\">SRH Zentralklinikum Suhl</a>"],"photo_reference":"CmRaAAAAo8TPyzbGs00CmQjM1EjX0B_CQAGQHtoBqYfhEa0uXzL0C2rNg5onuHZxaO93pklgtFnF38rp_sQK8Y72AyN9tDUd8TfJpKv-J-obui8XMVWEiWPmeyZaHeuTygOSHawcEhCk5q6DZ4RLQpuS_ShVhfXwGhTZMgK4J8zyTsDYrBVQkysUrgEFqA","width":2048}],"place_id":"ChIJcUzIIUuXo0cRhCi5L7-2m2o","plus_code":{"compound_code":"JP26+M7 Suhl, Germany","global_code":"9F2GJP26+M7"},"rating":3.5,"reference":"ChIJcUzIIUuXo0cRhCi5L7-2m2o","scope":"GOOGLE","types":["hospital","university","school","health","point_of_interest","establishment"],"user_ratings_total":76,"vicinity":"Albert-Schweitzer-Straße 2, Suhl"},{"geometry":{"location":{"lat":50.9290708,"lng":11.5807836},"viewport":{"northeast":{"lat":50.9303840802915,"lng":11.5822976802915},"southwest":{"lat":50.9276861197085,"lng":11.5795997197085}}},"icon":"https://maps.gstatic.com/mapfiles/place_api/icons/doctor-71.png","id":"fadbc146ccbae6fb848fc3f0f2e1ba8d1040a0aa","name":"Universitätsklinikum Jena Klinik für Kinder- und Jugendmedizin - Neuropädiatrie","place_id":"ChIJGZxBGJiopkcRLMhrZSARZ6A","plus_code":{"compound_code":"WHHJ+J8 Jena, Germany","global_code":"9F2HWHHJ+J8"},"rating":1,"reference":"ChIJGZxBGJiopkcRLMhrZSARZ6A","scope":"GOOGLE","types":["hospital","health","point_of_interest","establishment"],"user_ratings_total":1,"vicinity":"Bachstraße 18, Jena"},{"geometry":{"location":{"lat":50.9914676,"lng":11.0123371},"viewport":{"northeast":{"lat":50.9927520302915,"lng":11.0134700802915},"southwest":{"lat":50.99005406970851,"lng":11.0107721197085}}},"icon":"https://maps.gstatic.com/mapfiles/place_api/icons/doctor-71.png","id":"0c1869a90659eb9f8f506007e2ceb954444b49d9","name":"HELIOS Klinikum Erfurt | Sozialpädiatrisches Zentrum","photos":[{"height":2976,"html_attributions":["<a href=\"https://maps.google.com/maps/contrib/114241050212170327453\">Diana S.</a>"],"photo_reference":"CmRaAAAA114d4lhgBvjPWVjCHDPj4jEzAs4vhkibXpyZZ_aIPQSUL1RCFR6ZuJYugU8wUa5-Ksu7Hsx17MoiwqZ6AolNBOFvn8ZErGpMkNFCxkos3kJrFOmsXn9nSPz1BQnlX8fqEhCo-FL_4irhRVZVNRG8IeRwGhQHGhfIUlC5UNNT8g7fsWJYoSJ9mg","width":3968}],"place_id":"ChIJbyNVEIFypEcRJ43jKbFJgZM","plus_code":{"compound_code":"X2R6+HW Erfurt, Germany","global_code":"9F2HX2R6+HW"},"rating":4,"reference":"ChIJbyNVEIFypEcRJ43jKbFJgZM","scope":"GOOGLE","types":["hospital","health","point_of_interest","establishment"],"user_ratings_total":1,"vicinity":"Nordhäuser Straße 74, Erfurt"},{"geometry":{"location":{"lat":50.8376374,"lng":10.9456842},"viewport":{"northeast":{"lat":50.8392234802915,"lng":10.9469180802915},"southwest":{"lat":50.8365255197085,"lng":10.9442201197085}}},"icon":"https://maps.gstatic.com/mapfiles/place_api/icons/doctor-71.png","id":"aebf26eba64fd0f747baefb6612d898d1bc194fa","name":"Marienstift Arnstadt -Orthopädische Klinik- Abteilung für Kinderorthopädie","opening_hours":{"open_now":true},"place_id":"ChIJCw47-oF1pEcR5Yx-u-_Fm2k","plus_code":{"compound_code":"RWQW+37 Arnstadt, Germany","global_code":"9F2GRWQW+37"},"rating":5,"reference":"ChIJCw47-oF1pEcR5Yx-u-_Fm2k","scope":"GOOGLE","types":["hospital","health","point_of_interest","establishment"],"user_ratings_total":7,"vicinity":"Wachsenburgallee 12, Arnstadt"},{"geometry":{"location":{"lat":50.98138889999999,"lng":11.0433333},"viewport":{"northeast":{"lat":50.98268553029149,"lng":11.0447076302915},"southwest":{"lat":50.9799875697085,"lng":11.0420096697085}}},"icon":"https://maps.gstatic.com/mapfiles/place_api/icons/doctor-71.png","id":"fd7a3458183fbc4caa64dac6c3e1c4c6c084f624","name":"CityClinic Erfurt GmbH","photos":[{"height":3024,"html_attributions":["<a href=\"https://maps.google.com/maps/contrib/108587110085471113110\">key six</a>"],"photo_reference":"CmRaAAAAxeK7ewL6h8Vbmk1dGFC_If5Fs7oEvQwDkDMfvVMnTpnPd20PvoFxS0a5zA0UrAiHlJeD9R97h3pr2ZI_xjjbgFrx47M8QefDZbUX5CWMEiSGm9MoajRqJPBZOZ0aoYv7EhBtYybey4bueWznFccMXusVGhSrk_Sq5F8P3b1crPpKni3dcbPVjw","width":4032}],"place_id":"ChIJlRBM07pypEcRzEWPFKIcsPQ","plus_code":{"compound_code":"X2JV+H8 Erfurt, Germany","global_code":"9F2HX2JV+H8"},"rating":4,"reference":"ChIJlRBM07pypEcRzEWPFKIcsPQ","scope":"GOOGLE","types":["hospital","health","point_of_interest","establishment"],"user_ratings_total":1,"vicinity":"Geschwister-Scholl-Straße 6, Erfurt"},{"geometry":{"location":{"lat":51.005208,"lng":11.015343},"viewport":{"northeast":{"lat":51.0066237802915,"lng":11.0170344302915},"southwest":{"lat":51.0039258197085,"lng":11.0143364697085}}},"icon":"https://maps.gstatic.com/mapfiles/place_api/icons/doctor-71.png","id":"e192d1f58738d39512a95f4b2ca587e0691da20c","name":"Dr. med. Kielstein Ambulatory Medical Care GmbH","opening_hours":{"open_now":false},"photos":[{"height":2016,"html_attributions":["<a href=\"https://maps.google.com/maps/contrib/116877277763280153488\">Florian Van Vaan</a>"],"photo_reference":"CmRaAAAAQ5K14ZZydHtlXJwuj-CU5aQ4mNMSdRXfqc2jb5pK7dNSUHdSXONzR26JEtXR5QJNNTnhWe59yov9nh4H2Uh2XIuIYFU0GJFh8yrc0UqavoGlGrxo5O5BOvb8q8qhiY9yEhAq1NB6PxU_svrohwURpKg7GhR8tA2P-8hiZwr0Tfte5hcbTlytyA","width":4032}],"place_id":"ChIJiVa-JHhtpEcRvfIxjNfcEvw","plus_code":{"compound_code":"2248+34 Erfurt, Germany","global_code":"9F3H2248+34"},"rating":3.5,"reference":"ChIJiVa-JHhtpEcRvfIxjNfcEvw","scope":"GOOGLE","types":["hospital","health","point_of_interest","establishment"],"user_ratings_total":28,"vicinity":"Mainzer Straße 35, Erfurt"},{"geometry":{"location":{"lat":50.9808689,"lng":11.0221153},"viewport":{"northeast":{"lat":50.9821842302915,"lng":11.0233688302915},"southwest":{"lat":50.9794862697085,"lng":11.0206708697085}}},"icon":"https://maps.gstatic.com/mapfiles/place_api/icons/doctor-71.png","id":"4c2af7add92836754d9a989a9d5eeb2caf50f684","name":"Nervenärztliche Gemeinschaftspraxis von Dr. med. A. Roos-Janke und U. Janke","opening_hours":{"open_now":false},"place_id":"ChIJz50-TJVypEcRP_dE2VMCtIA","plus_code":{"compound_code":"X2JC+8R Erfurt, Germany","global_code":"9F2HX2JC+8R"},"rating":4,"reference":"ChIJz50-TJVypEcRP_dE2VMCtIA","scope":"GOOGLE","types":["hospital","doctor","health","point_of_interest","establishment"],"user_ratings_total":4,"vicinity":"Andreasstraße 8, Erfurt"},{"geometry":{"location":{"lat":51.0082032,"lng":11.0008631},"viewport":{"northeast":{"lat":51.00949223029149,"lng":11.0022667802915},"southwest":{"lat":51.00679426970849,"lng":10.9995688197085}}},"icon":"https://maps.gstatic.com/mapfiles/place_api/icons/doctor-71.png","id":"de975ff749f4ae15061f0bd10f570f2b0f051591","name":"Dr. med. Kielstein Ambulatory Medical Care GmbH","opening_hours":{"open_now":false},"photos":[{"height":683,"html_attributions":["<a href=\"https://maps.google.com/maps/contrib/116495430031477913532\">Praxis Kielstein</a>"],"photo_reference":"CmRaAAAAqLdq3jc9XBLYX_Sx-2dJON7MOhAtiS1HXkxf44zydwiq9Y_VNcXBOHX4cR84trxIL7rjL7qgoeKx6vXWJL2XpiPVe1H2xfeBUy6t65nhA2TReczpe7aJe7kaapPO3Ub5EhBVZQygaUW2neUGlvRIAAMsGhSR7tYlaF5X89TYshC2TBHtmq7Jvw","width":1024}],"place_id":"ChIJVxmAopptpEcREs-iTcMjs0Q","plus_code":{"compound_code":"2252+78 Erfurt, Germany","global_code":"9F3H2252+78"},"rating":2.7,"reference":"ChIJVxmAopptpEcREs-iTcMjs0Q","scope":"GOOGLE","types":["hospital","health","point_of_interest","establishment"],"user_ratings_total":21,"vicinity":"Moskauer Platz 15, Erfurt"},{"geometry":{"location":{"lat":51.01269,"lng":11.51267},"viewport":{"northeast":{"lat":51.0140640302915,"lng":11.5142883302915},"southwest":{"lat":51.0113660697085,"lng":11.5115903697085}}},"icon":"https://maps.gstatic.com/mapfiles/place_api/icons/doctor-71.png","id":"cecec82e440cae4c576fed14ca3d700d4522e43d","name":"Klinik-Servicegesellschaft Apolda GmbH","place_id":"ChIJTT-JqO0dpEcRGPlBVjKQvGE","plus_code":{"compound_code":"2G77+33 Apolda, Germany","global_code":"9F3H2G77+33"},"reference":"ChIJTT-JqO0dpEcRGPlBVjKQvGE","scope":"GOOGLE","types":["hospital","health","point_of_interest","establishment"],"vicinity":"Jenaer Straße 66, Apolda"},{"geometry":{"location":{"lat":50.97752999999999,"lng":11.32356},"viewport":{"northeast":{"lat":50.97907388029149,"lng":11.3250134302915},"southwest":{"lat":50.9763759197085,"lng":11.3223154697085}}},"icon":"https://maps.gstatic.com/mapfiles/place_api/icons/doctor-71.png","id":"c6d25a8690129381bde62dd1adfada8cd790d11f","name":"Frau Esther Leonhardt","opening_hours":{"open_now":false},"place_id":"ChIJba4kysUapEcRayB8Fg-7q5c","plus_code":{"compound_code":"X8HF+2C Weimar, Germany","global_code":"9F2HX8HF+2C"},"reference":"ChIJba4kysUapEcRayB8Fg-7q5c","scope":"GOOGLE","types":["hospital","health","point_of_interest","establishment"],"vicinity":"Steubenstraße 23, Weimar"},{"geometry":{"location":{"lat":50.991519,"lng":11.011898},"viewport":{"northeast":{"lat":50.9928522302915,"lng":11.0131943302915},"southwest":{"lat":50.9901542697085,"lng":11.0104963697085}}},"icon":"https://maps.gstatic.com/mapfiles/place_api/icons/generic_business-71.png","id":"6f1118a19781aa7ff9b9411150bd6b4075df305a","name":"Brustzentrum | Helios Klinikum Erfurt","place_id":"ChIJbyNVEIFypEcRLYOuMyIlLBU","plus_code":{"compound_code":"X2R6+JQ Erfurt, Germany","global_code":"9F2HX2R6+JQ"},"reference":"ChIJbyNVEIFypEcRLYOuMyIlLBU","scope":"GOOGLE","types":["hospital","health","point_of_interest","establishment"],"vicinity":"Nordhäuser Straße 74, Erfurt"},{"geometry":{"location":{"lat":51.106106,"lng":10.652146},"viewport":{"northeast":{"lat":51.1074840302915,"lng":10.6534841802915},"southwest":{"lat":51.1047860697085,"lng":10.6507862197085}}},"icon":"https://maps.gstatic.com/mapfiles/place_api/icons/doctor-71.png","id":"e136bedde85e0a0246feabfa29f340993ce48a6d","name":"Klinik für Anästhesie und Intensivmedizin","opening_hours":{"open_now":false},"place_id":"ChIJafiYUvyJpEcRIsIkTQr2F9k","plus_code":{"compound_code":"4M42+CV Bad Langensalza, Germany","global_code":"9F3G4M42+CV"},"reference":"ChIJafiYUvyJpEcRIsIkTQr2F9k","scope":"GOOGLE","types":["hospital","health","point_of_interest","establishment"],"vicinity":"Rudolph-Weiss-Straße 1 - 5, Bad Langensalza"}]