[{"geometry":{"location":{"lat":49.4632166,"lng":11.0609434},"viewport":{"northeast":{"lat":49.46417828029149,"lng":11.06535145},"southwest":{"lat":49.46148031970849,"lng":11.05947405}}},"icon":"https://maps.gstatic.com/mapfiles/place_api/icons/doctor-71.png","id":"1d600de8139ea9668420b7c33195e0a57515524c","name":"Nuremberg Hospital North, North Hospital","opening_hours":{"open_now":true},"photos":[{"height":939,"html_attributions":["<a href=\"https://maps.google.com/maps/contrib/116941445569574805081\">Klinikum Nürnberg Nord, Nordklinikum</a>"],"photo_reference":"CmRaAAAAhuf3ZCy9KVI7LyaI63-95YTfjDBCHwmXPYUL0Zgub_RiIttB6UJ1cxkkyOB926tA2rOawuOQb-yJoZaFSU0-Dhi2NlQd3V-7zYqesqw7L500_BV373LzpPIMJKV0aCSZEhDPEeO6EVM_9vOfn8XLavfwGhSIuXgXnsijHAq1dgv_be3VebYf9Q","width":1772}],"place_id":"ChIJI6_BfkxWn0cR1mJAPmtldes","plus_code":{"compound_code":"F376+79 Nuremberg, Germany","global_code":"8FXHF376+79"},"rating":3.2,"reference":"ChIJI6_BfkxWn0cR1mJAPmtldes","scope":"GOOGLE","types":["hospital","health","point_of_interest","establishment"],"user_ratings_total":264,"vicinity":"Prof.-Ernst-Nathan-Straße 1, Nürnberg"},{"geometry":{"location":{"lat":49.45956149999999,"lng":11.0960134},"viewport":{"northeast":{"lat":49.4609045802915,"lng":11.0972714302915},"southwest":{"lat":49.4582066197085,"lng":11.0945734697085}}},"icon":"https://maps.gstatic.com/mapfiles/place_api/icons/doctor-71.png","id":"13b8367c5209e275db427401e753c22e6485b1f9","name":"Radiologisch-Nuklearmedizinisches Zentrum (RNZ)","opening_hours":{"open_now":false},"place_id":"ChIJY68QepZXn0cR4DRwwcy43bM","plus_code":{"compound_code":"F35W+RC Nuremberg, Germany","global_code":"8FXHF35W+RC"},"rating":3.3,"reference":"ChIJY68QepZXn0cR4DRwwcy43bM","scope":"GOOGLE","types":["hospital","health","point_of_interest","establishment"],"user_ratings_total":20,"vicinity":"Martin-Richter-Straße 43, Nürnberg"},{"geometry":{"location":{"lat":49.440074,"lng":11.090505},"viewport":{"northeast":{"lat":49.44142093029149,"lng":11.0917786302915},"southwest":{"lat":49.4387229697085,"lng":11.0890806697085}}},"icon":"https://maps.gstatic.com/mapfiles/place_api/icons/generic_business-71.png","id":"4162c575714acfb8c9d98ea8bb41a839940d0f05","name":"Nervenärztliche Gemeinschaftspr. Dr. Roth, Schmitt-Roth, Dr. Nebinger (Gutachten)","opening_hours":{"open_now":false},"photos":[{"height":1536,"html_attributions":["<a href=\"https://maps.google.com/maps/contrib/108829826549064172754\">Nervenärztliche Gemeinschaftspr. Dr. Roth, Schmitt-Roth, Prof. Weih, Dr. Nebinger (Gutachten)</a>"],"photo_reference":"CmRaAAAA_zAultJW3mphzN2ZCm1SKTJJ2hJGlKq4aT15DFiIDoSIVsRmmlC17jfdZ0rgJL1O8P0ILCWH6BzKXEmseX_I5C0BclfwSz4Z3qD9-tv-3rzH0x3-okYIY4sFv2ATxvRFEhDnfSt5l7AvVwLygcjSsdMZGhS4EUQ-wFVmWeAMdfHegR0q1NY4wg","width":2048}],"place_id":"ChIJnfKoinNXn0cR-E-43A7bnus","plus_code":{"compound_code":"C3RR+26 Nuremberg, Germany","global_code":"8FXHC3RR+26"},"rating":3.1,"reference":"ChIJnfKoinNXn0cR-E-43A7bnus","scope":"GOOGLE","types":["hospital","health","point_of_interest","establishment"],"user_ratings_total":30,"vicinity":"Allersberger Straße 89, Nürnberg"},{"geometry":{"location":{"lat":49.46393459999999,"lng":11.0598382},"viewport":{"northeast":{"lat":49.4653581802915,"lng":11.0611676302915},"southwest":{"lat":49.4626602197085,"lng":11.0584696697085}}},"icon":"https://maps.gstatic.com/mapfiles/place_api/icons/doctor-71.png","id":"a198f880d79ad26f5093153b2b15b64cb0163c2b","name":"ABC Ambulatory Treatment Centre Nuremberg Hospital","opening_hours":{"open_now":false},"photos":[{"height":567,"html_attributions":["<a href=\"https://maps.google.com/maps/contrib/103288155602114959294\">ABC Ambulantes BehandlungsCentrum Klinikum Nürnberg</a>"],"photo_reference":"CmRaAAAA-eVHl9NJ3fL0UPnkuD8kodc18TQU6RkT4-e8Eday_BRPtWONfiWQKSdm9Khh2hduGWBw6EuUFMbMXC2hvY-vYwDr1_IBi4P_WId0vwD95QsUZwEO4crOlYr04zldoIMoEhCkPnyvfj8VV3t2-AxLxhvEGhRGkkMmGniqAVEvWuzvyNRK1maCHA","width":850}],"place_id":"ChIJI6_BfkxWn0cR9EXQa33mMk0","plus_code":{"compound_code":"F375+HW Nuremberg, Germany","global_code":"8FXHF375+HW"},"rating":2.3,"reference":"ChIJI6_BfkxWn0cR9EXQa33mMk0","scope":"GOOGLE","types":["hospital","health","point_of_interest","establishment"],"user_ratings_total":31,"vicinity":"Prof.-Ernst-Nathan-Straße 1, Nürnberg"},{"geometry":{"location":{"lat":49.4524433,"lng":11.0748413},"viewport":{"northeast":{"lat":49.4536976802915,"lng":11.0762163302915},"southwest":{"lat":49.45099971970851,"lng":11.0735183697085}}},"icon":"https://maps.gstatic.com/mapfiles/place_api/icons/generic_business-71.png","id":"be82823ed258cc09302c62be178b24a266959fe1","name":"Doumouras D. Dr.med.","photos":[{"height":2448,"html_attributions":["<a href=\"https://maps.google.com/maps/contrib/102228957726091454604\">W. G.</a>"],"photo_reference":"CmRaAAAABNbNyx685s113UEPOQGAduTGn-0Gq2iL5z_kEQYrCYADolA0KZc-v9wVKUoEVKamLj4pjqCbW_CsriDNr1-j4FaR-Sjvhn-uuVJCwKQW5EwWp0skxd48QzHJ9Kvo9bp_EhDZpnxAK4Du3Dl2N0HcZAuHGhQWgVew0bCCzXfGjtf2H1HxcySdgw","width":3264}],"place_id":"ChIJq7rqOa9Xn0cRXVUEJNCjRTk","plus_code":{"compound_code":"F32F+XW Nuremberg, Germany","global_code":"8FXHF32F+XW"},"rating":5,"reference":"ChIJq7rqOa9Xn0cRXVUEJNCjRTk","scope":"GOOGLE","types":["hospital","doctor","health","point_of_interest","establishment"],"user_ratings_total":2,"vicinity":"Kaiserstraße 36, Nürnberg"},{"geometry":{"location":{"lat":49.36112000000001,"lng":11.05222},"viewport":{"northeast":{"lat":49.3624963802915,"lng":11.0535417802915},"southwest":{"lat":49.3597984197085,"lng":11.0508438197085}}},"icon":"https://maps.gstatic.com/mapfiles/place_api/icons/generic_business-71.png","id":"60e782177e78b35176d3b1e62b745e4f2ab225af","name":"Dr. Christian Renard","opening_hours":{"open_now":true},"photos":[{"height":333,"html_attributions":["<a href=\"https://maps.google.com/maps/contrib/115438526399498349307\">Dr. Christian Renard</a>"],"photo_reference":"CmRaAAAAR-Qtp7mY_Ceo3PsERtWnqJMuUlF1bfFQUhlUB8klw6nQ1ytk9c4zHFeC0lhEMcaH9OUNoWfwuq96E9houdVHr3Yy7hh5_SptQ6eImHtNPS5kVgkjbGlXy-2nKjYsGsqZEhB26lQEnvASS_j5MMwEhBMmGhQJIDYeEb2wkVEgYh2IITMecwOXbg","width":500}],"place_id":"ChIJCyEX311Qn0cRFOoIVXEcR9o","plus_code":{"compound_code":"9362+CV Nuremberg, Germany","global_code":"8FXH9362+CV"},"rating":4.3,"reference":"ChIJCyEX311Qn0cRFOoIVXEcR9o","scope":"GOOGLE","types":["hospital","doctor","health","point_of_interest","establishment"],"user_ratings_total":32,"vicinity":"Lausitzer Straße 4, Nürnberg"},{"geometry":{"location":{"lat":49.50639,"lng":11.48449},"viewport":{"northeast":{"lat":49.5078113302915,"lng":11.4855081802915},"southwest":{"lat":49.5051133697085,"lng":11.4828102197085}}},"icon":"https://maps.gstatic.com/mapfiles/place_api/icons/generic_business-71.png","id":"2a9c4976f63db4580dd23b97260363f4f910a0ce","name":"Medizinisches Versorgungszentrum Markgrafenresidenz Schwerpunktpraxis für Venen- und Lympherkrankungen","opening_hours":{"open_now":false},"photos":[{"height":2736,"html_attributions":["<a href=\"https://maps.google.com/maps/contrib/116955453273983827532\">Medizinisches Versorgungszentrum Markgrafenresidenz Schwerpunktpraxis für Venen- und Lympherkrankungen</a>"],"photo_reference":"CmRaAAAAvKRaw5YJ7vMUnDTirjOXeK3wv03VrvK1IKVKl0AUaBpfbPG13GjYyxrAvu3iw4xHc7ORfUyAARsUkuySfpbmFGUK582mGYxyEgJY5ZobgLtA85KkyCxF2oiyDiYxtwB_EhC6aNlM3FZREosSZabxSgguGhRGOSAwO07n4yoxxoufktq1vIg39A","width":3648}],"place_id":"ChIJH4neAjnZoUcRcadfVI50NI0","plus_code":{"compound_code":"GF4M+HQ Pommelsbrunn, Germany","global_code":"8FXHGF4M+HQ"},"reference":"ChIJH4neAjnZoUcRcadfVI50NI0","scope":"GOOGLE","types":["hospital","health","point_of_interest","establishment"],"vicinity":"Happurger Straße 15, Pommelsbrunn"},{"geometry":{"location":{"lat":49.4532055,"lng":11.0675328},"viewport":{"northeast":{"lat":49.4545436302915,"lng":11.0688765302915},"southwest":{"lat":49.4518456697085,"lng":11.0661785697085}}},"icon":"https://maps.gstatic.com/mapfiles/place_api/icons/doctor-71.png","id":"c03e693d5aa9c8e12300f46d9d362b6aedceaf1e","name":"Kliniken Dr. Erler","opening_hours":{"open_now":true},"photos":[{"height":683,"html_attributions":["<a href=\"https://maps.google.com/maps/contrib/100186068384469679313\">Kliniken Dr. Erler</a>"],"photo_reference":"CmRaAAAAMX8sSWZ2xkbpeI4rHR3QLV7jrgBz6xYrBwBupjtxHbuZyL8u1hYDx-Qp1-uW0-mhPLUxjl3PUP8HG5_jV_86owLG9aG4C4fYXR5Yx0wH8hkKGWM8r2NAVCBUt4jsz_nnEhAGnxhxNRb0HpuKUMoza4bMGhSN0jP2Xz1FHvqOrSH8GaV7dravFQ","width":1024}],"place_id":"ChIJCWUtXqxXn0cR1b8TvNYLPgc","plus_code":{"compound_code":"F339+72 Nuremberg, Germany","global_code":"8FXHF339+72"},"rating":2.9,"reference":"ChIJCWUtXqxXn0cR1b8TvNYLPgc","scope":"GOOGLE","types":["hospital","doctor","health","point_of_interest","establishment"],"user_ratings_total":188,"vicinity":"Kontumazgarten 4 - 18, Nürnberg"},{"geometry":{"location":{"lat":49.3327093,"lng":11.0121461},"viewport":{"northeast":{"lat":49.3341155802915,"lng":11.0132833302915},"southwest":{"lat":49.3314176197085,"lng":11.0105853697085}}},"icon":"https://maps.gstatic.com/mapfiles/place_api/icons/doctor-71.png","id":"57e01633b518acceae256495da3eaa00237db426","name":"Stadtkrankenhaus Schwabach GmbH","opening_hours":{"open_now":true},"photos":[{"height":450,"html_attributions":["<a href=\"https://maps.google.com/maps/contrib/106542191760316444837\">Stadtkrankenhaus Schwabach GmbH</a>"],"photo_reference":"CmRaAAAAj4Rfwi_IniRd73NNe7sOEtwMX5A5oe5jwdA68xzCBhLRIw2Z_fdQ4SMAv5ME0puuQml65nNALw6mlxXH-yCRpgCPuKzeUUu_gtP2s2gpnKdMkNThBcySxS5PV3ztzQQsEhBkHM4bx_-wP9jwU6wEfcNvGhSlehkKH5LfoGN18nWoXZcNilukaw","width":800}],"place_id":"ChIJF8xJbtRRn0cR-GLlimZCstw","plus_code":{"compound_code":"82M6+3V Schwabach, Germany","global_code":"8FXH82M6+3V"},"rating":2.7,"reference":"ChIJF8xJbtRRn0cR-GLlimZCstw","scope":"GOOGLE","types":["hospital","health","point_of_interest","establishment"],"user_ratings_total":58,"vicinity":"Regelsbacher Straße 7, Schwabach"},{"geometry":{"location":{"lat":49.4564834,"lng":11.066787},"viewport":{"northeast":{"lat":49.45809488029149,"lng":11.0682261802915},"southwest":{"lat":49.4553969197085,"lng":11.0655282197085}}},"icon":"https://maps.gstatic.com/mapfiles/place_api/icons/doctor-71.png","id":"08ff215866af022da77a82d1a9308828138a40d2","name":"The Cnopf'sche Children's Hospital - pediatric orthopedic surgery","opening_hours":{"open_now":true},"photos":[{"height":3096,"html_attributions":["<a href=\"https://maps.google.com/maps/contrib/116624747098457725192\">Birgit Scheidig</a>"],"photo_reference":"CmRaAAAAbWp13fEZWsLvLdquNdVQSCM8Md987haJhgEPzKVbypRDWOo1BABDmnIjku89I-leUrUPzI6o2TX_-mWcY6jC5tydVyA0lz6qHh6xfwqLeWspBg3DJVXuDsep5bZSy8xZEhDa8l603OtbXkgeRAnSGWTRGhRMLspbBJZ-_VzcODBJCB25OuPryQ","width":4128}],"place_id":"ChIJc5EAQq1Xn0cROfq_-aqqqyw","plus_code":{"compound_code":"F348+HP Nuremberg, Germany","global_code":"8FXHF348+HP"},"rating":3,"reference":"ChIJc5EAQq1Xn0cROfq_-aqqqyw","scope":"GOOGLE","types":["hospital","health","point_of_interest","establishment"],"user_ratings_total":108,"vicinity":"Sankt-Johannis-Mühlgasse 19, Nürnberg"},{"geometry":{"location":{"lat":49.6105988,"lng":11.0198184},"viewport":{"northeast":{"lat":49.6120337802915,"lng":11.0210319802915},"southwest":{"lat":49.60933581970851,"lng":11.0183340197085}}},"icon":"https://maps.gstatic.com/mapfiles/place_api/icons/doctor-71.png","id":"6c53d5f206924ea9a587a135b22426d31398cd6a","name":"Malteser Waldkrankenhaus Erlangen","opening_hours":{"open_now":true},"photos":[{"height":315,"html_attributions":["<a href=\"https://maps.google.com/maps/contrib/115075496263539057642\">Malteser Waldkrankenhaus St. Marien</a>"],"photo_reference":"CmRaAAAAlY5Ncv8fnft_-V74ZoJeK9sNFPRel5elZ3lYRqsc9e2dT3hecdhod-ppsrt07s-Zpl0prRCYOkQAlFNPM2vWY8ZSVeKHd6QWe0NWyeSHkuZhT5PokE4kVYBdFRs8cIsjEhBarU3oLQ06_rNpFNyme-FFGhTAQjdD2xaQfieFH_jV6vPjbUdiOg","width":851}],"place_id":"ChIJZbDMOAL5oUcRrFZAeMfqc7k","plus_code":{"compound_code":"J269+6W Erlangen, Germany","global_code":"8FXHJ269+6W"},"rating":3.9,"reference":"ChIJZbDMOAL5oUcRrFZAeMfqc7k","scope":"GOOGLE","types":["hospital","health","point_of_interest","establishment"],"user_ratings_total":63,"vicinity":"Rathsberger Straße 57, Erlangen"},{"geometry":{"location":{"lat":49.48198,"lng":11.13609},"viewport":{"northeast":{"lat":49.4835333802915,"lng":11.1378128802915},"southwest":{"lat":49.4808354197085,"lng":11.1351149197085}}},"icon":"https://maps.gstatic.com/mapfiles/place_api/icons/doctor-71.png","id":"a91fe57bc9db0ee788dc29b645de38637819f935","name":"Marta Maria Nuremberg Hospital","opening_hours":{"open_now":true},"photos":[{"height":2160,"html_attributions":["<a href=\"https://maps.google.com/maps/contrib/105324613344883659898\">Mad Dad</a>"],"photo_reference":"CmRaAAAAqA4_EuklwSijcpNWdxIAeAc9R6GB_KYQzHXSckDuycw6ISy7j4WfOWP_99CNX-MdPoxgJ4tQtN9hN9ChmY-3-NnXlJGejAPS_coTZ7RwA2oSaf1kcAKESSRdPU2NgZlvEhAA2XU8WpudQuMGeMRr9lVaGhSy1sJ-EjgZIsq3JYbeHh_couUt5A","width":3840}],"place_id":"ChIJq63PVQdYn0cR4zkN2aQrL1Y","plus_code":{"compound_code":"F4JP+QC Nuremberg, Germany","global_code":"8FXHF4JP+QC"},"rating":4.2,"reference":"ChIJq63PVQdYn0cR4zkN2aQrL1Y","scope":"GOOGLE","types":["hospital","health","point_of_interest","establishment"],"user_ratings_total":89,"vicinity":"Stadenstraße 58, Nürnberg"},{"geometry":{"location":{"lat":49.4527258,"lng":11.0683647},"viewport":{"northeast":{"lat":49.4541371302915,"lng":11.0698344302915},"southwest":{"lat":49.4514391697085,"lng":11.0671364697085}}},"icon":"https://maps.gstatic.com/mapfiles/place_api/icons/generic_business-71.png","id":"5ec1393ef7d8656f301bc86638589a431036b716","name":"Dr. Bärbel Wolf","opening_hours":{"open_now":false},"photos":[{"height":500,"html_attributions":["<a href=\"https://maps.google.com/maps/contrib/114648853415037841908\">Praxis Dr. Renard und Kollegen, Nürnberg Innenstadt</a>"],"photo_reference":"CmRaAAAASUV73gmF8JAoKr0ty0_Xq5SrYz0qM73WHEenmEsYmSNEeoNC0gmy1xa1dd2y2PAhGLzOmJEs5N6ZpnovGyns42r55XwyFHWJHpFEz_ajCAeC4rx6Tu9Zf7cLkOlTMbLOEhAOZKBcknsYujMTT32_irrUGhTCfz3NU79O5MAQW1dgmzvh9rwbMQ","width":2100}],"place_id":"ChIJg9o1nqtXn0cRtAMDuFNHgBk","plus_code":{"compound_code":"F339+38 Nuremberg, Germany","global_code":"8FXHF339+38"},"rating":4.4,"reference":"ChIJg9o1nqtXn0cRtAMDuFNHgBk","scope":"GOOGLE","types":["hospital","doctor","health","point_of_interest","establishment"],"user_ratings_total":8,"vicinity":"Kontumazgarten 3, Nürnberg"},{"geometry":{"location":{"lat":49.6062146,"lng":10.9665428},"viewport":{"northeast":{"lat":49.6076780802915,"lng":10.9678949302915},"southwest":{"lat":49.6049801197085,"lng":10.9651969697085}}},"icon":"https://maps.gstatic.com/mapfiles/place_api/icons/doctor-71.png","id":"f00d1e325126e809d867510b695b99aa35e10026","name":"Klinikum am Europakanal department addiction treatment","opening_hours":{"open_now":true},"place_id":"ChIJlaQgc5n4oUcRT7Q84_hvbec","plus_code":{"compound_code":"JX48+FJ Erlangen, Germany","global_code":"8FXGJX48+FJ"},"rating":3.3,"reference":"ChIJlaQgc5n4oUcRT7Q84_hvbec","scope":"GOOGLE","types":["hospital","health","point_of_interest","establishment"],"user_ratings_total":7,"vicinity":"Am Europakanal 71, Erlangen"},{"geometry":{"location":{"lat":49.423588,"lng":11.0241746},"viewport":{"northeast":{"lat":49.4249682302915,"lng":11.0254582802915},"southwest":{"lat":49.4222702697085,"lng":11.0227603197085}}},"icon":"https://maps.gstatic.com/mapfiles/place_api/icons/doctor-71.png","id":"243d1897158d88f8266d5d71a7a507574aeb0820","name":"Sana Clinic Nuremberg","opening_hours":{"open_now":true},"photos":[{"height":516,"html_attributions":["<a href=\"https://maps.google.com/maps/contrib/102365116462462330825\">Benjamin Heitkamp</a>"],"photo_reference":"CmRaAAAAdMHW5IznCk-H-_5Mv3cLOCyepsMzHPVOelzj_fu9eax71fruSYD3fvRPJ1ERZ50x2jjOSw_9k8r28Sg3EB5o8V15SV6wu5gCYb8QgwTuEnV00LLgJRhuHJyWscjyT2MzEhABvpVM0XZcNksxdXfRQ3ZnGhR6zsx9Wv1JIDJfrfHzyYajmSq29w","width":705}],"place_id":"ChIJ1ywQhLhWn0cRMvWzdQJPvLE","plus_code":{"compound_code":"C2FF+CM Nuremberg, Germany","global_code":"8FXHC2FF+CM"},"rating":3.6,"reference":"ChIJ1ywQhLhWn0cRMvWzdQJPvLE","scope":"GOOGLE","types":["hospital","health","point_of_interest","establishment"],"user_ratings_total":51,"vicinity":"Weiltinger Straße 11, Nürnberg"},{"geometry":{"location":{"lat":49.8673587,"lng":10.8907549},"viewport":{"northeast":{"lat":49.8689814802915,"lng":10.8924477802915},"southwest":{"lat":49.8662835197085,"lng":10.8897498197085}}},"icon":"https://maps.gstatic.com/mapfiles/place_api/icons/doctor-71.png","id":"e8e3f688bd350e1698f2035d399f17b5a47f6123","name":"Klinikum Bamberg","opening_hours":{"open_now":true},"photos":[{"height":972,"html_attributions":["<a href=\"https://maps.google.com/maps/contrib/100918710778671869420\">Peter Benkő</a>"],"photo_reference":"CmRaAAAA3IdNO5Rgw6XodsjwEb-yhN_lt_KrE4qASnWKYJCzFPlsL_rbWxyaeOlDEToUHRDvoTUZcRby-xp4Y2_I1655h_wtYBfqYTG1yaB2MWcF1WKPTGzZ766p0f2X_8000E8WEhBTjqVJ19qjCMbvANlYuQ0PGhQ-lQl5pN9LaesBQcBCBQS8kWfkDA","width":1296}],"place_id":"ChIJcXsOFvoiokcR5xWk-hUNH5w","plus_code":{"compound_code":"VV8R+W8 Bamberg, Germany","global_code":"8FXGVV8R+W8"},"rating":3.4,"reference":"ChIJcXsOFvoiokcR5xWk-hUNH5w","scope":"GOOGLE","types":["hospital","health","point_of_interest","establishment"],"user_ratings_total":64,"vicinity":"Buger Straße 80, Bamberg"},{"geometry":{"location":{"lat":49.456926,"lng":11.066476},"viewport":{"northeast":{"lat":49.4583148302915,"lng":11.0678069802915},"southwest":{"lat":49.4556168697085,"lng":11.0651090197085}}},"icon":"https://maps.gstatic.com/mapfiles/place_api/icons/doctor-71.png","id":"8d3f2493013d90663b36db5c5fb31980aefd6ee3","name":"Hallerwiese Hospital","opening_hours":{"open_now":true},"photos":[{"height":2322,"html_attributions":["<a href=\"https://maps.google.com/maps/contrib/108449087193759057357\">Andy Vo</a>"],"photo_reference":"CmRaAAAAE3mRcr4y9HYucXSrO5DiZP3IbZ9WeDR-L_-1yCCn4fI7ST9BqjP5DyzargK6jcgsEqDn6cWhVVy4AB5M7nKHRUz3bNpJi1R7dAIZO7povxGr0RRvCFGJSDsSOWaHTTi_EhCsZV-y0hQhdnH5TfhUb6LEGhS1qe0Zcxe_vx0jZMu1YUTiyIpFRA","width":4128}],"place_id":"ChIJc5EAQq1Xn0cRL0MzVvHFwVc","plus_code":{"compound_code":"F348+QH Nuremberg, Germany","global_code":"8FXHF348+QH"},"rating":3.6,"reference":"ChIJc5EAQq1Xn0cRL0MzVvHFwVc","scope":"GOOGLE","types":["hospital","health","point_of_interest","establishment"],"user_ratings_total":108,"vicinity":"Sankt-Johannis-Mühlgasse 19, Nürnberg"},{"geometry":{"location":{"lat":49.46273069999999,"lng":11.0635973},"viewport":{"northeast":{"lat":49.4640986302915,"lng":11.0650627302915},"southwest":{"lat":49.4614006697085,"lng":11.0623647697085}}},"icon":"https://maps.gstatic.com/mapfiles/place_api/icons/doctor-71.png","id":"31cb7c3159c4ade33fbb5a9f26e85eb1e6a7c73f","name":"Klinikum Nürnberg Service-GmbH","opening_hours":{"open_now":true},"photos":[{"height":333,"html_attributions":["<a href=\"https://maps.google.com/maps/contrib/101383058952781525962\">Uwe Nuremberg</a>"],"photo_reference":"CmRaAAAANMnh_8iJ39_mbz316H9IpzVaZPIF0qim8WkVHKurA-JdkyhIBrLC0EXHlZn6dnSCJlV9xu6TiEq8uh0Sv3HtIbJITSEqnKKz9aPvQQVdZxEb9TY2iz3oMNQ6WZ9QtQVeEhAZfZqyKOpkO8DpqOibCgbZGhTaNw5ZqSCouy_Wh9CyL6aMzrtsKw","width":500}],"place_id":"ChIJI6_BfkxWn0cRAb0VZTLNMkM","plus_code":{"compound_code":"F377+3C Nuremberg, Germany","global_code":"8FXHF377+3C"},"rating":3.1,"reference":"ChIJI6_BfkxWn0cRAb0VZTLNMkM","scope":"GOOGLE","types":["hospital","health","point_of_interest","establishment"],"user_ratings_total":9,"vicinity":"Prof.-Ernst-Nathan-Straße 1, Nürnberg"},{"geometry":{"location":{"lat":49.57682699999999,"lng":10.870027},"viewport":{"northeast":{"lat":49.57829303029149,"lng":10.8717652302915},"southwest":{"lat":49.57559506970849,"lng":10.8690672697085}}},"icon":"https://maps.gstatic.com/mapfiles/place_api/icons/doctor-71.png","id":"83517f12e6e05d93dfd25e0c4278751def7f02d4","name":"m&i-Fachklinik Herzogenaurach","photos":[{"height":1080,"html_attributions":["<a href=\"https://maps.google.com/maps/contrib/101378236947736592685\">m&amp;i-Fachklinik Herzogenaurach</a>"],"photo_reference":"CmRaAAAAJJmOSky_1LKAMi0_8t0iGGFVWR_x76ktKJV9U9iHN8H4-mBX4fvsY1fbOBqacPcW5SXeMrEq5HIppmKDbEaU3rRIA_u7YKssEzB4hQsZpCR-junoXCn1AEETYsx9RTfDEhCnoFAHMI8679tF77G2-mabGhRyiuVvWcynoBhV1nm6mtDBPMeP4Q","width":2000}],"place_id":"ChIJf77ITGgBokcRMt6bYW0jo6w","plus_code":{"compound_code":"HVGC+P2 Herzogenaurach, Germany","global_code":"8FXGHVGC+P2"},"rating":3.8,"reference":"ChIJf77ITGgBokcRMt6bYW0jo6w","scope":"GOOGLE","types":["hospital","health","point_of_interest","establishment"],"user_ratings_total":53,"vicinity":"In der Reuth 1, Herzogenaurach"},{"geometry":{"location":{"lat":49.29336490000001,"lng":10.5512846},"viewport":{"northeast":{"lat":49.2948226802915,"lng":10.5526294302915},"southwest":{"lat":49.2921247197085,"lng":10.5499314697085}}},"icon":"https://maps.gstatic.com/mapfiles/place_api/icons/doctor-71.png","id":"1e51df0aa81ae3d11433cdec676817151e1899be","name":"Bezirksklinikum Ansbach - Klinik für Psychiatrie, Psychosomatik und Psychotherapie","opening_hours":{"open_now":true},"photos":[{"height":576,"html_attributions":["<a href=\"https://maps.google.com/maps/contrib/115873671885570832010\">Bezirksklinikum Ansbach - Klinik für Psychiatrie, Psychosomatik und Psychotherapie</a>"],"photo_reference":"CmRaAAAAPMzphDe9ZUh6lmDohN50QOBqtui3hwACIuSA5jF3CWPVOkVIOXPVFVx5FBmtQnxphuYVhxTpOnSb0UYtgSVIZoauJAWApnZTxVwgxUrof_c3pu0iH2HUc5LWu6ZDgMIVEhAyXQDUhXeG6tW1nA8SgZ8oGhR06cxiJswkLrVw-Mt88-91vsxovQ","width":1024}],"place_id":"ChIJnfg7uNm7mEcR3HMJ2iukn-w","plus_code":{"compound_code":"7HV2+8G Ansbach, Germany","global_code":"8FXG7HV2+8G"},"rating":2.5,"reference":"ChIJnfg7uNm7mEcR3HMJ2iukn-w","scope":"GOOGLE","types":["hospital","health","point_of_interest","establishment"],"user_ratings_total":45,"vicinity":"Feuchtwanger Straße 38, Ansbach"}]