[{"geometry":{"location":{"lat":49.9814495,"lng":10.0995791},"viewport":{"northeast":{"lat":49.98293008029149,"lng":10.1013301302915},"southwest":{"lat":49.98023211970849,"lng":10.0986321697085}}},"icon":"https://maps.gstatic.com/mapfiles/place_api/icons/doctor-71.png","id":"31ef4f5dd0a1bb516db41b3927425e01ea92b3d1","name":"Krankenhaus Markt Werneck","opening_hours":{"open_now":false},"photos":[{"height":789,"html_attributions":["<a href=\"https://maps.google.com/maps/contrib/106415126986120616432\">Krankenhaus Markt Werneck</a>"],"photo_reference":"CmRaAAAAMVTEQfoZlLvl_TkuXmt7qsslnT40kPbEWN0P9Ahebp24rS5_VS2F0se7erv5ZOaXDXqNJ3jW-CTbOTxNBL93PqOplF2x67xBWLWfQ4w1GQsgMRrdmFgfXbcDnlIu8RsUEhAd9wcVvAQs8yMqKC4mNMXiGhQLjHZTdCA_2oQakZnAWkYoSTsLCg","width":1331}],"place_id":"ChIJIQPYxefzokcR6JkiSrrIsDo","plus_code":{"compound_code":"X3JX+HR Werneck, Germany","global_code":"8FXGX3JX+HR"},"rating":3.9,"reference":"ChIJIQPYxefzokcR6JkiSrrIsDo","scope":"GOOGLE","types":["hospital","health","point_of_interest","establishment"],"user_ratings_total":8,"vicinity":"Balthasar-Neumann-Platz 5, Werneck"},{"geometry":{"location":{"lat":49.8673587,"lng":10.8907549},"viewport":{"northeast":{"lat":49.8689814802915,"lng":10.8924477802915},"southwest":{"lat":49.8662835197085,"lng":10.8897498197085}}},"icon":"https://maps.gstatic.com/mapfiles/place_api/icons/doctor-71.png","id":"e8e3f688bd350e1698f2035d399f17b5a47f6123","name":"Klinikum Bamberg","opening_hours":{"open_now":true},"photos":[{"height":972,"html_attributions":["<a href=\"https://maps.google.com/maps/contrib/100918710778671869420\">Peter Benkő</a>"],"photo_reference":"CmRaAAAAeUk4iMjK7Jrfn4X8D3d0NV7plntb3XqD_q8kvNQtpQ60UD94IJQV1N0Wt5EROqFVbXgDzAVj2A2IuVN4hgDdX-VCYWoFNOMWpXKgRM8drAFnQIlLmoh4aXf0HW34qouoEhCFly6TLuA40deUiZonCIw7GhR8Esiw9vfQOrm0omPI9rKM9Hz2fA","width":1296}],"place_id":"ChIJcXsOFvoiokcR5xWk-hUNH5w","plus_code":{"compound_code":"VV8R+W8 Bamberg, Germany","global_code":"8FXGVV8R+W8"},"rating":3.4,"reference":"ChIJcXsOFvoiokcR5xWk-hUNH5w","scope":"GOOGLE","types":["hospital","health","point_of_interest","establishment"],"user_ratings_total":64,"vicinity":"Buger Straße 80, Bamberg"},{"geometry":{"location":{"lat":50.0445782,"lng":10.2250494},"viewport":{"northeast":{"lat":50.0458905302915,"lng":10.2263289802915},"southwest":{"lat":50.0431925697085,"lng":10.2236310197085}}},"icon":"https://maps.gstatic.com/mapfiles/place_api/icons/doctor-71.png","id":"e69f12f1d21d3683938c21345f705c77c2e1d9b3","name":"Krankenhaus St. Josef Abteilung für Allgemeine Chirurgie","place_id":"ChIJlfZjppX3okcRxFpO9roqZAk","plus_code":{"compound_code":"26VG+R2 Schweinfurt, Germany","global_code":"9F2G26VG+R2"},"reference":"ChIJlfZjppX3okcRxFpO9roqZAk","scope":"GOOGLE","types":["hospital","health","point_of_interest","establishment"],"vicinity":"Ludwigstraße 1, Schweinfurt"},{"geometry":{"location":{"lat":50.3233301,"lng":10.2352588},"viewport":{"northeast":{"lat":50.3249384302915,"lng":10.2368761302915},"southwest":{"lat":50.3222404697085,"lng":10.2341781697085}}},"icon":"https://maps.gstatic.com/mapfiles/place_api/icons/doctor-71.png","id":"204be3ff6cb84d13a725e3f55c5ffc87697c37e6","name":"RHÖN-KLINIKUM Campus Bad Neustadt","opening_hours":{"open_now":true},"photos":[{"height":3120,"html_attributions":["<a href=\"https://maps.google.com/maps/contrib/105541219308789373054\">Jörg Müller</a>"],"photo_reference":"CmRZAAAAT9eHqICnx0pHgQOpwDYwGyG3LPpP0BaTVmzxR0JgS6FOh9vXW2HNQOrpLCthfldIAGkKv85pbOtNDn2BLNJVFxy0zBWRwlwqswrbnfFWPpql2yTlctqlWh1MVD3KNDDjEhDc8GXWKdbXhD6NUj40KjZ6GhRO-0eYelEx3XhdTKKLOTz4nVxZFw","width":4208}],"place_id":"ChIJBR-aZRAEo0cRrmxzw69qWIE","plus_code":{"compound_code":"86FP+84 Bad Neustadt an der Saale, Germany","global_code":"9F2G86FP+84"},"rating":3.4,"reference":"ChIJBR-aZRAEo0cRrmxzw69qWIE","scope":"GOOGLE","types":["hospital","health","point_of_interest","establishment"],"user_ratings_total":98,"vicinity":"Von-Guttenberg-Straße 11, Bad Neustadt an der Saale"},{"geometry":{"location":{"lat":50.0519943,"lng":10.2436599},"viewport":{"northeast":{"lat":50.0534334302915,"lng":10.2448549302915},"southwest":{"lat":50.0507354697085,"lng":10.2421569697085}}},"icon":"https://maps.gstatic.com/mapfiles/place_api/icons/doctor-71.png","id":"d84ef3735b1e3786a99cba51899a557a555b331b","name":"Leopoldina-Krankenhaus der Stadt Schweinfurt GmbH","opening_hours":{"open_now":true},"photos":[{"height":2711,"html_attributions":["<a href=\"https://maps.google.com/maps/contrib/116701689894214098403\">Leopoldina Krankenhaus GmbH</a>"],"photo_reference":"CmRaAAAAzkzMWF8vv6LCisL_An3tH11gXJv1sDsPXh5EQxWrpvRVbp98P3Y7SE_W0z43bWWysZBQLwYaVfgYZa5vt3i6GGGuBwasCyPToyJsqbyNl5QsB-4-k9SZcE0xw9ToEHODEhB9A43kVqQJ2YbXKBj_qnoTGhRLuFIGB2WAY-hQadyUEktH-36ymg","width":4075}],"place_id":"ChIJLSBKE_D3okcRu3MH6JZ45eI","plus_code":{"compound_code":"362V+QF Schweinfurt, Germany","global_code":"9F2G362V+QF"},"rating":3,"reference":"ChIJLSBKE_D3okcRu3MH6JZ45eI","scope":"GOOGLE","types":["hospital","health","point_of_interest","establishment"],"user_ratings_total":164,"vicinity":"Gustav-Adolf-Straße 8, Schweinfurt"},{"geometry":{"location":{"lat":50.1985877,"lng":10.084442},"viewport":{"northeast":{"lat":50.2000831302915,"lng":10.0858003302915},"southwest":{"lat":50.1973851697085,"lng":10.0831023697085}}},"icon":"https://maps.gstatic.com/mapfiles/place_api/icons/generic_business-71.png","id":"93d31dbf3213b8b7dbefed1a56ff92ac3986f43d","name":"Klinik Bavaria GmbH & Co. KG","opening_hours":{"open_now":true},"photos":[{"height":1535,"html_attributions":["<a href=\"https://maps.google.com/maps/contrib/104711807364219346121\">Klinik Bavaria GmbH &amp; Co. KG</a>"],"photo_reference":"CmRaAAAAy7F2aNGsZKt7ExWIWcpaIFsvGK_EYK4-Jn72A8A2VkLh5UY966dJ1JWW_rFnWvDSfOHPxudE6kzdLYP0I_gLCzzHNR36HH3jJgrDnXIj-B9Y4Md_cVS-07X5LqVCo_LQEhACdPHYKqikplpNTEk0D1EFGhRty0FvjfpOBIELEOvneMMXlWbrFg","width":2048}],"place_id":"ChIJaa05NSjjokcREDCURh5C6W0","plus_code":{"compound_code":"53XM+CQ Bad Kissingen, Germany","global_code":"9F2G53XM+CQ"},"rating":4.2,"reference":"ChIJaa05NSjjokcREDCURh5C6W0","scope":"GOOGLE","types":["hospital","health","point_of_interest","establishment"],"user_ratings_total":47,"vicinity":"Von-der-Tann-Straße 18–22, Bad Kissingen"},{"geometry":{"location":{"lat":50.18709299999999,"lng":10.070555},"viewport":{"northeast":{"lat":50.1884448802915,"lng":10.0721729802915},"southwest":{"lat":50.1857469197085,"lng":10.0694750197085}}},"icon":"https://maps.gstatic.com/mapfiles/place_api/icons/doctor-71.png","id":"0b3b90808ccd55141c847896cce6d05107cc250a","name":"Fachklinik Heiligenfeld","opening_hours":{"open_now":true},"photos":[{"height":479,"html_attributions":["<a href=\"https://maps.google.com/maps/contrib/110658433775073321867\">Fachklinik Heiligenfeld</a>"],"photo_reference":"CmRaAAAAn-nJ8__WMwUQZwGSQrJp5zMLi7mKaI-1MJKgcBYl3xLBa22z3YD9aYbtHedHeqxozeCKq8U_adBYc4d_sxoZxcdX3TsroeqSk0nmnTCHn7CPWR9K3VV8aRc3QO3WrKxNEhCBKCIsHjUPPwtU3BiN6hMDGhQUfv7trRAq4aNJBNROITu3aqCZpA","width":600}],"place_id":"ChIJOwv8dzzjokcR3eoPYyvftY0","plus_code":{"compound_code":"53PC+R6 Bad Kissingen, Germany","global_code":"9F2G53PC+R6"},"rating":3.4,"reference":"ChIJOwv8dzzjokcR3eoPYyvftY0","scope":"GOOGLE","types":["hospital","health","point_of_interest","establishment"],"user_ratings_total":26,"vicinity":"Euerdorfer Straße 4-6, Bad Kissingen"},{"geometry":{"location":{"lat":49.8071108,"lng":9.958384900000002},"viewport":{"northeast":{"lat":49.8084954802915,"lng":9.959633930291504},"southwest":{"lat":49.80579751970851,"lng":9.9569359697085}}},"icon":"https://maps.gstatic.com/mapfiles/place_api/icons/doctor-71.png","id":"fd66f8591e4ae7ad78897aa4f7859f6f1fe26281","name":"Prof. Dr. med. Hubertus Riedmiller","opening_hours":{"open_now":false},"photos":[{"height":500,"html_attributions":["<a href=\"https://maps.google.com/maps/contrib/101637469309591923842\">Urologie – Uniklinikum Würzburg</a>"],"photo_reference":"CmRZAAAAysDyqYa19E11ZbnI-CceXBgaXe3v4WT4unMhA1h3n_HSanrJ44iVKP7X8cKi8e7XPx7FAJ30V_f6CDtgAJAfquU2ups8zuKihX8JD-wRBBZ6vwXrNUg7uI5kI84_X6Y7EhDs_VKgT9ttuMbzodT4psA6GhQ6cJc-Z4TD6WJlVrQtPbXj9dCeGA","width":500}],"place_id":"ChIJTfkZgCiOokcRukp_vibrF34","plus_code":{"compound_code":"RX45+R9 Würzburg, Germany","global_code":"8FXFRX45+R9"},"rating":1,"reference":"ChIJTfkZgCiOokcRukp_vibrF34","scope":"GOOGLE","types":["hospital","health","point_of_interest","establishment"],"user_ratings_total":1,"vicinity":"Zentrum Operative Medizin (ZOM) / Haus A2, Oberdürrbacher Straße 6, Würzburg"},{"geometry":{"location":{"lat":49.66525,"lng":10.0685759},"viewport":{"northeast":{"lat":49.6665404302915,"lng":10.0694753802915},"southwest":{"lat":49.6638424697085,"lng":10.0667774197085}}},"icon":"https://maps.gstatic.com/mapfiles/place_api/icons/doctor-71.png","id":"7ac6a6ddf0835387916cd91fa547f7853f760889","name":"Main health center Ochsenfurt GmbH & Co. KG","photos":[{"height":1080,"html_attributions":["<a href=\"https://maps.google.com/maps/contrib/111144271270671093164\">Sven Hofmann</a>"],"photo_reference":"CmRaAAAAZwqcOHj2_h5jMdiv57KGLZ5KW-5eI8N1k1hwkaBOQgyW-DAie-_tO4hB8gUicmrSKJlfhkoXupwO5NkAcq1EdwGvQpd9SSXKvpKBq4W3L83rApV2URSuyYFnKXPVLgAdEhCLoGNEXTv0_cVM9yRaDalcGhS8sBvPqxEIcx_ZW2zjrBqhqVakIA","width":1920}],"place_id":"ChIJsUKoVSqHokcRgjsrdT5QMt4","plus_code":{"compound_code":"M389+4C Ochsenfurt, Germany","global_code":"8FXGM389+4C"},"rating":3.9,"reference":"ChIJsUKoVSqHokcRgjsrdT5QMt4","scope":"GOOGLE","types":["hospital","health","point_of_interest","establishment"],"user_ratings_total":16,"vicinity":"Jahnstraße 5, Ochsenfurt"},{"geometry":{"location":{"lat":50.0437373,"lng":10.2254589},"viewport":{"northeast":{"lat":50.0452811302915,"lng":10.2265565302915},"southwest":{"lat":50.0425831697085,"lng":10.2238585697085}}},"icon":"https://maps.gstatic.com/mapfiles/place_api/icons/doctor-71.png","id":"3aea01453eed0c9f91f80e57b0d0fd88b6677eaa","name":"Hospital St. Josef","opening_hours":{"open_now":true},"photos":[{"height":3024,"html_attributions":["<a href=\"https://maps.google.com/maps/contrib/115452910764333956667\">Lux</a>"],"photo_reference":"CmRaAAAAYffA_UDSfw8rRwaKSh77ufBcID3xJKbLzpODeUZMLgyU48gv-NJNcX2eMHYXKc2QX7rGTZFyKGMrLiTyZdzLp5Mi1rjs94lJ9dZ-Q9EbbJ2jW3tNOdlhLzhr2iBtdit8EhDPS9fKrfkLm8NPCeRKzUr_GhQPTWOHxQC-Q5CkCRSWaj5zUOptwQ","width":4032}],"place_id":"ChIJlfZjppX3okcRfr11AqL_AXo","plus_code":{"compound_code":"26VG+F5 Schweinfurt, Germany","global_code":"9F2G26VG+F5"},"rating":3.5,"reference":"ChIJlfZjppX3okcRfr11AqL_AXo","scope":"GOOGLE","types":["hospital","health","point_of_interest","establishment"],"user_ratings_total":53,"vicinity":"Ludwigstraße 1, Schweinfurt"},{"geometry":{"location":{"lat":49.79109999999999,"lng":10.34739},"viewport":{"northeast":{"lat":49.7923707802915,"lng":10.3486301302915},"southwest":{"lat":49.7896728197085,"lng":10.3459321697085}}},"icon":"https://maps.gstatic.com/mapfiles/place_api/icons/doctor-71.png","id":"5e77909da57397a2a6a68e9a65b64a84be2e16c7","name":"Ambulante Pflege- und Sozialstation","place_id":"ChIJy6zHOcJlokcRpc5MqJ-YTw0","plus_code":{"compound_code":"Q8RW+CX Wiesentheid, Germany","global_code":"8FXGQ8RW+CX"},"reference":"ChIJy6zHOcJlokcRpc5MqJ-YTw0","scope":"GOOGLE","types":["hospital","health","point_of_interest","establishment"],"vicinity":"Alte Abtswinder Straße 15, Wiesentheid"},{"geometry":{"location":{"lat":50.0432081,"lng":10.2252288},"viewport":{"northeast":{"lat":50.0445240302915,"lng":10.2265170802915},"southwest":{"lat":50.0418260697085,"lng":10.2238191197085}}},"icon":"https://maps.gstatic.com/mapfiles/place_api/icons/generic_business-71.png","id":"2dfab0f8062515e5dc44cfede70a480ecbc12d21","name":"MVZ für Neurochirurgie und Allgemeinmedizin Schweinfurt","opening_hours":{"open_now":false},"photos":[{"height":3024,"html_attributions":["<a href=\"https://maps.google.com/maps/contrib/115452910764333956667\">Lux</a>"],"photo_reference":"CmRaAAAApqUn3NAUKViMHVp3m6_p91Lcs6HJ8RVZ5QpAZOw3qEiTuxKyNyJ6I-MVNFb-HND2AQSh8yiIbUl30tgwcqlvdOlQPF8uspLN7EFAF_elNxnlNt8S0WbzmzCqkDUnAS83EhAugURu17_G5de6p_ZxqUfsGhRgYKPzfWMejs6VVMfmDyzRdZjnrw","width":4032}],"place_id":"ChIJlYs6yZT3okcRXjKmqS4zPiY","plus_code":{"compound_code":"26VG+73 Schweinfurt, Germany","global_code":"9F2G26VG+73"},"rating":3.3,"reference":"ChIJlYs6yZT3okcRXjKmqS4zPiY","scope":"GOOGLE","types":["hospital","health","point_of_interest","establishment"],"user_ratings_total":3,"vicinity":"Friedenstraße 14, Schweinfurt"},{"geometry":{"location":{"lat":50.03170369999999,"lng":10.5074546},"viewport":{"northeast":{"lat":50.0329442802915,"lng":10.5087911802915},"southwest":{"lat":50.0302463197085,"lng":10.5060932197085}}},"icon":"https://maps.gstatic.com/mapfiles/place_api/icons/doctor-71.png","id":"40ce2ab242b63a5183a8ea94383582cd11b7f4b3","name":"Medizinisches Versorgungszentrum Haßfurt","place_id":"ChIJEfNLhmRFokcRHvfS45T0f0M","plus_code":{"compound_code":"2GJ4+MX Haßfurt, Germany","global_code":"9F2G2GJ4+MX"},"reference":"ChIJEfNLhmRFokcRHvfS45T0f0M","scope":"GOOGLE","types":["hospital","health","point_of_interest","establishment"],"vicinity":"Hauptstraße 36, Haßfurt"},{"geometry":{"location":{"lat":50.0445782,"lng":10.2250494},"viewport":{"northeast":{"lat":50.0458905302915,"lng":10.2263289802915},"southwest":{"lat":50.0431925697085,"lng":10.2236310197085}}},"icon":"https://maps.gstatic.com/mapfiles/place_api/icons/doctor-71.png","id":"57b88d370a9bb7ad36b08a9b909ab2e8e0b3d2c7","name":"Herr Christoph Schmidt","place_id":"ChIJacGwDpX3okcR2R7yHV5HKV4","plus_code":{"compound_code":"26VG+R2 Schweinfurt, Germany","global_code":"9F2G26VG+R2"},"reference":"ChIJacGwDpX3okcR2R7yHV5HKV4","scope":"GOOGLE","types":["hospital","health","point_of_interest","establishment"],"vicinity":"Ludwigstraße 1, Schweinfurt"},{"geometry":{"location":{"lat":49.79546589999999,"lng":9.9380369},"viewport":{"northeast":{"lat":49.7968245302915,"lng":9.9393737802915},"southwest":{"lat":49.7941265697085,"lng":9.936675819708496}}},"icon":"https://maps.gstatic.com/mapfiles/place_api/icons/doctor-71.png","id":"3d551f98e51deb84e6a7b7068145b9d92587d52e","name":"Zentrum für ambulante Neurorehabilitation GbR","place_id":"ChIJA7dciYiPokcRhEDs6b7YXv8","plus_code":{"compound_code":"QWWQ+56 Würzburg, Germany","global_code":"8FXFQWWQ+56"},"reference":"ChIJA7dciYiPokcRhEDs6b7YXv8","scope":"GOOGLE","types":["hospital","health","point_of_interest","establishment"],"vicinity":"Oeggstraße 3, Würzburg"},{"geometry":{"location":{"lat":50.0305253,"lng":10.5068332},"viewport":{"northeast":{"lat":50.0318800302915,"lng":10.5082435802915},"southwest":{"lat":50.0291820697085,"lng":10.5055456197085}}},"icon":"https://maps.gstatic.com/mapfiles/place_api/icons/doctor-71.png","id":"bfd82cb35192c5f4a172278884ac23873b8179aa","name":"KfH-Gesundheitszentrum Haßfurt Medizinisches Versorgungszentrum","place_id":"ChIJ82tVX2RFokcRRdyyP7IJZfI","plus_code":{"compound_code":"2GJ4+6P Haßfurt, Germany","global_code":"9F2G2GJ4+6P"},"reference":"ChIJ82tVX2RFokcRRdyyP7IJZfI","scope":"GOOGLE","types":["hospital","health","point_of_interest","establishment"],"vicinity":"Brückenstraße 14, Haßfurt"},{"geometry":{"location":{"lat":49.7978398,"lng":9.931213399999999},"viewport":{"northeast":{"lat":49.7991887802915,"lng":9.9325623802915},"southwest":{"lat":49.7964908197085,"lng":9.929864419708496}}},"icon":"https://maps.gstatic.com/mapfiles/place_api/icons/doctor-71.png","id":"9678c7aeb0ac728bda9cfd04637e6c1cb98dbb49","name":"Krankenhaus der Stiftung Juliusspital Würzburg Abteilung für Urologie","photos":[{"height":2448,"html_attributions":["<a href=\"https://maps.google.com/maps/contrib/111469560905800162792\">Klaus Schwarz</a>"],"photo_reference":"CmRaAAAAjh0VmomMjCa4dX9tWU_dl7242vcOSJwUjXIlvOZORcz-0f7gp_g1cLSbs59N2S3RXEcPLIBqyAcJB94_TkShpjhtjmXwwPDyW1cHjkDoKvMZ1GArNX1Fa_sCQ9oitBsIEhA6QHB7Zo98dBL7mww4Fv3eGhTTceuf1-9PXrg7wWpL_athIKwp_g","width":3264}],"place_id":"ChIJo-FYUDOQokcRsL20ulocBuQ","plus_code":{"compound_code":"QWXJ+4F Würzburg, Germany","global_code":"8FXFQWXJ+4F"},"rating":4,"reference":"ChIJo-FYUDOQokcRsL20ulocBuQ","scope":"GOOGLE","types":["hospital","health","point_of_interest","establishment"],"user_ratings_total":1,"vicinity":"Juliuspromenade 19, Würzburg"},{"geometry":{"location":{"lat":49.8070151,"lng":9.958693499999999},"viewport":{"northeast":{"lat":49.8084170802915,"lng":9.959776280291502},"southwest":{"lat":49.8057191197085,"lng":9.957078319708497}}},"icon":"https://maps.gstatic.com/mapfiles/place_api/icons/doctor-71.png","id":"d612995cc2cc96c9151b2bdbd768ea932dacc887","name":"Anästhesie – Uniklinikum Würzburg","photos":[{"height":456,"html_attributions":["<a href=\"https://maps.google.com/maps/contrib/105237817788702242009\">Anästhesie – Uniklinikum Würzburg</a>"],"photo_reference":"CmRaAAAAMNgg-cnDue0AUYA_3nRNdUWQltUyJWUmltk8epBtdexfQJmCIlVjIrA8rY8hxR8dtgvfYOvvjnzLqY0YMJC-4orHbQaoKFfv7KqiWUyTcJt20PRLeZtoun4ebnSjUF3gEhAjE1_ooqlN2kwSOo-ztX72GhQxzjb3yac7ZIJkMh6yEHvvEVPHpg","width":767}],"place_id":"ChIJTfkZgCiOokcRDauBLhR4W8M","plus_code":{"compound_code":"RX45+RF Würzburg, Germany","global_code":"8FXFRX45+RF"},"reference":"ChIJTfkZgCiOokcRDauBLhR4W8M","scope":"GOOGLE","types":["hospital","health","point_of_interest","establishment"],"vicinity":"Zentrum Operative Medizin (ZOM) / Haus, Oberdürrbacher Straße, A2 6, Würzburg"},{"geometry":{"location":{"lat":50.0519,"lng":10.24439},"viewport":{"northeast":{"lat":50.0532617302915,"lng":10.2459931302915},"southwest":{"lat":50.0505637697085,"lng":10.2432951697085}}},"icon":"https://maps.gstatic.com/mapfiles/place_api/icons/doctor-71.png","id":"fd8b4323bf512536917493060cb383a508d92108","name":"Frau Dr. med. Jutta Albrecht","place_id":"ChIJLSBKE_D3okcRva4LnUr1xog","plus_code":{"compound_code":"362V+QQ Schweinfurt, Germany","global_code":"9F2G362V+QQ"},"rating":3,"reference":"ChIJLSBKE_D3okcRva4LnUr1xog","scope":"GOOGLE","types":["hospital","health","point_of_interest","establishment"],"user_ratings_total":2,"vicinity":"Gustav-Adolf-Straße 8, Schweinfurt"},{"geometry":{"location":{"lat":49.8013864,"lng":9.9566595},"viewport":{"northeast":{"lat":49.8028039302915,"lng":9.957987930291502},"southwest":{"lat":49.8001059697085,"lng":9.955289969708497}}},"icon":"https://maps.gstatic.com/mapfiles/place_api/icons/doctor-71.png","id":"6ffcd6b5f28f830de000bdeb70ee38aef547eb0c","name":"Universitätsklinikum Würzburg Klinik und Poliklinik für Mund-, Kiefer- und Plastische Gesichtschirurgie","place_id":"ChIJ42O2KzWQokcRcq1bIRDM0-Q","plus_code":{"compound_code":"RX24+HM Würzburg, Germany","global_code":"8FXFRX24+HM"},"reference":"ChIJ42O2KzWQokcRcq1bIRDM0-Q","scope":"GOOGLE","types":["hospital","health","point_of_interest","establishment"],"vicinity":"Josef-Schneider-Straße 2, Würzburg"}]