[{"geometry":{"location":{"lat":51.4452039,"lng":7.337368},"viewport":{"northeast":{"lat":51.44755480000001,"lng":7.3393024},"southwest":{"lat":51.44344960000002,"lng":7.334837200000002}}},"icon":"https://maps.gstatic.com/mapfiles/place_api/icons/doctor-71.png","id":"948f59c810ceca750d0413f2782784556d200b9d","name":"Marien Hospital Witten","opening_hours":{"open_now":true},"photos":[{"height":975,"html_attributions":["<a href=\"https://maps.google.com/maps/contrib/103009997845259376046\">aorta besler</a>"],"photo_reference":"CmRaAAAA7AaVCP5skaB-4eObQdIW0dccGAD23OEG6xqG4Za-34BLfX51MYOyD6hxd83WHJL1JuPSfJzHqzlqcIZwx1TfLIA6J3KmlcvfSLnrPuDAkSmpleEkcthV47YxPY_VNEvTEhAhjIDzV3p5dUZTCH9rYpp2GhRQPb_rXAZ6ZFnbGVGi08yKDc1fJQ","width":1300}],"place_id":"ChIJ6dNasfkhuUcR0qUvdF-bfbU","plus_code":{"compound_code":"C8WP+3W Witten, Germany","global_code":"9F39C8WP+3W"},"rating":3.4,"reference":"ChIJ6dNasfkhuUcR0qUvdF-bfbU","scope":"GOOGLE","types":["hospital","health","point_of_interest","establishment"],"user_ratings_total":174,"vicinity":"Marienplatz 2, Witten"},{"geometry":{"location":{"lat":51.5080665,"lng":7.457942999999998},"viewport":{"northeast":{"lat":51.50942278029149,"lng":7.4594405802915},"southwest":{"lat":51.5067248197085,"lng":7.456742619708495}}},"icon":"https://maps.gstatic.com/mapfiles/place_api/icons/doctor-71.png","id":"961d610f546ddbb9a8e2ec515fb6af3a8bc86cc5","name":"Klinikum Dortmund - Endokrinologie, Diabetologie, Rheumatologie","opening_hours":{"open_now":true},"photos":[{"height":4032,"html_attributions":["<a href=\"https://maps.google.com/maps/contrib/106588741215207176927\">Ulrike Less</a>"],"photo_reference":"CmRaAAAANGVWmnl_4CN1Fvhoz0FYqB4nJiDKs5OKb8DpEkVoFXa8l1KcJHLu3dd2jdGcYt-53CT7zv6TYxwlocS1k0JgLj9Gx9en7Hho5xRJK7PA73p7UGQxlJzdrDOSFjGHkrMTEhAjuoqpnNoVZmHuQMIFwQJAGhR1LpIUm3WT6szQCUyknk7ZtWyNbg","width":3024}],"place_id":"ChIJ10Q12t0ZuUcRtxWD2noTICk","plus_code":{"compound_code":"GF55+65 Dortmund, Germany","global_code":"9F39GF55+65"},"rating":2.9,"reference":"ChIJ10Q12t0ZuUcRtxWD2noTICk","scope":"GOOGLE","types":["hospital","doctor","health","point_of_interest","establishment"],"user_ratings_total":266,"vicinity":"Beurhausstraße 40, Dortmund"},{"geometry":{"location":{"lat":51.51161279999999,"lng":7.4577386},"viewport":{"northeast":{"lat":51.5127573802915,"lng":7.458913030291502},"southwest":{"lat":51.5100594197085,"lng":7.456215069708497}}},"icon":"https://maps.gstatic.com/mapfiles/place_api/icons/doctor-71.png","id":"54e37e37e60c0ec679bf118bab66085ba25ecb60","name":"St.-Johannes-Hospital Dortmund","opening_hours":{"open_now":false},"photos":[{"height":3094,"html_attributions":["<a href=\"https://maps.google.com/maps/contrib/101996726449103821728\">Hosam</a>"],"photo_reference":"CmRaAAAAigQ3Ydlc5yG2AsrA6G5eBZLOaaFnrbET6b_840-EVs5pMJujEcps1_znIxtVJy0LkJ7lPviG9Xy1Ifs2iDpQ2uS_MLOIdbkM61XDSTbAGv2-qjv9IImN_8gU9tbbWL9wEhC9InVQxZIbPegJoaGKnttDGhRZtll2nENvWIKAatNg73scR65Yaw","width":2728}],"place_id":"ChIJqU6GF-cZuUcRmn22YHQI_MY","plus_code":{"compound_code":"GF65+J3 Dortmund, Germany","global_code":"9F39GF65+J3"},"rating":3.5,"reference":"ChIJqU6GF-cZuUcRmn22YHQI_MY","scope":"GOOGLE","types":["hospital","health","point_of_interest","establishment"],"user_ratings_total":216,"vicinity":"Johannesstraße 9-17, Dortmund"},{"geometry":{"location":{"lat":51.204577,"lng":7.226809500000001},"viewport":{"northeast":{"lat":51.2058408802915,"lng":7.228299480291502},"southwest":{"lat":51.2031429197085,"lng":7.225601519708498}}},"icon":"https://maps.gstatic.com/mapfiles/place_api/icons/doctor-71.png","id":"9e6758bf33e79def3a2f39dc19ce35e9521ded21","name":"Evangelische Stiftung Tannenhof","opening_hours":{"open_now":true},"photos":[{"height":3120,"html_attributions":["<a href=\"https://maps.google.com/maps/contrib/108980790245439073747\">Thomas Mühleip</a>"],"photo_reference":"CmRaAAAAPsFMPUqMlvKn8P2S1lGFV2L-aoefbfjITSYlRCWgv3X7Sk37Tip8BzlOtNCvzPoSEK3w-ry_pLBfObH_tOp9MvqXeWb0EOsD0Q5YWT0uNCIl_O1fCF6fALEwDc99YYRiEhCKaOkO2bUGChrB5eky68EfGhRZTzrXVOMWPwqn0T8YJUB9u_ledw","width":4160}],"place_id":"ChIJ2zvJ99QruUcRslPDer3X38M","plus_code":{"compound_code":"663G+RP Remscheid, Germany","global_code":"9F39663G+RP"},"rating":3.3,"reference":"ChIJ2zvJ99QruUcRslPDer3X38M","scope":"GOOGLE","types":["hospital","health","point_of_interest","establishment"],"user_ratings_total":33,"vicinity":"Remscheider Straße 76, Remscheid"},{"geometry":{"location":{"lat":51.2497572,"lng":7.1332991},"viewport":{"northeast":{"lat":51.2511813802915,"lng":7.134830480291502},"southwest":{"lat":51.2484834197085,"lng":7.132132519708498}}},"icon":"https://maps.gstatic.com/mapfiles/place_api/icons/doctor-71.png","id":"b39a9266a4a012b0766f3aacfc1a258a82a1c854","name":"Helios Herzzentrum Wuppertal","opening_hours":{"open_now":false},"photos":[{"height":955,"html_attributions":["<a href=\"https://maps.google.com/maps/contrib/103154013872834825524\">Helios Herzzentrum Wuppertal</a>"],"photo_reference":"CmRaAAAAYZCX0ZR--Y1hAXFZ-kAvPs8PzrenENn8ftG_Y2FoywvX7ECUBhBHdhUBK4qi9ebuO0C-IuKjcEamXXyq7awFGcpR4bV3pJTrE3_JHjWfqEuDUWbqhtHMYOE2vr4beKbSEhCM46kE3PLccvZ0J5ITmRHWGhSK_azMHIfQEK1oK4HZec7ch3sbtA","width":1580}],"place_id":"ChIJae1EHFTWuEcRCjPSE3k_fXs","plus_code":{"compound_code":"64XM+W8 Wuppertal, Germany","global_code":"9F3964XM+W8"},"rating":3.8,"reference":"ChIJae1EHFTWuEcRCjPSE3k_fXs","scope":"GOOGLE","types":["hospital","health","point_of_interest","establishment"],"user_ratings_total":49,"vicinity":"Arrenberger Straße 20, Wuppertal"},{"geometry":{"location":{"lat":51.30979670000001,"lng":7.238013499999999},"viewport":{"northeast":{"lat":51.3110740802915,"lng":7.239453930291502},"southwest":{"lat":51.3083761197085,"lng":7.236755969708497}}},"icon":"https://maps.gstatic.com/mapfiles/place_api/icons/generic_business-71.png","id":"bf35b468cdd24061704efb3bce09bd04b09f673c","name":"Dr. Becker Klinik Juliana","photos":[{"height":1000,"html_attributions":["<a href=\"https://maps.google.com/maps/contrib/103333416056333797348\">Dr. Becker Klinik Juliana</a>"],"photo_reference":"CmRaAAAAiWQLOZ4frgDHFuFYJhP4cWbjQGzu4c1ZosQB-D2Z6NdDBgyq3CG9NBwH6QOrBEGrMGCBKf50zoiGsp4K1fmDw_anSIkwPDrMj1BhWSkExuzTyyiP0-GnVV9HfJCAba5iEhD_Egkeufve5n4zFD-5GHKEGhT9r4mjDNeBj2EL-tM8NriDJP2GqQ","width":1500}],"place_id":"ChIJRdZkh8gnuUcRa14f4IhY2OY","plus_code":{"compound_code":"865Q+W6 Wuppertal, Germany","global_code":"9F39865Q+W6"},"rating":2.7,"reference":"ChIJRdZkh8gnuUcRa14f4IhY2OY","scope":"GOOGLE","types":["hospital","health","point_of_interest","establishment"],"user_ratings_total":26,"vicinity":"Mollenkotten 195, Wuppertal"},{"geometry":{"location":{"lat":51.0155118,"lng":7.5680209},"viewport":{"northeast":{"lat":51.0170055302915,"lng":7.569614680291502},"southwest":{"lat":51.0143075697085,"lng":7.566916719708497}}},"icon":"https://maps.gstatic.com/mapfiles/place_api/icons/doctor-71.png","id":"7a608e587b864e109f2039a770a849ccf3c08f70","name":"Kreiskrankenhaus Gummersbach","opening_hours":{"open_now":true},"photos":[{"height":3264,"html_attributions":["<a href=\"https://maps.google.com/maps/contrib/114531160574272138248\">Christian Knoll</a>"],"photo_reference":"CmRZAAAAulLoejkhaQfH_SBPl5kdCEvreWg6PQ_d7niTFKpss4ehP5DOfz3TNZUrUiKxdYl3wQOiIwJHgJ0FbkIQVYKuO6RE3H_2PSJ1ndbe_NnLp9M24OTvlHkj5GzeL5LBfAGWEhAAlXBj8jpcZAKTwLpIXq3dGhTG36kW80GxeKvsEtlmoj20zPF_-g","width":2448}],"place_id":"ChIJZZtTmQu2vkcRDGCRKOa5Axk","plus_code":{"compound_code":"2H89+66 Gummersbach, Germany","global_code":"9F392H89+66"},"rating":2.7,"reference":"ChIJZZtTmQu2vkcRDGCRKOa5Axk","scope":"GOOGLE","types":["hospital","health","point_of_interest","establishment"],"user_ratings_total":177,"vicinity":"Wilhelm - Breckow - Allee 20, Gummersbach"},{"geometry":{"location":{"lat":51.44518540000001,"lng":7.0327251},"viewport":{"northeast":{"lat":51.4467840802915,"lng":7.034221080291502},"southwest":{"lat":51.4440861197085,"lng":7.031523119708498}}},"icon":"https://maps.gstatic.com/mapfiles/place_api/icons/doctor-71.png","id":"311869caf41ea27276515e3c19132a5aaa47b4de","name":"Elisabeth-Krankenhaus Essen","opening_hours":{"open_now":true},"photos":[{"height":2976,"html_attributions":["<a href=\"https://maps.google.com/maps/contrib/115843508939075461318\">Michael</a>"],"photo_reference":"CmRaAAAAMK9Mhc3Rnnj6VhTHHxYZSU3R0xoGXRCHhyi6TOOaVSX2P4ya3U2Z2006b_vu5Yjv-vtgmh0wsPsIs6zOJrTOLYK3-uEAhqF4QAOXQgEryv6TH6c7uBjFLs8D26-zUbNgEhA_NdQI6CngVhpPex5oG3AYGhR8pmmrPEceTwxovz4MSRGTqDN8Qw","width":3968}],"place_id":"ChIJIX3BCTrduEcRVxB4WBRvH5E","plus_code":{"compound_code":"C2WM+33 Essen, Germany","global_code":"9F39C2WM+33"},"rating":3.4,"reference":"ChIJIX3BCTrduEcRVxB4WBRvH5E","scope":"GOOGLE","types":["hospital","health","point_of_interest","establishment"],"user_ratings_total":182,"vicinity":"Klara-Kopp-Weg 1, Essen"},{"geometry":{"location":{"lat":51.5018379,"lng":7.329546499999999},"viewport":{"northeast":{"lat":51.5032359802915,"lng":7.331192230291503},"southwest":{"lat":51.5005380197085,"lng":7.328494269708498}}},"icon":"https://maps.gstatic.com/mapfiles/place_api/icons/doctor-71.png","id":"e61f87a66978cb08baec5ed194cb6395a4e17848","name":"Klinikum Westfalen Knappschaftskrankenhaus Lütgendortmund","opening_hours":{"open_now":true},"photos":[{"height":4912,"html_attributions":["<a href=\"https://maps.google.com/maps/contrib/110126872534299377903\">Knappschaftskrankenhaus Lütgendortmund</a>"],"photo_reference":"CmRaAAAAONfPylXCh35p-Mlj2CfeNolvDfca_Vz_1tRpvod2ZwCjDavlYziZQVN1EEERRCCUFVg-inyC5ld8z8O6Sv9tu0oLFOZ7aCPesycpJ0Ntaox_IH6xZOv6zNly9kQWIAHIEhDZxADyc08loZLNSLSOOLbgGhQCYTXlZhMnM_jkK2VvK23O114JSA","width":7360}],"place_id":"ChIJxeaj6N0euUcR3GLnr61yWyY","plus_code":{"compound_code":"G82H+PR Dortmund, Germany","global_code":"9F39G82H+PR"},"rating":2.5,"reference":"ChIJxeaj6N0euUcR3GLnr61yWyY","scope":"GOOGLE","types":["hospital","health","point_of_interest","establishment"],"user_ratings_total":51,"vicinity":"Volksgartenstraße 40, Dortmund"},{"geometry":{"location":{"lat":51.4683754,"lng":7.211418099999999},"viewport":{"northeast":{"lat":51.470882,"lng":7.214177100000001},"southwest":{"lat":51.46593160000001,"lng":7.2088903}}},"icon":"https://maps.gstatic.com/mapfiles/place_api/icons/doctor-71.png","id":"ebb0275243140ef8a90b8ee69fe63894d95a6a5f","name":"BG University Hospital Bergmannsheil Bochum","opening_hours":{"open_now":true},"photos":[{"height":1334,"html_attributions":["<a href=\"https://maps.google.com/maps/contrib/110199963261809798111\">BG Universitätsklinikum Bergmannsheil Bochum</a>"],"photo_reference":"CmRaAAAAxe3RktcOyDLh8uqDdki4-nmahOtsyYDLqfOF8fjdXtXdOwX2qHJlzwqO2e5ExnLOLaNJNwt9IO9tJN2gzUKB6G0CfX0xucguqIRJ0wKTJafrqBzc3e5ilDMQGOC5X0UKEhDX3bNfDyNII2TMmpApkvvCGhQWKn_kupstpewCzHRIqsiyS1_6Xg","width":2048}],"place_id":"ChIJIajTR3PguEcR-ruBjY4KCwU","plus_code":{"compound_code":"F696+9H Bochum, Germany","global_code":"9F39F696+9H"},"rating":3.1,"reference":"ChIJIajTR3PguEcR-ruBjY4KCwU","scope":"GOOGLE","types":["hospital","health","point_of_interest","establishment"],"user_ratings_total":236,"vicinity":"Bürkle de la Camp-Platz 1, Bochum"},{"geometry":{"location":{"lat":51.42622409999999,"lng":7.0077929},"viewport":{"northeast":{"lat":51.42779208029149,"lng":7.008865080291502},"southwest":{"lat":51.42509411970849,"lng":7.006167119708498}}},"icon":"https://maps.gstatic.com/mapfiles/place_api/icons/doctor-71.png","id":"224004996959c9470e8baeff35086eaae7cf0f47","name":"Alfried Krupp Hospital Ruettenscheid","opening_hours":{"open_now":true},"photos":[{"height":2448,"html_attributions":["<a href=\"https://maps.google.com/maps/contrib/100536928769676429338\">Rainer Richter</a>"],"photo_reference":"CmRaAAAArWEouKb0X0pIy9tvpu8E9cvitS9bqJbnt53JqujDnmaEzDdYY-SOood1W3mt0GgLC9HQK2tN4PbFybgekatwljTGRvS7i6kvVc5hfEB41YoK40s08tB6YnNas4K35L_LEhAhGHbZ7y4Nj2pj3e1HHtzMGhT66JVpvVpDzXaQpS2MuyVO8ZUbLQ","width":3264}],"place_id":"ChIJA59SDyzDuEcRgszc1zjTzt0","plus_code":{"compound_code":"C2G5+F4 Essen, Germany","global_code":"9F39C2G5+F4"},"rating":3.6,"reference":"ChIJA59SDyzDuEcRgszc1zjTzt0","scope":"GOOGLE","types":["hospital","health","point_of_interest","establishment"],"user_ratings_total":218,"vicinity":"Alfried-Krupp-Straße 21, Essen"},{"geometry":{"location":{"lat":51.4826249,"lng":7.221382500000002},"viewport":{"northeast":{"lat":51.48381313029149,"lng":7.223038580291504},"southwest":{"lat":51.4811151697085,"lng":7.220340619708499}}},"icon":"https://maps.gstatic.com/mapfiles/place_api/icons/doctor-71.png","id":"b3a520d3060ea3919b0debe60e6ab7f4db0a15a8","name":"Catholic Hospital Bochum - Saint Elisabeth Hospital","opening_hours":{"open_now":true},"photos":[{"height":630,"html_attributions":["<a href=\"https://maps.google.com/maps/contrib/115553626657217427192\">St. Elisabeth-Hospital - Katholisches Klinikum Bochum</a>"],"photo_reference":"CmRaAAAAp5FCr-Ss_9Ua0poIjxQ4ap-eIWiBWIwexkUUUh1EI7imj3OHujfMa-IhqlwF9E8rpEKVusU2A2SLdc0d1w8LTbiPCy5mP_Gcj4VVmz0jkE-JJ_jmO3xJ4sOs3xPtFkv8EhBGhlxuFcl9LGTQzxME3dyIGhRlPj7XQ0HM3TYkTj9d0p4Qewongg","width":944}],"place_id":"ChIJgxjlAz7guEcRLP_F_WF9iVM","plus_code":{"compound_code":"F6MC+2H Bochum, Germany","global_code":"9F39F6MC+2H"},"rating":3.2,"reference":"ChIJgxjlAz7guEcRLP_F_WF9iVM","scope":"GOOGLE","types":["hospital","health","point_of_interest","establishment"],"user_ratings_total":127,"vicinity":"Bleichstraße 15, Bochum"},{"geometry":{"location":{"lat":51.60621589999999,"lng":7.191748399999999},"viewport":{"northeast":{"lat":51.6076480802915,"lng":7.192710930291502},"southwest":{"lat":51.6049501197085,"lng":7.190012969708498}}},"icon":"https://maps.gstatic.com/mapfiles/place_api/icons/doctor-71.png","id":"481ae17339fb06e9c84ba5d71db5690e3dd0aaf9","name":"Prosper Hospital","opening_hours":{"open_now":true},"photos":[{"height":3744,"html_attributions":["<a href=\"https://maps.google.com/maps/contrib/107828746342806787774\">Prosper-Hospital gGmbH</a>"],"photo_reference":"CmRaAAAAQe_xz6gqu_LudNnNRhSFUMTNFTDWKUfQy1Y4_dBtgTJDc7TQ9N39IcXAYp6cMpHSBZEHOqXsaeJEwpVCBpM1awvLNDjs_x0cmVfvaxrHXnue0Ty-Ey-PzHxpMkjw-nlIEhB_3zNUs7T0MW_1FvjCB1k4GhT9wDZ_mkKUtgMPgcUwh7ARMQECrA","width":5616}],"place_id":"ChIJRWtmZWvjuEcRkjOPxSY1wWQ","plus_code":{"compound_code":"J54R+FM Recklinghausen, Germany","global_code":"9F39J54R+FM"},"rating":2.9,"reference":"ChIJRWtmZWvjuEcRkjOPxSY1wWQ","scope":"GOOGLE","types":["hospital","health","point_of_interest","establishment"],"user_ratings_total":186,"vicinity":"Mühlenstraße 27, Recklinghausen"},{"geometry":{"location":{"lat":51.5343318,"lng":7.230654500000001},"viewport":{"northeast":{"lat":51.5357172802915,"lng":7.232052280291502},"southwest":{"lat":51.5330193197085,"lng":7.229354319708498}}},"icon":"https://maps.gstatic.com/mapfiles/place_api/icons/doctor-71.png","id":"9d1c1f48135fe94ac7341097db96c828ff3bf00b","name":"ZEW GmbH","place_id":"ChIJ7wWmo_LhuEcRNIQBiJpc6C0","plus_code":{"compound_code":"G6MJ+P7 Herne, Germany","global_code":"9F39G6MJ+P7"},"reference":"ChIJ7wWmo_LhuEcRNIQBiJpc6C0","scope":"GOOGLE","types":["hospital","laundry","health","point_of_interest","establishment"],"vicinity":"Wiescherstraße 24, Herne"},{"geometry":{"location":{"lat":51.27326559999999,"lng":7.172603},"viewport":{"northeast":{"lat":51.27624895000001,"lng":7.178922},"southwest":{"lat":51.27184954999998,"lng":7.167875999999999}}},"icon":"https://maps.gstatic.com/mapfiles/place_api/icons/doctor-71.png","id":"604c306b453cbd20c5c0fc1faa18cc6ac697755f","name":"Helios Universitätsklinikum Wuppertal","opening_hours":{"open_now":true},"photos":[{"height":1920,"html_attributions":["<a href=\"https://maps.google.com/maps/contrib/115405140858181491479\">Andre Fuffel</a>"],"photo_reference":"CmRaAAAAlyQEzrm4DxG0hqPoI1c6IUGApXYa1s9q1dEcviAhU20fDV3zbG-6kOwhwvuPG61YTZ7TqFATqjt0XsyzyPyJVZeUTKjjEA6eYbRrmet3aAKkeYHY7WEnn_0CwznF3w3nEhBoFMlMUkR-f9FK8eJoRfbGGhTSaVVr1bBBiWtj2sVi-JcN2I-lgA","width":2560}],"place_id":"ChIJVzAar8LXuEcR0UpV5Y99F10","plus_code":{"compound_code":"75FF+82 Wuppertal, Germany","global_code":"9F3975FF+82"},"rating":2.6,"reference":"ChIJVzAar8LXuEcR0UpV5Y99F10","scope":"GOOGLE","types":["hospital","health","point_of_interest","establishment"],"user_ratings_total":306,"vicinity":"Heusnerstraße 40, Wuppertal"},{"geometry":{"location":{"lat":51.4641507,"lng":7.327410700000001},"viewport":{"northeast":{"lat":51.4653218802915,"lng":7.3282832},"southwest":{"lat":51.46262391970851,"lng":7.3247932}}},"icon":"https://maps.gstatic.com/mapfiles/place_api/icons/doctor-71.png","id":"d35b1c2f39f219c3277dc6d5ad62542a9690cc45","name":"University Hospital Knappschaftskrankenhaus Bochum GmbH","opening_hours":{"open_now":true},"photos":[{"height":1365,"html_attributions":["<a href=\"https://maps.google.com/maps/contrib/111361697615355251829\">Universitätsklinikum Knappschaftskrankenhaus Bochum</a>"],"photo_reference":"CmRaAAAAwsKuUs7oaMv8guL56xFp1IwCNvY-AjhfQ3F_yJcQ9MyGb34T23Cx3yaXGsZJLn1XCE1EMXwy7HprufJxLJqgChEEbvnrCchW07mTsClkUe2G-zRCgC1oNkvWV9zFDp1REhBF6crxMrFmAYkG26tKGv75GhTNI90j2BJglC0doI0lZ6g84ORKbA","width":2048}],"place_id":"ChIJfevFPFsfuUcRZ78Oic2n-Sk","plus_code":{"compound_code":"F87G+MX Bochum, Germany","global_code":"9F39F87G+MX"},"rating":3,"reference":"ChIJfevFPFsfuUcRZ78Oic2n-Sk","scope":"GOOGLE","types":["hospital","health","point_of_interest","establishment"],"user_ratings_total":147,"vicinity":"In der Schornau 23-25, Bochum"},{"geometry":{"location":{"lat":51.52400009999999,"lng":7.367711499999998},"viewport":{"northeast":{"lat":51.52508193029149,"lng":7.369085180291501},"southwest":{"lat":51.52238396970849,"lng":7.366387219708496}}},"icon":"https://maps.gstatic.com/mapfiles/place_api/icons/doctor-71.png","id":"ec3ef61e008505d31fa3192331e492eac1f262fd","name":"Katholisches Krankenhaus Dortmund-West","opening_hours":{"open_now":true},"photos":[{"height":2448,"html_attributions":["<a href=\"https://maps.google.com/maps/contrib/100886312746560908547\">Werner H.</a>"],"photo_reference":"CmRaAAAAXkwEfCU9YH38hW7oNiIELbNdk8EFjC6OOUZAIi5hN0wc8DPyLk2uE__CFT2_nTyICKRVOcQ2-TQ5GZbLCJ2WayN_gscB6xKK3OnFcpPPQHkm6NplyKlNBQqvwHLtCHvIEhDyH7DXTZku7pkZDzaf1QBfGhTM3A5SbGq1RPNA6dvGxyjYsrrvGA","width":3264}],"place_id":"ChIJC2qt2U0ZuUcRbrsECdBd8tE","plus_code":{"compound_code":"G9F9+J3 Dortmund, Germany","global_code":"9F39G9F9+J3"},"rating":2.6,"reference":"ChIJC2qt2U0ZuUcRbrsECdBd8tE","scope":"GOOGLE","types":["hospital","health","point_of_interest","establishment"],"user_ratings_total":46,"vicinity":"Zollernstraße 40, Dortmund"},{"geometry":{"location":{"lat":51.5371259,"lng":7.684675899999998},"viewport":{"northeast":{"lat":51.5385946802915,"lng":7.685873330291503},"southwest":{"lat":51.5358967197085,"lng":7.683175369708498}}},"icon":"https://maps.gstatic.com/mapfiles/place_api/icons/doctor-71.png","id":"c9c25426a62f5ceaaec3c4ccf39e47c64d8ba117","name":"Katharinen-Hospital Unna gGmbH","opening_hours":{"open_now":true},"photos":[{"height":3456,"html_attributions":["<a href=\"https://maps.google.com/maps/contrib/112293820965455948512\">Claudia Graul</a>"],"photo_reference":"CmRaAAAACPGPpmqm5rQOvq19d3BuRyR65rNprtp4e3Pbryb99RbEJS72xZePK3D69eIyUILMfkhodSMEG60oABYeUKMhB-XCitRCyzuRisCkJsCjc-U8-kzGLyHTOX3uL0SJZvoNEhBErH9Q722RiwWLWOlBzIScGhRsKLJTAmgW5n6eYOe1bcgPtXYKPA","width":4608}],"place_id":"ChIJOWcLCUoTuUcRj9LBPICdKmk","plus_code":{"compound_code":"GMPM+VV Unna, Germany","global_code":"9F39GMPM+VV"},"rating":3,"reference":"ChIJOWcLCUoTuUcRj9LBPICdKmk","scope":"GOOGLE","types":["hospital","health","point_of_interest","establishment"],"user_ratings_total":101,"vicinity":"Obere Husemannstraße 2, Unna"},{"geometry":{"location":{"lat":51.4849999,"lng":7.504822399999999},"viewport":{"northeast":{"lat":51.4862953302915,"lng":7.505936280291503},"southwest":{"lat":51.4835973697085,"lng":7.503238319708498}}},"icon":"https://maps.gstatic.com/mapfiles/place_api/icons/doctor-71.png","id":"77a0eb5d2fefa903cd6522a70d317b54e43c3e93","name":"St.-Josefs-Hospital Dortmund","opening_hours":{"open_now":true},"photos":[{"height":1228,"html_attributions":["<a href=\"https://maps.google.com/maps/contrib/112138991508163564582\">Tragschrauberrundflug-NRW Christian Wolff</a>"],"photo_reference":"CmRaAAAA305FtEMF1cKyLJzHhTzYBiKMsDmXjXB5T20ujcFL2JLkSRZNBHkUpb0dFJkEvMs-H2aZv-uQUFCYbn5KFYY4p_5U2Smnz6MdBGxLKNaCbGKvBS03bM3e4p5xjC0Rjb5JEhChC5nvb8ATueZJl848ys5OGhTkWYeq2grYHO9NrYNQkq0VXQb8bw","width":1920}],"place_id":"ChIJnf816KkXuUcR2ceG85OvsOU","plus_code":{"compound_code":"FGM3+XW Dortmund, Germany","global_code":"9F39FGM3+XW"},"rating":3,"reference":"ChIJnf816KkXuUcR2ceG85OvsOU","scope":"GOOGLE","types":["hospital","health","point_of_interest","establishment"],"user_ratings_total":147,"vicinity":"Wilhelm-Schmidt-Straße 4, Dortmund"},{"geometry":{"location":{"lat":51.509708,"lng":7.0891552},"viewport":{"northeast":{"lat":51.5112066302915,"lng":7.090516330291501},"southwest":{"lat":51.5085086697085,"lng":7.087818369708497}}},"icon":"https://maps.gstatic.com/mapfiles/place_api/icons/doctor-71.png","id":"027443871b278fb72dfc6cdfc2ec12587bf6f5c6","name":"Evangelische Kliniken Gelsenkirchen","opening_hours":{"open_now":true},"photos":[{"height":1536,"html_attributions":["<a href=\"https://maps.google.com/maps/contrib/114815252203008404020\">Evangelische Kliniken Gelsenkirchen</a>"],"photo_reference":"CmRaAAAA3AKxdMI7-NeFk5KIzsfFvFOSM1KdphEZNlwotZceKSVeeNdspVtxXOTWB6O4wyiaOZsRNuTvFCOzZjc8xlEEuFTk21lKyynM8kolBY3CCc3jKYGRe9-U2Bv1gmAwHa63EhA97C03n30ogLJj1N_vmDhgGhQeDXEdWjyIu-KRTdAUdxn3wQB1Vg","width":2048}],"place_id":"ChIJy9soaQDnuEcRLaJt5_uEoX0","plus_code":{"compound_code":"G35Q+VM Gelsenkirchen, Germany","global_code":"9F39G35Q+VM"},"rating":2.5,"reference":"ChIJy9soaQDnuEcRLaJt5_uEoX0","scope":"GOOGLE","types":["hospital","health","point_of_interest","establishment"],"user_ratings_total":160,"vicinity":"Munckelstraße 27, Gelsenkirchen"}]