[{"geometry":{"location":{"lat":49.46401239999999,"lng":8.471240199999999},"viewport":{"northeast":{"lat":49.46569493029149,"lng":8.472681850000003},"southwest":{"lat":49.46299696970849,"lng":8.468414050000002}}},"icon":"https://maps.gstatic.com/mapfiles/place_api/icons/doctor-71.png","id":"b31a6bee254718d7e61e2b50b532562203cc5b82","name":"Diakonissenkrankenhaus Mannheim","opening_hours":{"open_now":true},"photos":[{"height":3024,"html_attributions":["<a href=\"https://maps.google.com/maps/contrib/112868928109070934814\">Candy on Tour</a>"],"photo_reference":"CmRaAAAAvSvXj0AjFxhFrCVLwcIj2-HL-9Cmab15XPAIV0Vl8U6G4cmZBEJES8QobKoJq9jHN0o9ILeZRrTPBU0dZrXmhSl7Zzf-shMAejgWXJcfA6aBOr2w6rs_V7oiRR9GcIqVEhCyh8jBDcE4gsBfXkw7Kj_wGhTnS2Xlfoh1_feT-FRZhmhM55GHTw","width":4032}],"place_id":"ChIJgZH0karOl0cRM8Qs1s01RP8","plus_code":{"compound_code":"FF7C+JF Mannheim, Germany","global_code":"8FXCFF7C+JF"},"rating":3.1,"reference":"ChIJgZH0karOl0cRM8Qs1s01RP8","scope":"GOOGLE","types":["hospital","health","point_of_interest","establishment"],"user_ratings_total":141,"vicinity":"Speyerer Straße 91-93, Mannheim"},{"geometry":{"location":{"lat":49.4923704,"lng":8.487509899999997},"viewport":{"northeast":{"lat":49.49468979999999,"lng":8.492011249999997},"southwest":{"lat":49.48947580000001,"lng":8.48465665}}},"icon":"https://maps.gstatic.com/mapfiles/place_api/icons/doctor-71.png","id":"c36fde29dd7993bc83967478c7b3d6ea4efd4534","name":"Universitätsklinik Mannheim","opening_hours":{"open_now":true},"photos":[{"height":3462,"html_attributions":["<a href=\"https://maps.google.com/maps/contrib/100966854002108108017\">Timur Matsiev</a>"],"photo_reference":"CmRaAAAAYst2l-aHAQp8rAOBZehhtSkUBducdqVyzaWVLWm2iXkm8j-X-USq0CdxfBnL5_8mcQf35iWAvnEouhpM1kYfZWwIpyGTCabR460W2YRhVdkeh4W4OKe_W5A9mfBWF6TbEhAPZD_0b1uLO5pb5EQSs2-UGhTIIzlF7acvhcXTecTFMfsAgLCqPg","width":4620}],"place_id":"ChIJXcqghJrOl0cRuy9-J2UKmgs","plus_code":{"compound_code":"FFRQ+W2 Mannheim, Germany","global_code":"8FXCFFRQ+W2"},"rating":2.8,"reference":"ChIJXcqghJrOl0cRuy9-J2UKmgs","scope":"GOOGLE","types":["hospital","health","point_of_interest","establishment"],"user_ratings_total":354,"vicinity":"Theodor-Kutzer-Ufer 1-3, Mannheim"},{"geometry":{"location":{"lat":49.5422342,"lng":8.3312019},"viewport":{"northeast":{"lat":49.5434699802915,"lng":8.332623380291501},"southwest":{"lat":49.5407720197085,"lng":8.329925419708497}}},"icon":"https://maps.gstatic.com/mapfiles/place_api/icons/doctor-71.png","id":"4d3c647c9cdfa02aeb2ca29dd8168dc3ad9d67af","name":"Stadtklinik Frankenthal","opening_hours":{"open_now":true},"photos":[{"height":3693,"html_attributions":["<a href=\"https://maps.google.com/maps/contrib/105814948567031614157\">T. Петрович</a>"],"photo_reference":"CmRaAAAAMvifs8ZPvjq-VeuPEHPhN3k2kVEQ8vMK_LO171zS-6v235af-t_PdS4JTWeX5XBZGus8a_FSMVw8jcZG1-TqAhjZ8ef9FfQ4Kl-wYjF0EtF8B9JM8B5Vbnc1h5S73C9kEhCyQZIXImYI941v563Qwaq5GhS4HChDwCD7PHhlfWBSDouEbVoxlg","width":5539}],"place_id":"ChIJx1rGgmQylkcRLdW8m6mADzE","plus_code":{"compound_code":"G8RJ+VF Frankenthal, Germany","global_code":"8FXCG8RJ+VF"},"rating":2.5,"reference":"ChIJx1rGgmQylkcRLdW8m6mADzE","scope":"GOOGLE","types":["hospital","health","point_of_interest","establishment"],"user_ratings_total":100,"vicinity":"Elsa-Brändström-Straße 1, Frankenthal"},{"geometry":{"location":{"lat":49.4212688,"lng":8.6816539},"viewport":{"northeast":{"lat":49.42273738029149,"lng":8.6830253802915},"southwest":{"lat":49.42003941970849,"lng":8.680327419708497}}},"icon":"https://maps.gstatic.com/mapfiles/place_api/icons/doctor-71.png","id":"645e6254194484c3f44a3603fa8a45fc5e6920bc","name":"Klinik Sankt Elisabeth","opening_hours":{"open_now":true},"photos":[{"height":2160,"html_attributions":["<a href=\"https://maps.google.com/maps/contrib/102010804359231087374\">Thomas Freund</a>"],"photo_reference":"CmRaAAAAZDCyxS_xEz38GbVyW-8egk3uPuq9IHW8xS4lqui7PIvYMfwVydDhWdJeA50fZkaw3PJaT_YtaivUhQLFhIRyLP2N4PeDumRdQmxLLrYZ8iUrCBCRJQ4OJFpR95Za0uiPEhDqLn9GXiAhN4COgPB7KE4wGhQ1SJOP4pKA50nupHm9f91vFYE7bg","width":3840}],"place_id":"ChIJDwdb5zvBl0cR0xMNVb4LsbA","plus_code":{"compound_code":"CMCJ+GM Heidelberg, Germany","global_code":"8FXCCMCJ+GM"},"rating":4.5,"reference":"ChIJDwdb5zvBl0cR0xMNVb4LsbA","scope":"GOOGLE","types":["hospital","doctor","health","point_of_interest","establishment"],"user_ratings_total":88,"vicinity":"Max-Reger-Straße 5-7, Heidelberg"},{"geometry":{"location":{"lat":49.4861982,"lng":8.3890535},"viewport":{"northeast":{"lat":49.4874101302915,"lng":8.390314180291503},"southwest":{"lat":49.4847121697085,"lng":8.387616219708498}}},"icon":"https://maps.gstatic.com/mapfiles/place_api/icons/doctor-71.png","id":"061cb432848992e6089a45ce8c841c4460263bff","name":"Berufsgenossenschaftliche Unfallklinik Ludwigshafen","opening_hours":{"open_now":true},"photos":[{"height":312,"html_attributions":["<a href=\"https://maps.google.com/maps/contrib/107253094092551786508\">BG Klinik Ludwigshafen</a>"],"photo_reference":"CmRaAAAA8Lfg89Oa68qzxyoVTP7SQa4_VcT9P_JtSKz-x3zlFqE5itsGEK9daWfzC8D4E2ytvmI_wWsLiPhXFSAAjCbRevkKUpFdqo6gFQmGyWKcoXTExCpNloShm2CI0xdOvUO_EhBofXgRedkJTcY3gfcdCenWGhSbsKulbwedq_2VgDDDaLY-fXelkA","width":830}],"place_id":"ChIJtWU3prnMl0cR4p5M5t1B0qA","plus_code":{"compound_code":"F9PQ+FJ Ludwigshafen, Germany","global_code":"8FXCF9PQ+FJ"},"rating":3.3,"reference":"ChIJtWU3prnMl0cR4p5M5t1B0qA","scope":"GOOGLE","types":["hospital","health","point_of_interest","establishment"],"user_ratings_total":181,"vicinity":"Ludwig-Guttmann-Straße 13, Ludwigshafen am Rhein"},{"geometry":{"location":{"lat":49.482111,"lng":8.449881999999999},"viewport":{"northeast":{"lat":49.4834179302915,"lng":8.451114680291502},"southwest":{"lat":49.4807199697085,"lng":8.448416719708497}}},"icon":"https://maps.gstatic.com/mapfiles/place_api/icons/doctor-71.png","id":"bf3524207d45651a0543f24fd89e1f799bf6b2df","name":"Center for Nature and Medicine","opening_hours":{"open_now":false},"photos":[{"height":1348,"html_attributions":["<a href=\"https://maps.google.com/maps/contrib/101925719478728848861\">Bernd Schwőbel</a>"],"photo_reference":"CmRaAAAAwb5UUhDQ-C5AFXPRZnJsYgiDrSjwPBe7CHA_RIw0wCQYCOMfGQhpsHkMgWTdnZ-CiHe575I3An4Bm17WAiqYNlIDY5V5_4jQd60Llv7FencvnqpOWJhKIvqjgeRAYVHQEhCLpuIV6oJWorL1sYrgPvY1GhQ6fKVPOtdj0DN2y7t7xIR4WH3fvg","width":1011}],"place_id":"ChIJp1cK1hTMl0cRf-W9k2McwHg","plus_code":{"compound_code":"FCJX+RX Ludwigshafen, Germany","global_code":"8FXCFCJX+RX"},"rating":3.8,"reference":"ChIJp1cK1hTMl0cRf-W9k2McwHg","scope":"GOOGLE","types":["hospital","health","point_of_interest","establishment"],"user_ratings_total":4,"vicinity":"Ludwigstraße 30, Ludwigshafen am Rhein"},{"geometry":{"location":{"lat":49.5495004,"lng":8.6445554},"viewport":{"northeast":{"lat":49.5507027302915,"lng":8.645915030291505},"southwest":{"lat":49.5480047697085,"lng":8.6432170697085}}},"icon":"https://maps.gstatic.com/mapfiles/place_api/icons/doctor-71.png","id":"b359480a8a3ea73de13c862e987eb86bf56f141e","name":"GRN-Klinik Weinheim","opening_hours":{"open_now":true},"photos":[{"height":2400,"html_attributions":["<a href=\"https://maps.google.com/maps/contrib/101925719478728848861\">Bernd Schwőbel</a>"],"photo_reference":"CmRaAAAARdaBv9L4MofHCCPfteBvOOBUYjT73BQeQ5xRdDH1ydFMdaBHVmqJTG-bj0DAFPdT9tN-4PcFr7h4e7dvFIaPgthMn-lytJHmFDNRI7Mbr5icM0J4J0tlcTJJQEWsnbe-EhB3BTq-nU7dLDPhsqVaQidNGhTjw6FX4cDH__hzCxwLMb0vZPp_IA","width":4261}],"place_id":"ChIJvXQq0t3al0cRorcIaZzFNEg","plus_code":{"compound_code":"GJXV+RR Weinheim, Germany","global_code":"8FXCGJXV+RR"},"rating":2.9,"reference":"ChIJvXQq0t3al0cRorcIaZzFNEg","scope":"GOOGLE","types":["hospital","health","point_of_interest","establishment"],"user_ratings_total":78,"vicinity":"Röntgenstraße 1, Weinheim"},{"geometry":{"location":{"lat":49.682221,"lng":8.625261},"viewport":{"northeast":{"lat":49.6835189302915,"lng":8.626646680291504},"southwest":{"lat":49.6808209697085,"lng":8.6239487197085}}},"icon":"https://maps.gstatic.com/mapfiles/place_api/icons/generic_business-71.png","id":"e5ad089f1e55717491b28aab7a338cbdc1ddec0a","name":"ENT Group Practice Dr. S. El-Bitar and Dr. H. Knoch","photos":[{"height":493,"html_attributions":["<a href=\"https://maps.google.com/maps/contrib/115789461705967426070\">HNO-Praxis Dr. med. Samir El-Bitar und Dr. med. Hans Knoch</a>"],"photo_reference":"CmRaAAAA3Z6-jAjkoT5x79iXivFGwfb06WRpYNHxM9kzW8_9JGCFjfmpNhbJckXOnKMn9QkYIjN5lRNxAoqxA5vVB38ueeSzb_GC3E3VPb2DOfmSQ3iFcIK2ObE_WnWqsz-0NHJGEhCMZYOMPypApGhmDJlzZo1TGhTs12SbmXFm6MrxnWE3-bBE4YUZow","width":800}],"place_id":"ChIJh1PW1-3Xl0cR29Nnhfgqoxs","plus_code":{"compound_code":"MJJG+V4 Bensheim, Germany","global_code":"8FXCMJJG+V4"},"rating":4.2,"reference":"ChIJh1PW1-3Xl0cR29Nnhfgqoxs","scope":"GOOGLE","types":["hospital","doctor","health","point_of_interest","establishment"],"user_ratings_total":46,"vicinity":"Nibelungenstraße 26, Bensheim"},{"geometry":{"location":{"lat":49.56439719999999,"lng":8.158264899999999},"viewport":{"northeast":{"lat":49.5657235802915,"lng":8.159668280291502},"southwest":{"lat":49.5630256197085,"lng":8.156970319708497}}},"icon":"https://maps.gstatic.com/mapfiles/place_api/icons/doctor-71.png","id":"9373823ebb7577511d194a9136e45b04f3774fa9","name":"Kreiskrankenhaus Grünstadt","opening_hours":{"open_now":true},"photos":[{"height":3024,"html_attributions":["<a href=\"https://maps.google.com/maps/contrib/114446953040484469464\">Bernd Korz</a>"],"photo_reference":"CmRaAAAA1EwNzLQKydMz4vAqDVSHnbOFgsu78Jh6nAAQA3OeIVqNBbJvYj77IPq_Nvakn_wNW4j7XIt0kFbrJHPkLp7m48Z1Svnf-33e9B9s-bHU1gLrgPmt18vqcnIuakJfD8GeEhC0yez6nROdrHxUowTvAOoMGhRu4Q50DY8VusWRS9KDMux5Y2d5jg","width":4032}],"place_id":"ChIJq4-bmcs6lkcRpGq1VbjZhC8","plus_code":{"compound_code":"H575+Q8 Grünstadt, Germany","global_code":"8FXCH575+Q8"},"rating":3.7,"reference":"ChIJq4-bmcs6lkcRpGq1VbjZhC8","scope":"GOOGLE","types":["hospital","health","point_of_interest","establishment"],"user_ratings_total":117,"vicinity":"Westring 55, Grünstadt"},{"geometry":{"location":{"lat":49.4897331,"lng":8.4814343},"viewport":{"northeast":{"lat":49.4908373802915,"lng":8.482629880291501},"southwest":{"lat":49.4881394197085,"lng":8.479931919708497}}},"icon":"https://maps.gstatic.com/mapfiles/place_api/icons/doctor-71.png","id":"56e95bbe18a4ad24a1cbf1e93e78404c5a87370f","name":"Theresienkrankenhaus Mannheim","opening_hours":{"open_now":true},"photos":[{"height":1461,"html_attributions":["<a href=\"https://maps.google.com/maps/contrib/100574029852017319544\">Theresienkrankenhaus Mannheim</a>"],"photo_reference":"CmRaAAAASfxPNF1SfT7Kr0jHl25pUF2I3-eYhlMItsRBZYRm_TUfFcP-44HT1wf5rQmi-foz6WZkfo4JEdwU0LETbIYqI40M2piBa8GRUbJjhZARyDkkuzSHHulwEG65vWjNNQGWEhB5Gex4v4jUj71SrUP7shVFGhRTvYA_wonJSngJaG7vXb0P9993mQ","width":2048}],"place_id":"ChIJiS6jXJzOl0cRyr6LUYNhWDY","plus_code":{"compound_code":"FFQJ+VH Mannheim, Germany","global_code":"8FXCFFQJ+VH"},"rating":3.3,"reference":"ChIJiS6jXJzOl0cRyr6LUYNhWDY","scope":"GOOGLE","types":["hospital","health","point_of_interest","establishment"],"user_ratings_total":147,"vicinity":"Bassermannstraße 1, Mannheim"},{"geometry":{"location":{"lat":49.4577451,"lng":8.408709000000002},"viewport":{"northeast":{"lat":49.45944933029149,"lng":8.409841280291504},"southwest":{"lat":49.4567513697085,"lng":8.4071433197085}}},"icon":"https://maps.gstatic.com/mapfiles/place_api/icons/doctor-71.png","id":"5ce6b5e1232d3dfb09295eb4d9e430cd1dbf2f5f","name":"St. Marienkrankenhaus","opening_hours":{"open_now":true},"photos":[{"height":3464,"html_attributions":["<a href=\"https://maps.google.com/maps/contrib/102010804359231087374\">Thomas Freund</a>"],"photo_reference":"CmRaAAAAhYiNEbJfq0LXvM2c847y27sVlc1goiT32p-XLNVIjW5gdbhWu2yrMJ8TdVbjISUxpL82YqJFWKPdB8YPoXGypoRubHNkm5bg-fxJ6Aq57F4BDiRMKOOGbXfpsShHmi-mEhCcLvFbcnu9s9o4qF2gRgLdGhQPe2IIKPWKYNU4JA0DHG-Un_ESnw","width":4618}],"place_id":"ChIJlS6rMnrLl0cRKIUiHltQVDI","plus_code":{"compound_code":"FC55+3F Ludwigshafen, Germany","global_code":"8FXCFC55+3F"},"rating":3.3,"reference":"ChIJlS6rMnrLl0cRKIUiHltQVDI","scope":"GOOGLE","types":["hospital","health","point_of_interest","establishment"],"user_ratings_total":110,"vicinity":"Salzburger Straße 15, Ludwigshafen am Rhein"},{"geometry":{"location":{"lat":49.3778887,"lng":8.690152},"viewport":{"northeast":{"lat":49.37886173029149,"lng":8.691327530291503},"southwest":{"lat":49.3761637697085,"lng":8.688629569708498}}},"icon":"https://maps.gstatic.com/mapfiles/place_api/icons/doctor-71.png","id":"64881b1c69ac2a1fa395bf28d2be0abfd0a528ae","name":"Universitätsklinikum Heidelberg Thorax Clinic Heidelberg","opening_hours":{"open_now":true},"photos":[{"height":2448,"html_attributions":["<a href=\"https://maps.google.com/maps/contrib/102010804359231087374\">Thomas Freund</a>"],"photo_reference":"CmRaAAAAzpLlJMfQ7JufRBKMzVysepiatSlGiOyGIfbQbdDgCBb34DHZqg_DFfHgn_5XOWvz9pQr8uG1uI-hv2mwOKldQuRMrsN1iujjMTY9s2ky0URj-v3IS1MV2Rq-66l3W4EMEhAJF1XXFkRWZyd5tnbqLlzmGhQDMVnb2uTeg_47Kx0gAzW8_nSw7w","width":3264}],"place_id":"ChIJ5XL50ZHAl0cRgW0rtksbUVQ","plus_code":{"compound_code":"9MHR+53 Heidelberg, Germany","global_code":"8FXC9MHR+53"},"rating":4.2,"reference":"ChIJ5XL50ZHAl0cRgW0rtksbUVQ","scope":"GOOGLE","types":["hospital","health","point_of_interest","establishment"],"user_ratings_total":65,"vicinity":"Röntgenstraße 1, Heidelberg"},{"geometry":{"location":{"lat":49.678329,"lng":8.620415999999997},"viewport":{"northeast":{"lat":49.67960033029149,"lng":8.6217864302915},"southwest":{"lat":49.67690236970849,"lng":8.619088469708496}}},"icon":"https://maps.gstatic.com/mapfiles/place_api/icons/doctor-71.png","id":"d878165c3e797df4381121d50d9fa2592dc73bf5","name":"Heilig Geist Hospital","opening_hours":{"open_now":true},"photos":[{"height":1363,"html_attributions":["<a href=\"https://maps.google.com/maps/contrib/115559961307746324719\">Heilig Geist Hospital</a>"],"photo_reference":"CmRaAAAALKy-SRhDfZR9sP3q0u02EhtuZ8hPt3sbSOg9akT16l1aAkhPd446mPO8dy2A3TJlNy18kIsFF3123b94dnlcinBT4xNsif4eGfbOC8Yq606O0FeDyy2QFYZZi8-GGX6CEhCHzYDlGj4EQRwnpecVO6LjGhTyY2Uyq3b-_KOpejXmkZdT9jmL5Q","width":2048}],"place_id":"ChIJMZjolezXl0cRx1I-oR_Fy6I","plus_code":{"compound_code":"MJHC+85 Bensheim, Germany","global_code":"8FXCMJHC+85"},"rating":4,"reference":"ChIJMZjolezXl0cRx1I-oR_Fy6I","scope":"GOOGLE","types":["hospital","health","point_of_interest","establishment"],"user_ratings_total":78,"vicinity":"Rodensteinstraße 94, Bensheim"},{"geometry":{"location":{"lat":49.4135074,"lng":8.653775799999998},"viewport":{"northeast":{"lat":49.4150133302915,"lng":8.6550592802915},"southwest":{"lat":49.4123153697085,"lng":8.652361319708497}}},"icon":"https://maps.gstatic.com/mapfiles/place_api/icons/doctor-71.png","id":"d44ccfa3ec91c3ce1895562cdaccf776b77cfc95","name":"SRH Kurpfalz Hospital Heidelberg GmbH","opening_hours":{"open_now":true},"photos":[{"height":2048,"html_attributions":["<a href=\"https://maps.google.com/maps/contrib/116676503677612451975\">Uwe Kaufmann</a>"],"photo_reference":"CmRaAAAAtc3F_XKP7Uog0eUd4mMaf6H-PlgpmXEB9fP01vO5HPoceE6QXYIOYwhWDTJ05vltCYFoyZrFor3gEmTThs9G9B1UDf3FYtj-soZ1OyqpP4w3kGZOSUsZhjhHf-E9TtrTEhC_sd_naR6vL6L353FC94eAGhR_aJEFhs_HPnHCk35OvOTXacDiJA","width":2048}],"place_id":"ChIJtxpSStHGl0cRZP35gMvnZxM","plus_code":{"compound_code":"CM73+CG Heidelberg, Germany","global_code":"8FXCCM73+CG"},"rating":3.8,"reference":"ChIJtxpSStHGl0cRZP35gMvnZxM","scope":"GOOGLE","types":["hospital","health","point_of_interest","establishment"],"user_ratings_total":22,"vicinity":"Bonhoefferstraße 5, Heidelberg"},{"geometry":{"location":{"lat":49.41844,"lng":8.666392000000002},"viewport":{"northeast":{"lat":49.4197889802915,"lng":8.667740980291503},"southwest":{"lat":49.4170910197085,"lng":8.665043019708499}}},"icon":"https://maps.gstatic.com/mapfiles/place_api/icons/generic_business-71.png","id":"9090311c3f824e6d12cd2e0133ddc21bd81b6870","name":"Kopfklinik","opening_hours":{"open_now":true},"photos":[{"height":1321,"html_attributions":["<a href=\"https://maps.google.com/maps/contrib/117403301076126564127\">Kliniken Tel</a>"],"photo_reference":"CmRaAAAAf4a-9zF_jrDXmTaFuMne2YpcAt4lkbZjIVBRQ61l9AhBgFGfouXAd7aO5FNWPp4mf6XFks7s2FbTjN8tPNB47OlrO7pFKVVlfT5iRxf8DlH1RApGC9gqFerrgyqxuGsfEhAc0likmeZtrF_6h2vSSKUDGhTla66IBgiZ38eMiIVrM9SXZSnTCA","width":2350}],"place_id":"ChIJvaY6ijLBl0cRrG_5uenGOm8","plus_code":{"compound_code":"CM98+9H Heidelberg, Germany","global_code":"8FXCCM98+9H"},"rating":3,"reference":"ChIJvaY6ijLBl0cRrG_5uenGOm8","scope":"GOOGLE","types":["hospital","health","point_of_interest","establishment"],"user_ratings_total":139,"vicinity":"Im Neuenheimer Feld 400, Heidelberg"},{"geometry":{"location":{"lat":49.49400300000001,"lng":8.486792099999999},"viewport":{"northeast":{"lat":49.4952107802915,"lng":8.488224780291503},"southwest":{"lat":49.4925128197085,"lng":8.485526819708499}}},"icon":"https://maps.gstatic.com/mapfiles/place_api/icons/generic_business-71.png","id":"3c1189fd6d8575dc196acab61a6b88b5e2328116","name":"Klinik für Dermatologie, Venerologie und Allergologie, Universitätsklinikum Mannheim","opening_hours":{"open_now":false},"place_id":"ChIJXcqghJrOl0cRFsByv6337ms","plus_code":{"compound_code":"FFVP+JP Mannheim, Germany","global_code":"8FXCFFVP+JP"},"rating":2.2,"reference":"ChIJXcqghJrOl0cRFsByv6337ms","scope":"GOOGLE","types":["hospital","doctor","health","point_of_interest","establishment"],"user_ratings_total":25,"vicinity":"Klinik für Dermatologie, Venerologie und Allergologie, Theodor-Kutzer-Ufer 1-3, Mannheim"},{"geometry":{"location":{"lat":49.4233007,"lng":8.684198899999998},"viewport":{"northeast":{"lat":49.4247147302915,"lng":8.685782080291501},"southwest":{"lat":49.4220167697085,"lng":8.683084119708496}}},"icon":"https://maps.gstatic.com/mapfiles/place_api/icons/doctor-71.png","id":"3c8673facc1a3fec04dd8b00eefe64fd625f3b15","name":"Krankenhaus Salem","opening_hours":{"open_now":true},"photos":[{"height":2736,"html_attributions":["<a href=\"https://maps.google.com/maps/contrib/115722754032427177160\">Thomas Enkler</a>"],"photo_reference":"CmRaAAAAenACf4hGCFyo7QBjaOKHcwukFabO3cdKHE1OQPtwScFdT1codqUbQ_x0DRLfBjjOqmGzKudQH3uWeOwI6lsklxmDGotFh36WV4B857XJ28rLQcQ5B9d6yNt-DXGvhsDyEhD_5yo0NVoSIGYzEYoRs57xGhS_i5jJE2Wh20hbAHWN6lChTUtHdA","width":3648}],"place_id":"ChIJnVzV0T7Bl0cRiyIEdMj9rgE","plus_code":{"compound_code":"CMFM+8M Heidelberg, Germany","global_code":"8FXCCMFM+8M"},"rating":3.8,"reference":"ChIJnVzV0T7Bl0cRiyIEdMj9rgE","scope":"GOOGLE","types":["hospital","health","point_of_interest","establishment"],"user_ratings_total":83,"vicinity":"Zeppelinstraße 11-33, Heidelberg"},{"geometry":{"location":{"lat":49.3465222,"lng":8.1499007},"viewport":{"northeast":{"lat":49.3479359802915,"lng":8.151269930291503},"southwest":{"lat":49.3452380197085,"lng":8.148571969708499}}},"icon":"https://maps.gstatic.com/mapfiles/place_api/icons/doctor-71.png","id":"d1bdb9971a62ab3b248b957c69da5e12eb39f69c","name":"Marienhaus Klinikum Hetzelstift Neustadt/Weinstrasse","opening_hours":{"open_now":false},"photos":[{"height":3264,"html_attributions":["<a href=\"https://maps.google.com/maps/contrib/109002963534689575372\">Diether Eckert</a>"],"photo_reference":"CmRaAAAAzIenkQ1sDggzuqgHTjuoKHjdcw8VRbbnrzDt6LQH5DRFHMcl5R5gTsLqMVzYti7bZOQnrqVzPsoFet77otrIomBbj1eFmAfuhqECR0yJ1dYAf3Qy9JaOinq6ZBgn5_ZTEhDEtbWvWVxdpBE6973DR5wpGhQdeUHuSso859x3gYuKOI-9mSEDOw","width":2448}],"place_id":"ChIJlVGavpRIlkcRIB6yOnpF1y0","plus_code":{"compound_code":"84WX+JX Neustadt, Germany","global_code":"8FXC84WX+JX"},"rating":3.2,"reference":"ChIJlVGavpRIlkcRIB6yOnpF1y0","scope":"GOOGLE","types":["hospital","health","point_of_interest","establishment"],"user_ratings_total":38,"vicinity":"Stiftstraße 10, Neustadt an der Weinstraße"},{"geometry":{"location":{"lat":49.462841,"lng":8.4303854},"viewport":{"northeast":{"lat":49.4643657302915,"lng":8.431748130291503},"southwest":{"lat":49.4616677697085,"lng":8.429050169708498}}},"icon":"https://maps.gstatic.com/mapfiles/place_api/icons/doctor-71.png","id":"16b162d3645bf1ff27e02eadab19827cdaa3aebe","name":"St. Annastiftskrankenhaus","opening_hours":{"open_now":true},"photos":[{"height":1690,"html_attributions":["<a href=\"https://maps.google.com/maps/contrib/101925719478728848861\">Bernd Schwőbel</a>"],"photo_reference":"CmRaAAAAuHPGcEjmbQxRQ12s1pQbiVXRe-Bdw8qx1LzZrbn-Wt7jn3zmpVJecXI2i5zAuqDJ1N4l35MxAFaXdq_TSdnSV-Fy_cxnWyo2J6g2aPCW1OoNnswxLt_gjfK_6_cisaetEhDkGlMQ4wi47oboZcpRzXvOGhRYfY249Xs4du8q7_3nELY4V3uQNg","width":3754}],"place_id":"ChIJUSINK4bLl0cR2Rk3jtViSRQ","plus_code":{"compound_code":"FC7J+45 Ludwigshafen, Germany","global_code":"8FXCFC7J+45"},"rating":2.8,"reference":"ChIJUSINK4bLl0cR2Rk3jtViSRQ","scope":"GOOGLE","types":["hospital","health","point_of_interest","establishment"],"user_ratings_total":78,"vicinity":"Karolina-Burger-Straße 51, Ludwigshafen am Rhein"},{"geometry":{"location":{"lat":49.41040899999999,"lng":8.692081999999997},"viewport":{"northeast":{"lat":49.41178568029149,"lng":8.693547330291501},"southwest":{"lat":49.40908771970849,"lng":8.690849369708497}}},"icon":"https://maps.gstatic.com/mapfiles/place_api/icons/doctor-71.png","id":"ed258ebc51b703ff3807318b33c58a76d3d42e76","name":"ATOS Klinik Heidelberg","opening_hours":{"open_now":true},"photos":[{"height":1365,"html_attributions":["<a href=\"https://maps.google.com/maps/contrib/100026709451069759760\">ATOS Klinik Heidelberg</a>"],"photo_reference":"CmRaAAAAcvs_R-bmK6J9tkyYWy9PkRxiPNhVDG4rePp4s_QAaCC3aqMM4dHTr-dwl8kRNZl5Yk_sY1cNR2I9tANxTeo9wdlAVTEOWpKgzrS4B6IYZAacxcGGeOCtMepV8gYKZdOPEhDhp8z1qFyz30KqrqJDPYZNGhSUsO3SLIpCSGHs2ANDuVTzPJCaZA","width":2048}],"place_id":"ChIJ03bTsh7Bl0cRLdcBslD5IMs","plus_code":{"compound_code":"CM6R+5R Heidelberg, Germany","global_code":"8FXCCM6R+5R"},"rating":3.9,"reference":"ChIJ03bTsh7Bl0cRLdcBslD5IMs","scope":"GOOGLE","types":["hospital","health","point_of_interest","establishment"],"user_ratings_total":109,"vicinity":"Bismarckstraße 9-15, Heidelberg"}]