[{"geometry":{"location":{"lat":52.37777759999999,"lng":9.7519408},"viewport":{"northeast":{"lat":52.37917953029149,"lng":9.753242580291502},"southwest":{"lat":52.3764815697085,"lng":9.750544619708498}}},"icon":"https://maps.gstatic.com/mapfiles/place_api/icons/doctor-71.png","id":"d850bf84ac70526802090f79e09e433b51654c1a","name":"Eilenriede Hannover Clinic","opening_hours":{"open_now":true},"photos":[{"height":4160,"html_attributions":["<a href=\"https://maps.google.com/maps/contrib/107596484831108699136\">Melly W.</a>"],"photo_reference":"CmRaAAAAfarugN83RO3MwNok-MG6LrOztxr2adK1ygQ7nK2-f9M1tUY-dOmShu9xtRq8N16pR0xCyw06cnfgZAnRuEvhhlOsQiFOkV-nmuZCzoVFWZUOhd23Zvyj_muMiQtWNM5CEhAkue5c_b3HgnxyI4QBEi02GhSSjGwEGx9bIu0TxQwlW-daC3Zgrg","width":3120}],"place_id":"ChIJ2y2nKa10sEcRuggkJMhKBhM","plus_code":{"compound_code":"9QH2+4Q Hanover, Germany","global_code":"9F4F9QH2+4Q"},"rating":4.8,"reference":"ChIJ2y2nKa10sEcRuggkJMhKBhM","scope":"GOOGLE","types":["hospital","health","point_of_interest","establishment"],"user_ratings_total":28,"vicinity":"Uhlemeyerstraße 16, Hannover"},{"geometry":{"location":{"lat":52.370382,"lng":9.72346},"viewport":{"northeast":{"lat":52.3717332302915,"lng":9.724754080291502},"southwest":{"lat":52.3690352697085,"lng":9.722056119708498}}},"icon":"https://maps.gstatic.com/mapfiles/place_api/icons/doctor-71.png","id":"2cdb7527f3c34fa39670b8db825721a0344c40b0","name":"DIAKOVERE Friederikenstift - Zentrale Notaufnahme","place_id":"ChIJOynvdUwLsEcRXqm6i4UX0YY","plus_code":{"compound_code":"9PCF+59 Hanover, Germany","global_code":"9F4F9PCF+59"},"rating":5,"reference":"ChIJOynvdUwLsEcRXqm6i4UX0YY","scope":"GOOGLE","types":["hospital","health","point_of_interest","establishment"],"user_ratings_total":1,"vicinity":"Humboldtstraße 5, Hannover"},{"geometry":{"location":{"lat":52.2672809,"lng":10.5102013},"viewport":{"northeast":{"lat":52.2688300302915,"lng":10.5112435802915},"southwest":{"lat":52.2661320697085,"lng":10.5085456197085}}},"icon":"https://maps.gstatic.com/mapfiles/place_api/icons/doctor-71.png","id":"7d5d6ab9ff72d7359f464c7df189d152c1559514","name":"Klinikum Braunschweig","opening_hours":{"open_now":true},"photos":[{"height":4048,"html_attributions":["<a href=\"https://maps.google.com/maps/contrib/104125458929068771970\">Marc Sachtleber</a>"],"photo_reference":"CmRaAAAAODxl6XU3uQ43vTraaj3weiJUroNem51pUXEmWZRAVRQNT-YzJOWcC1jT9uP4CCz89arhx6Erg9zRO3CdbPsfhWkl1d1rpDdHT2B6M4F_RV2x323hPmoqEfdvu3fL6S5kEhB8IqnszyslSdKlT5lDksIqGhTGv_8239jpCJuk9onlCAT41hyz-w","width":3036}],"place_id":"ChIJXf25AGH2r0cRhbssI8NLL9w","plus_code":{"compound_code":"7G86+W3 Brunswick, Germany","global_code":"9F4G7G86+W3"},"rating":2.9,"reference":"ChIJXf25AGH2r0cRhbssI8NLL9w","scope":"GOOGLE","types":["hospital","health","point_of_interest","establishment"],"user_ratings_total":8,"vicinity":"Freisestraße 9/10, Braunschweig"},{"geometry":{"location":{"lat":52.3867053,"lng":9.745246999999999},"viewport":{"northeast":{"lat":52.3883336802915,"lng":9.746291630291502},"southwest":{"lat":52.3856357197085,"lng":9.743593669708497}}},"icon":"https://maps.gstatic.com/mapfiles/place_api/icons/doctor-71.png","id":"f8808286cce46a7bc55e88ed351f4a41f0ed6b94","name":"DRK-Krankenhaus Clementinenhaus","opening_hours":{"open_now":true},"photos":[{"height":500,"html_attributions":["<a href=\"https://maps.google.com/maps/contrib/110725299709847550151\">DRK-Krankenhaus Clementinenhaus</a>"],"photo_reference":"CmRaAAAA1eTl_WYbG8hgXxn6MYM9pRrLVr4wVETedO-paqXrQ3xQKq5GrE9qx9xeK_GfdC6-0GMbHalSQTjN2SvB7HbmWytAH4bWnM9myzk42VoFVTgobKsHc4PVuIxFglbEsom1EhCu5td3vybRnu3KzmA637ssGhTuNxC-whTd1RdYjmz0uacsjUanMQ","width":889}],"place_id":"ChIJJ9c7KlZzsEcRKut5l3nOb8I","plus_code":{"compound_code":"9PPW+M3 Hanover, Germany","global_code":"9F4F9PPW+M3"},"rating":4,"reference":"ChIJJ9c7KlZzsEcRKut5l3nOb8I","scope":"GOOGLE","types":["hospital","health","point_of_interest","establishment"],"user_ratings_total":131,"vicinity":"Lützerodestraße 1, Hannover"},{"geometry":{"location":{"lat":52.1546277,"lng":10.318416},"viewport":{"northeast":{"lat":52.1560909802915,"lng":10.3200651302915},"southwest":{"lat":52.1533930197085,"lng":10.3173671697085}}},"icon":"https://maps.gstatic.com/mapfiles/place_api/icons/doctor-71.png","id":"f8553f8c190424189584ed2154e860053438e640","name":"Helios Klinikum Salzgitter","opening_hours":{"open_now":true},"photos":[{"height":484,"html_attributions":["<a href=\"https://maps.google.com/maps/contrib/104303256492664931005\">Helios Klinikum Salzgitter</a>"],"photo_reference":"CmRaAAAAQppNR_VpJE6DzsKnH2SVXoRCtX6ewuE6JpH7xzsg72og072xkmLGCF9LuW7aAFOjDLnDSYQGM5sBtsh0R4pWcdi4gs1IMjFBXFroVRwXFaEHuQMWFeoJivunuieppnraEhD4DLZJEcDsbGGVKh9q7NC0GhR1w8dWGDOK32j8pmxBM13Q4vcljA","width":727}],"place_id":"ChIJS7g7btpQpUcRoDjDzfBjbgg","plus_code":{"compound_code":"5839+V9 Salzgitter, Germany","global_code":"9F4G5839+V9"},"rating":2.1,"reference":"ChIJS7g7btpQpUcRoDjDzfBjbgg","scope":"GOOGLE","types":["hospital","health","point_of_interest","establishment"],"user_ratings_total":198,"vicinity":"Kattowitzer Straße 191, Salzgitter"},{"geometry":{"location":{"lat":52.35855369999999,"lng":9.8145638},"viewport":{"northeast":{"lat":52.36056055,"lng":9.81530665},"southwest":{"lat":52.35702154999999,"lng":9.812335249999999}}},"icon":"https://maps.gstatic.com/mapfiles/place_api/icons/doctor-71.png","id":"ccbaf3b3feac3ed547be04f42cf311701b4be4b7","name":"Vinzenzkrankenhaus Hannover","opening_hours":{"open_now":true},"photos":[{"height":3024,"html_attributions":["<a href=\"https://maps.google.com/maps/contrib/110097310587275214872\">Robin</a>"],"photo_reference":"CmRaAAAA_7LWNvpyeVcVSGtuqvEqculMEnBIj_n0zH8YlhzasDFi3yOUUn2YOiCPgOlfKHfZdqPStmV8W_WNhNl42yTlbpmHmZVB7TMfqa0ioaWI60n5hPFc_1TFysAS7khelgglEhCsXvh1FSi8BRKqDLKiUrPFGhTyOab3TGO_hS7pqZjOvtEWu_83CQ","width":4032}],"place_id":"ChIJWzxLh6ILsEcRQPIgF31qwX0","plus_code":{"compound_code":"9R57+CR Hanover, Germany","global_code":"9F4F9R57+CR"},"rating":3.7,"reference":"ChIJWzxLh6ILsEcRQPIgF31qwX0","scope":"GOOGLE","types":["hospital","health","point_of_interest","establishment"],"user_ratings_total":153,"vicinity":"Lange-Feld-Straße 31, Hannover"},{"geometry":{"location":{"lat":52.3712581,"lng":9.7241985},"viewport":{"northeast":{"lat":52.3726990302915,"lng":9.725398980291502},"southwest":{"lat":52.3700010697085,"lng":9.722701019708497}}},"icon":"https://maps.gstatic.com/mapfiles/place_api/icons/doctor-71.png","id":"f29f76c8f71d69587861662c84b78b8076c5040b","name":"DIAKOVERE Friederikenstift","opening_hours":{"open_now":true},"photos":[{"height":3178,"html_attributions":["<a href=\"https://maps.google.com/maps/contrib/103521612543373997453\">DIAKOVERE Friederikenstift</a>"],"photo_reference":"CmRaAAAA3SWHAGQQ2CX_lxVvMOgcORPP5d22bz15Kaz6HCJTG4IOLFEkpDPc2NPGWrTZYCP3xp5zEnRx8EGuRo2na8Bm0KB-EWEhB3rKmZxIfyEUoGS8o1Ci-bpRL6SiBzv-im-xEhCwQ4kG1yrzwup79zZfRYasGhSDcC4M3DJQYmq2FWyJZCYdvZhRCg","width":4774}],"place_id":"ChIJOynvdUwLsEcR9aKSaQwCYiU","plus_code":{"compound_code":"9PCF+GM Hanover, Germany","global_code":"9F4F9PCF+GM"},"rating":3.1,"reference":"ChIJOynvdUwLsEcR9aKSaQwCYiU","scope":"GOOGLE","types":["hospital","health","point_of_interest","establishment"],"user_ratings_total":205,"vicinity":"Humboldtstraße 5, Hannover"},{"geometry":{"location":{"lat":52.4962043,"lng":9.861699699999999},"viewport":{"northeast":{"lat":52.4971890802915,"lng":9.862699},"southwest":{"lat":52.4944911197085,"lng":9.858701799999997}}},"icon":"https://maps.gstatic.com/mapfiles/place_api/icons/doctor-71.png","id":"953c17e7ee9860bad6e1dd7b1e439f95df591e14","name":"KRH Klinikum Großburgwedel","opening_hours":{"open_now":true},"photos":[{"height":1101,"html_attributions":["<a href=\"https://maps.google.com/maps/contrib/105564580587583634493\">KRH Klinikum Großburgwedel</a>"],"photo_reference":"CmRaAAAAuWjURtx8VXc4YE_xQfEW80YxfAcK0kfpWgsxL7y3pAQZEGLNU_aAgizvmNm_GnuXX1U-r0_wC8qwmqjoWSKB4AMjCNhUWyFSITY3kJyjAYgKO38F9nu0xh930VVHuVXmEhC-7AUTCvw8aIqyuI1YSCtDGhQtV-dbRpuxe0_5bk4wwdJzctj5Pw","width":1959}],"place_id":"ChIJq6LhvlASsEcRT1ZnyOX_l2A","plus_code":{"compound_code":"FVW6+FM Burgwedel, Germany","global_code":"9F4FFVW6+FM"},"rating":3.1,"reference":"ChIJq6LhvlASsEcRT1ZnyOX_l2A","scope":"GOOGLE","types":["hospital","health","point_of_interest","establishment"],"user_ratings_total":93,"vicinity":"Fuhrberger Straße 8, Burgwedel"},{"geometry":{"location":{"lat":52.15131,"lng":9.9766266},"viewport":{"northeast":{"lat":52.15269273029149,"lng":9.978334980291502},"southwest":{"lat":52.1499947697085,"lng":9.975637019708497}}},"icon":"https://maps.gstatic.com/mapfiles/place_api/icons/doctor-71.png","id":"3fa214304f620768cb59ba355aa062409cae4d99","name":"Helios Klinikum Hildesheim","opening_hours":{"open_now":true},"photos":[{"height":1192,"html_attributions":["<a href=\"https://maps.google.com/maps/contrib/109833378931717099163\">Helios Klinikum Hildesheim</a>"],"photo_reference":"CmRaAAAANdzzIlICPqNwhp-ZVEEv6QdMQsLQNKPjJU9PyR93RCpYuJzrdU0QOcMULO88h5xiEMq7owapezGOPflDHmzWfABmstMpfGsS0cKCesv8fECNiaMmKdJJLHYB9d3uN7tZEhCMxpMfaNIz3x3dwh30o02uGhSUIutgq8X7sEa2cotGS_GMdLGeOA","width":2119}],"place_id":"ChIJ31XpG1iuukcRca7nUrp0mW8","plus_code":{"compound_code":"5X2G+GM Hildesheim, Germany","global_code":"9F4F5X2G+GM"},"rating":3.2,"reference":"ChIJ31XpG1iuukcRca7nUrp0mW8","scope":"GOOGLE","types":["hospital","health","point_of_interest","establishment"],"user_ratings_total":251,"vicinity":"Senator-Braun-Allee 33, Hildesheim"},{"geometry":{"location":{"lat":52.1452205,"lng":9.983752899999999},"viewport":{"northeast":{"lat":52.1466293302915,"lng":9.985453030291502},"southwest":{"lat":52.1439313697085,"lng":9.982755069708498}}},"icon":"https://maps.gstatic.com/mapfiles/place_api/icons/doctor-71.png","id":"c0c4f0cc2557f60c1aab06d4586f0b725123de2b","name":"AMEOS Klinikum Hildesheim","opening_hours":{"open_now":true},"photos":[{"height":600,"html_attributions":["<a href=\"https://maps.google.com/maps/contrib/115391430533176759913\">AMEOS Klinikum Hildesheim</a>"],"photo_reference":"CmRaAAAA0QV1KOZ3AK2SJS_knEb7DB-KWnIbb4cyM40epbMoEZB92-u_SGlIqUwj7kr96NZ3z57q5Qp84iBHqlI-ZpbBM9j-RhSex9vcWyiu8mgMhVOIdJILIzWDa5SxbrXjFO0yEhBmRgAphjMPeKpcXZ5rav_uGhSLLowDVyXRW4g4tlpYi5CVXIox2Q","width":800}],"place_id":"ChIJeyhCf16uukcR61mQKnlqAFU","plus_code":{"compound_code":"4XWM+3G Hildesheim, Germany","global_code":"9F4F4XWM+3G"},"rating":2.6,"reference":"ChIJeyhCf16uukcR61mQKnlqAFU","scope":"GOOGLE","types":["hospital","health","point_of_interest","establishment"],"user_ratings_total":52,"vicinity":"Goslarsche Landstraße 60, Hildesheim"},{"geometry":{"location":{"lat":51.92828129999999,"lng":10.4417631},"viewport":{"northeast":{"lat":51.92962748029149,"lng":10.4431029302915},"southwest":{"lat":51.92692951970849,"lng":10.4404049697085}}},"icon":"https://maps.gstatic.com/mapfiles/place_api/icons/doctor-71.png","id":"e39942d1fa5e339ab6194513282514c3bbd2bc53","name":"Asklepios Clinic Goslar","opening_hours":{"open_now":true},"photos":[{"height":3024,"html_attributions":["<a href=\"https://maps.google.com/maps/contrib/108292437242999624441\">Dirk Pilz</a>"],"photo_reference":"CmRZAAAAjsRrxrFTem9abMVLbMM9QlhCYBFplB9s4TJnnOX18xKjWFeLEaiNfvsOkfhHY3uIBs00EnwcDPflGbsHG8TvxgYv-vuQ6O8U66Gr91kumTVi_Z-J1Jx2eux8G6brvjYzEhBntMYCGCGuI92jVxOYe6RaGhRzHuHewf4fUtMT-bXO9Ly5Prc9XA","width":4032}],"place_id":"ChIJuRGeFfBApUcRX19Gv08F0Es","plus_code":{"compound_code":"WCHR+8P Goslar, Germany","global_code":"9F3GWCHR+8P"},"rating":2.4,"reference":"ChIJuRGeFfBApUcRX19Gv08F0Es","scope":"GOOGLE","types":["hospital","health","point_of_interest","establishment"],"user_ratings_total":142,"vicinity":"Kösliner Straße 12, Goslar"},{"geometry":{"location":{"lat":51.9286098,"lng":10.4425669},"viewport":{"northeast":{"lat":51.9299884802915,"lng":10.4441066302915},"southwest":{"lat":51.9272905197085,"lng":10.4414086697085}}},"icon":"https://maps.gstatic.com/mapfiles/place_api/icons/generic_business-71.png","id":"f6a156bd00dab1cff72164d55a02d7ae630b12e3","name":"radiologie.zentrum.nordharz","opening_hours":{"open_now":false},"photos":[{"height":3024,"html_attributions":["<a href=\"https://maps.google.com/maps/contrib/109394161295722847507\">Andreas Wagner</a>"],"photo_reference":"CmRaAAAAv2zmP-APCI4HiTihRR8KtAK8DKa4gUu0MKEQwlxdegqPuCp_99lwoanXoOzU4ekyolrPTBFgF9d9cqunharSBWcuuCjBkSI2pQ6F7l_TBzAcv_4a1siJJH0ZGLzMJ2IrEhCaZgF_c-yQ9DIB2MS5tDbIGhTLkDqxPU-Ugiatde7jCNVMN2hgDw","width":4032}],"place_id":"ChIJuRGeFfBApUcRuhdwfz2SL_A","plus_code":{"compound_code":"WCHV+C2 Goslar, Germany","global_code":"9F3GWCHV+C2"},"rating":4.4,"reference":"ChIJuRGeFfBApUcRuhdwfz2SL_A","scope":"GOOGLE","types":["hospital","doctor","health","point_of_interest","establishment"],"user_ratings_total":24,"vicinity":"Kösliner Straße 12, Goslar"},{"geometry":{"location":{"lat":52.146731,"lng":9.947799400000001},"viewport":{"northeast":{"lat":52.14800503029149,"lng":9.948920930291505},"southwest":{"lat":52.14530706970849,"lng":9.9462229697085}}},"icon":"https://maps.gstatic.com/mapfiles/place_api/icons/doctor-71.png","id":"0c20ad6cf9061352896bbd1ec6b9a851e29ef7ad","name":"St. Bernward Krankenhaus","opening_hours":{"open_now":true},"photos":[{"height":1000,"html_attributions":["<a href=\"https://maps.google.com/maps/contrib/109204548830699062432\">St. Bernward Krankenhaus</a>"],"photo_reference":"CmRaAAAA7BEaKSK3rSK3tKdojiLWNQYRUI6of3Iw9tj6fF6los6UKupxzF1vD5syS1lwiWevM-sJXaxk2o6NHER6kZliVpLiub-VzBI1dAI2iFr29UqmdZSxqjWjSyBjWDIM4pfFEhCVqyuLQFrrNQOJ1FaLA-2bGhQscwvBHfQ9Iyfv3omhEqhr6A6nEA","width":1500}],"place_id":"ChIJI4keBa-vukcRf4QMNVbNbiA","plus_code":{"compound_code":"4WWX+M4 Hildesheim, Germany","global_code":"9F4F4WWX+M4"},"rating":3.5,"reference":"ChIJI4keBa-vukcRf4QMNVbNbiA","scope":"GOOGLE","types":["hospital","health","point_of_interest","establishment"],"user_ratings_total":156,"vicinity":"Treibestraße 9, Hildesheim"},{"geometry":{"location":{"lat":52.34389,"lng":9.8276},"viewport":{"northeast":{"lat":52.3452413802915,"lng":9.828731180291504},"southwest":{"lat":52.3425434197085,"lng":9.8260332197085}}},"icon":"https://maps.gstatic.com/mapfiles/place_api/icons/doctor-71.png","id":"3177f4548fd37d467553f8d992db76355c8663e8","name":"Hausartztpraxis Bemerode","opening_hours":{"open_now":false},"place_id":"ChIJvRK-J7YLsEcRLOkE6ekrGy4","plus_code":{"compound_code":"8RVH+H2 Hanover, Germany","global_code":"9F4F8RVH+H2"},"rating":5,"reference":"ChIJvRK-J7YLsEcRLOkE6ekrGy4","scope":"GOOGLE","types":["hospital","health","point_of_interest","establishment"],"user_ratings_total":6,"vicinity":"Brabeckstraße 153, Hannover"},{"geometry":{"location":{"lat":52.43382219999999,"lng":9.758037},"viewport":{"northeast":{"lat":52.4352490802915,"lng":9.759451330291503},"southwest":{"lat":52.4325511197085,"lng":9.756753369708498}}},"icon":"https://maps.gstatic.com/mapfiles/place_api/icons/doctor-71.png","id":"963879fd20225cd009450a2815995e2946e461a6","name":"Paracelsus-Klinik am Silbersee Hannover-Langenhagen","opening_hours":{"open_now":false},"photos":[{"height":2340,"html_attributions":["<a href=\"https://maps.google.com/maps/contrib/100363355206750240805\">Gisela Werner</a>"],"photo_reference":"CmRaAAAAiJiuMxopmM56YdzVoAQ7zqu0uiL1xgGuNtpVLPbHlvHLgHkoAD9pNINpIYRv8N0r0nRGAsrx1hm_4qienkAQ67DhEU93nUDXgzmteuO-GJyFqr3Hd7OEOP5bbs5almBSEhC0vuts8ep6pBslRJfSRqU_GhQPtqx8uQ_8TN79QBOrMyj0trTKgQ","width":4160}],"place_id":"ChIJd-jdAdpysEcRBNNSbvd8YFU","plus_code":{"compound_code":"CQM5+G6 Langenhagen, Germany","global_code":"9F4FCQM5+G6"},"rating":3.8,"reference":"ChIJd-jdAdpysEcRBNNSbvd8YFU","scope":"GOOGLE","types":["hospital","health","point_of_interest","establishment"],"user_ratings_total":59,"vicinity":"Oertzeweg 24, Langenhagen"},{"geometry":{"location":{"lat":52.23299369999999,"lng":10.5267147},"viewport":{"northeast":{"lat":52.2345240302915,"lng":10.5280954302915},"southwest":{"lat":52.2318260697085,"lng":10.5253974697085}}},"icon":"https://maps.gstatic.com/mapfiles/place_api/icons/doctor-71.png","id":"a47213455935711b12e0358f7910ed23f64d453a","name":"Herzogin Elisabeth Hospital","opening_hours":{"open_now":true},"photos":[{"height":2268,"html_attributions":["<a href=\"https://maps.google.com/maps/contrib/102773589805730946386\">Ju Kold</a>"],"photo_reference":"CmRaAAAAczYR5gRT7Hz1fI_2G_OeQ0yJ692KodrtfZ2nAYCl9FVnIUjzlX8mvr3BWGTXEVqQtf0ldKBgE4Pm63j5KLEMYrZrIbmYdGGvfGCU6swCnJN1BhNg_h3ump1YzV0H_P8WEhDyLwLTwNbobsCN8q3IM1bkGhSZ4NYY-0ywzm6_EIw1u_tnd-_2mQ","width":4032}],"place_id":"ChIJiWma_1dfpUcR_j26qUUTE2Y","plus_code":{"compound_code":"6GMG+5M Brunswick, Germany","global_code":"9F4G6GMG+5M"},"rating":4.3,"reference":"ChIJiWma_1dfpUcR_j26qUUTE2Y","scope":"GOOGLE","types":["hospital","health","point_of_interest","establishment"],"user_ratings_total":100,"vicinity":"Leipziger Straße 24, Braunschweig"},{"geometry":{"location":{"lat":52.26466480000001,"lng":10.5077774},"viewport":{"northeast":{"lat":52.26602108029149,"lng":10.5089883802915},"southwest":{"lat":52.2633231197085,"lng":10.5062904197085}}},"icon":"https://maps.gstatic.com/mapfiles/place_api/icons/doctor-71.png","id":"c3245767089b8453949e6dde7be2b9d67d616c22","name":"Klinikum Holwedestraße","opening_hours":{"open_now":true},"photos":[{"height":2268,"html_attributions":["<a href=\"https://maps.google.com/maps/contrib/105011704886699153535\">Kamiran Sheikho</a>"],"photo_reference":"CmRaAAAAz0sgEPlOBfEdng0SfwBI3cxr-DYa1mn4rR_GE3C1g80ignFNf0UyfdL-mr5KId9GYCD45dKiU2faQwYF9lGIB8unGx343dtof_e_-6pRJ-Vhl2D0caP2YjH3oMktwnfyEhAao5RlShQhvfB6miunL_96GhRZ0KGA6h239krHoPF3WcVO4eZt6w","width":4032}],"place_id":"ChIJ12qfvG_2r0cRViEOcqwQMcI","plus_code":{"compound_code":"7G75+V4 Brunswick, Germany","global_code":"9F4G7G75+V4"},"rating":2.6,"reference":"ChIJ12qfvG_2r0cRViEOcqwQMcI","scope":"GOOGLE","types":["hospital","health","point_of_interest","establishment"],"user_ratings_total":154,"vicinity":"Holwedestraße 16, Braunschweig"},{"geometry":{"location":{"lat":52.37218009999999,"lng":9.740204199999999},"viewport":{"northeast":{"lat":52.3735697302915,"lng":9.741674530291503},"southwest":{"lat":52.3708717697085,"lng":9.738976569708498}}},"icon":"https://maps.gstatic.com/mapfiles/place_api/icons/doctor-71.png","id":"ac774053e123ee6c320afd4bf68498cd137c7d8b","name":"Medizinisches Versorgungszentrum","opening_hours":{"open_now":false},"place_id":"ChIJ-TLMKngLsEcRWfIL-CdUQC4","plus_code":{"compound_code":"9PCR+V3 Hanover, Germany","global_code":"9F4F9PCR+V3"},"rating":3,"reference":"ChIJ-TLMKngLsEcRWfIL-CdUQC4","scope":"GOOGLE","types":["hospital","health","point_of_interest","establishment"],"user_ratings_total":26,"vicinity":"Georgstraße 46, Hannover"},{"geometry":{"location":{"lat":52.21121489999999,"lng":9.552961699999997},"viewport":{"northeast":{"lat":52.2124048302915,"lng":9.5544588802915},"southwest":{"lat":52.2097068697085,"lng":9.551760919708496}}},"icon":"https://maps.gstatic.com/mapfiles/place_api/icons/doctor-71.png","id":"4ebf46a850346131244a79d790685dd02be8ca1a","name":"German Red Cross","place_id":"ChIJa9Ah-OqbukcRRcT0lSznaks","plus_code":{"compound_code":"6H63+F5 Springe, Germany","global_code":"9F4F6H63+F5"},"reference":"ChIJa9Ah-OqbukcRRcT0lSznaks","scope":"GOOGLE","types":["hospital","doctor","health","point_of_interest","establishment"],"vicinity":"An der Bleiche 6, Springe"},{"geometry":{"location":{"lat":52.23734,"lng":10.54497},"viewport":{"northeast":{"lat":52.2387200802915,"lng":10.5461849302915},"southwest":{"lat":52.2360221197085,"lng":10.5434869697085}}},"icon":"https://maps.gstatic.com/mapfiles/place_api/icons/doctor-71.png","id":"dc13685858e2ada962f36755c45f193f5521c353","name":"Neurochirurgie, Städtisches Klinikum Braunschweig gGmbH","opening_hours":{"open_now":false},"place_id":"ChIJRaiCTd71r0cRDqLVGQGnAMs","plus_code":{"compound_code":"6GPV+WX Brunswick, Germany","global_code":"9F4G6GPV+WX"},"rating":3.8,"reference":"ChIJRaiCTd71r0cRDqLVGQGnAMs","scope":"GOOGLE","types":["hospital","health","point_of_interest","establishment"],"user_ratings_total":11,"vicinity":"Salzdahlumer Straße 90, Braunschweig"}]