[{"geometry":{"location":{"lat":48.77049450000001,"lng":11.3772775},"viewport":{"northeast":{"lat":48.7724652302915,"lng":11.3811462},"southwest":{"lat":48.76976726970851,"lng":11.374277}}},"icon":"https://maps.gstatic.com/mapfiles/place_api/icons/doctor-71.png","id":"605c53b94a9b652353d994a3792257617a87a3b0","name":"Klinikum Ingolstadt GmbH","opening_hours":{"open_now":true},"photos":[{"height":1365,"html_attributions":["<a href=\"https://maps.google.com/maps/contrib/102745431301159074052\">Klinikum Ingolstadt GmbH</a>"],"photo_reference":"CmRaAAAAjJmd0HhQ6aXp8i0KER1Uaf6AJBoUYubuB2jIcRD7zvBsLwGBxAYe2snrE3ePpHh3Vs44oaEJZb4KAK2T38tNvs7zT8Glfe75AEUklw53dCi6MEp-ICgMazQMlF2pD0VlEhCQeWTiJGBfzfapgd-ihQluGhTmb97hn-InBUvMAgP0Esq9vp0q4g","width":2048}],"place_id":"ChIJg9OYFtf9nkcRFea13D4I3Vs","plus_code":{"compound_code":"Q9CG+5W Ingolstadt, Germany","global_code":"8FWHQ9CG+5W"},"rating":2.9,"reference":"ChIJg9OYFtf9nkcRFea13D4I3Vs","scope":"GOOGLE","types":["hospital","health","point_of_interest","establishment"],"user_ratings_total":247,"vicinity":"Krumenauerstraße 25, Ingolstadt"},{"geometry":{"location":{"lat":48.5183383,"lng":11.4987956},"viewport":{"northeast":{"lat":48.5196228302915,"lng":11.5004158302915},"southwest":{"lat":48.5169248697085,"lng":11.4977178697085}}},"icon":"https://maps.gstatic.com/mapfiles/place_api/icons/doctor-71.png","id":"de034386d9dbcb97e1033d971d2cab485cd6c180","name":"Ilmtalklinik Pfaffenhofen","opening_hours":{"open_now":true},"photos":[{"height":3024,"html_attributions":["<a href=\"https://maps.google.com/maps/contrib/108482515932493741879\">Winfried Wagner</a>"],"photo_reference":"CmRaAAAAqQtJ6olZbqLkBAl_pWw_Mm1YkRXlhGMoWyiYsqAdXbuGKGnsAxQqQo66TG2CAi3wjXcfPESFKQk-Ybk91BdKDQ2tG-a1C-syv9fB40WaWZ2hRvd3XNNnGtVJzbAS0OpCEhDczstfxgUaohNNWo4M4s_HGhSGoHQXnRs03zvwO9630EIxguEI_Q","width":5376}],"place_id":"ChIJHf7QiCZcnkcR7hDPaMEtRb0","plus_code":{"compound_code":"GF9X+8G Pfaffenhofen an der Ilm, Germany","global_code":"8FWHGF9X+8G"},"rating":2.9,"reference":"ChIJHf7QiCZcnkcR7hDPaMEtRb0","scope":"GOOGLE","types":["hospital","health","point_of_interest","establishment"],"user_ratings_total":127,"vicinity":"Krankenhausstraße 70, Pfaffenhofen an der Ilm"},{"geometry":{"location":{"lat":48.4053105,"lng":11.7450127},"viewport":{"northeast":{"lat":48.4064351802915,"lng":11.7460543302915},"southwest":{"lat":48.4037372197085,"lng":11.7433563697085}}},"icon":"https://maps.gstatic.com/mapfiles/place_api/icons/doctor-71.png","id":"2bfb88097f15686523b47f833ec900a4cf79ead3","name":"Klinikum Freising GmbH","opening_hours":{"open_now":true},"photos":[{"height":3744,"html_attributions":["<a href=\"https://maps.google.com/maps/contrib/109189888339078321139\">Klinikum Freising GmbH</a>"],"photo_reference":"CmRaAAAAXeQjNdmqWMCBVsw33SdoTcdGYVBWhjYDer9PoGnMiVhscJClxWmagWqSsSxs5eXOmLtjh4KPj1QBJMOXas8AsAMfvapw1HhGdJ_C0EgMhrWC4cm4dqSBl7zBji-ZzXBOEhAdS6nC_Dc6_yQhP3vRzQ5rGhR7G-m2A3gCf6j94SxPLWBIc1deQg","width":5616}],"place_id":"ChIJmb7sAtxqnkcRhkhUu3V7254","plus_code":{"compound_code":"CP4W+42 Freising, Germany","global_code":"8FWHCP4W+42"},"rating":2.9,"reference":"ChIJmb7sAtxqnkcRhkhUu3V7254","scope":"GOOGLE","types":["hospital","health","point_of_interest","establishment"],"user_ratings_total":162,"vicinity":"Alois-Steinecker-Straße 18, Freising"},{"geometry":{"location":{"lat":48.71721230000001,"lng":11.4926116},"viewport":{"northeast":{"lat":48.7185198802915,"lng":11.4939547302915},"southwest":{"lat":48.7158219197085,"lng":11.4912567697085}}},"icon":"https://maps.gstatic.com/mapfiles/place_api/icons/generic_business-71.png","id":"1052095e87e4ec885b104a415238b05c805b8a3a","name":"Diagnosticum Bayern center - Manching","opening_hours":{"open_now":false},"photos":[{"height":1536,"html_attributions":["<a href=\"https://maps.google.com/maps/contrib/102991007564666728423\">Diagnosticum Bayern Mitte - Standort Manching</a>"],"photo_reference":"CmRaAAAAFFJJgmVLI2kM2L1yqpggJ-oG23A0zT9EHTk7wMj8N0nqTdiq6MsdfgsgX9sHpLGWnmeHPGQXlYMG5zwfagCHV27k1LTEbC1nr6FuQ4Uu7vzsPTEsee6JyNiN1z4lMkH-EhCctm9DJ6LKhc_WFIx1l0nAGhRJfCImKiBNJCHNtucnybjJzrmrdQ","width":2048}],"place_id":"ChIJjU1UfOdVnkcRjN2yYB9lQR0","plus_code":{"compound_code":"PF8V+V2 Manching, Germany","global_code":"8FWHPF8V+V2"},"rating":4.6,"reference":"ChIJjU1UfOdVnkcRjN2yYB9lQR0","scope":"GOOGLE","types":["hospital","doctor","health","point_of_interest","establishment"],"user_ratings_total":9,"vicinity":"Ingolstädter Straße 6a, Manching"},{"geometry":{"location":{"lat":48.77107929999999,"lng":11.3774684},"viewport":{"northeast":{"lat":48.77236463029149,"lng":11.3788179802915},"southwest":{"lat":48.76966666970849,"lng":11.3761200197085}}},"icon":"https://maps.gstatic.com/mapfiles/place_api/icons/generic_business-71.png","id":"57dc1fa021b1f63280749874cbf442f0d4cb418c","name":"Dr. med. Brigitte Ertel","opening_hours":{"open_now":false},"photos":[{"height":1557,"html_attributions":["<a href=\"https://maps.google.com/maps/contrib/112996556367880646969\">Frau Dr. med. Brigitte Ertel</a>"],"photo_reference":"CmRaAAAADbpZxu93OJqhsZJxqicxQ6erHmygYIyMnfxjP-gzKPuNlTI1UJq0GbEyfLcpHOFQqGHivF4-5rgOnbqOAAJE5DJjhjuShf-_7pNr5hfnsPWV55mvikySNPzxh642Ze7WEhAvNFhOFS2fLxFSGFxDcUigGhQA6KWrvhrEvDgwbAy1p0yGaw2ZVQ","width":2048}],"place_id":"ChIJc0k09dD9nkcRh6t7iop-Mi0","plus_code":{"compound_code":"Q9CG+CX Ingolstadt, Germany","global_code":"8FWHQ9CG+CX"},"reference":"ChIJc0k09dD9nkcRh6t7iop-Mi0","scope":"GOOGLE","types":["hospital","doctor","health","point_of_interest","establishment"],"vicinity":"Levelingstraße 21, Ingolstadt"},{"geometry":{"location":{"lat":48.77027279999999,"lng":11.3775597},"viewport":{"northeast":{"lat":48.77196158029149,"lng":11.3789053802915},"southwest":{"lat":48.76926361970849,"lng":11.3762074197085}}},"icon":"https://maps.gstatic.com/mapfiles/place_api/icons/doctor-71.png","id":"9fe832b82ee440fd1228cc7df399c3a1d0f852d5","name":"Klinikum Ingolstadt GmbH Geriatrische Rehabilitation","place_id":"ChIJg9OYFtf9nkcRYbWbKG6UXS8","plus_code":{"compound_code":"Q9CH+42 Ingolstadt, Germany","global_code":"8FWHQ9CH+42"},"rating":5,"reference":"ChIJg9OYFtf9nkcRYbWbKG6UXS8","scope":"GOOGLE","types":["hospital","health","point_of_interest","establishment"],"user_ratings_total":3,"vicinity":"Krumenauerstraße 25, Ingolstadt"},{"geometry":{"location":{"lat":48.57236,"lng":11.26425},"viewport":{"northeast":{"lat":48.5737253302915,"lng":11.2659435302915},"southwest":{"lat":48.5710273697085,"lng":11.2632455697085}}},"icon":"https://maps.gstatic.com/mapfiles/place_api/icons/doctor-71.png","id":"6d477e11fba0637318a4ac8e4bd75bb52d7b410c","name":"Medizinisches Zentrum SOB MVZ-GmbH","place_id":"ChIJBdnY32LxnkcRJXj67Zm05bw","plus_code":{"compound_code":"H7C7+WP Schrobenhausen, Germany","global_code":"8FWHH7C7+WP"},"rating":4,"reference":"ChIJBdnY32LxnkcRJXj67Zm05bw","scope":"GOOGLE","types":["hospital","doctor","health","point_of_interest","establishment"],"user_ratings_total":3,"vicinity":"Högenauer Weg 5, Schrobenhausen"},{"geometry":{"location":{"lat":48.73103450000001,"lng":11.1750206},"viewport":{"northeast":{"lat":48.7323071302915,"lng":11.1763676302915},"southwest":{"lat":48.7296091697085,"lng":11.1736696697085}}},"icon":"https://maps.gstatic.com/mapfiles/place_api/icons/doctor-71.png","id":"68f5b933a357ddc27b6f26033918974ffcdd5137","name":"Kliniken St. Elisabeth Abteilung für Kinder- und Jugendpsychiatrie / -psychotherapie","photos":[{"height":5664,"html_attributions":["<a href=\"https://maps.google.com/maps/contrib/114932610145613057093\">ivica lasic</a>"],"photo_reference":"CmRaAAAA2xf7IUoMfSgSWcUn1YPn5EpO1g7F0IiUqE8MMElxaGOQ8ed0QB_H2DGT03l9ODOTfeRMT6Ikl0xBuspIfmjf-Upj8GkXV3P9WttLH5H9F64FFSTDRjJNUUfPqJOsQPocEhCPx54dOCVWX7ZXgivy0GGzGhS2c5cblAI9HiW6Ytnth7_B4Z1RAQ","width":4248}],"place_id":"ChIJYSpijxLknkcRoOHvSDUo0No","plus_code":{"compound_code":"P5JG+C2 Neuburg an der Donau, Germany","global_code":"8FWHP5JG+C2"},"rating":3.7,"reference":"ChIJYSpijxLknkcRoOHvSDUo0No","scope":"GOOGLE","types":["hospital","health","point_of_interest","establishment"],"user_ratings_total":3,"vicinity":"Müller-Gnadenegg-Weg 4, Neuburg an der Donau"},{"geometry":{"location":{"lat":48.7301835,"lng":11.1766782},"viewport":{"northeast":{"lat":48.73147833029149,"lng":11.1780613302915},"southwest":{"lat":48.7287803697085,"lng":11.1753633697085}}},"icon":"https://maps.gstatic.com/mapfiles/place_api/icons/doctor-71.png","id":"88873e47676a65ca5194efe849b0b4de71cd9d90","name":"Kliniken St. Elisabeth Tagesklinik für Schmerztherapie","place_id":"ChIJYSpijxLknkcRdQfv0hXe15M","plus_code":{"compound_code":"P5JG+3M Neuburg an der Donau, Germany","global_code":"8FWHP5JG+3M"},"rating":2.8,"reference":"ChIJYSpijxLknkcRdQfv0hXe15M","scope":"GOOGLE","types":["hospital","health","point_of_interest","establishment"],"user_ratings_total":6,"vicinity":"Müller-Gnadenegg-Weg 4, Neuburg an der Donau"},{"geometry":{"location":{"lat":48.77027279999999,"lng":11.3775597},"viewport":{"northeast":{"lat":48.77196158029149,"lng":11.3789053802915},"southwest":{"lat":48.76926361970849,"lng":11.3762074197085}}},"icon":"https://maps.gstatic.com/mapfiles/place_api/icons/doctor-71.png","id":"9e6c72ea28d0cce8c8f8c2e72d2f35557c619a03","name":"Klinikum Ingolstadt GmbH Institut für Pathologie","place_id":"ChIJJa45Ftf9nkcRq-h59pVYsCY","plus_code":{"compound_code":"Q9CH+42 Ingolstadt, Germany","global_code":"8FWHQ9CH+42"},"reference":"ChIJJa45Ftf9nkcRq-h59pVYsCY","scope":"GOOGLE","types":["hospital","health","point_of_interest","establishment"],"vicinity":"Krumenauerstraße 25, Ingolstadt"},{"geometry":{"location":{"lat":48.7301746,"lng":11.1767213},"viewport":{"northeast":{"lat":48.7314782802915,"lng":11.1780988302915},"southwest":{"lat":48.7287803197085,"lng":11.1754008697085}}},"icon":"https://maps.gstatic.com/mapfiles/place_api/icons/doctor-71.png","id":"545c9ab66c646ccf2064e2ad7e0244130a3a15d1","name":"Kreiskrankenhaus Schrobenhausen GmbH","place_id":"ChIJ5Wh4hRLknkcR5oA2edzUhJE","plus_code":{"compound_code":"P5JG+3M Neuburg an der Donau, Germany","global_code":"8FWHP5JG+3M"},"reference":"ChIJ5Wh4hRLknkcR5oA2edzUhJE","scope":"GOOGLE","types":["hospital","health","point_of_interest","establishment"],"vicinity":"Müller-Gnadenegg-Weg, Neuburg/Donau"},{"geometry":{"location":{"lat":48.57236,"lng":11.26425},"viewport":{"northeast":{"lat":48.5737253302915,"lng":11.2659435302915},"southwest":{"lat":48.5710273697085,"lng":11.2632455697085}}},"icon":"https://maps.gstatic.com/mapfiles/place_api/icons/doctor-71.png","id":"19a07dd6fc9b3f31b36f4afd0fe2466649d51cb2","name":"Kreiskrankenhaus Schrobenhausen GmbH Abteilung für Frauenheilkunde und Geburtshilfe","place_id":"ChIJ04Sz32LxnkcRWhahjYh2CxM","plus_code":{"compound_code":"H7C7+WP Schrobenhausen, Germany","global_code":"8FWHH7C7+WP"},"reference":"ChIJ04Sz32LxnkcRWhahjYh2CxM","scope":"GOOGLE","types":["hospital","health","point_of_interest","establishment"],"vicinity":"Högenauer Weg 5, Schrobenhausen"},{"geometry":{"location":{"lat":48.64305359999999,"lng":11.7798873},"viewport":{"northeast":{"lat":48.6444300802915,"lng":11.7812873802915},"southwest":{"lat":48.6417321197085,"lng":11.7785894197085}}},"icon":"https://maps.gstatic.com/mapfiles/place_api/icons/doctor-71.png","id":"1326c89f1ad9e00d346da3992fbfdd1b1809468c","name":"Krankenhaus Mainburg - Verbundklinik der Ilmtalklinik Pfaffenhofen Abteilung für Anästhesie - Intensivmedizin, Schmerztherapie und Notfallmedizin","opening_hours":{"open_now":true},"place_id":"ChIJKePXPSFJnkcRL9Vje47hTRk","plus_code":{"compound_code":"JQVH+6X Mainburg, Germany","global_code":"8FWHJQVH+6X"},"reference":"ChIJKePXPSFJnkcRL9Vje47hTRk","scope":"GOOGLE","types":["hospital","health","point_of_interest","establishment"],"vicinity":"Laurentiusweg 1, Mainburg"},{"geometry":{"location":{"lat":48.7590284,"lng":11.6270242},"viewport":{"northeast":{"lat":48.7604261302915,"lng":11.6283107302915},"southwest":{"lat":48.7577281697085,"lng":11.6256127697085}}},"icon":"https://maps.gstatic.com/mapfiles/place_api/icons/doctor-71.png","id":"8bf03ab312cccf024de5d00fc8eda5ca828b45aa","name":"Praxis für Naturheilkunde Graf Beatrix","place_id":"ChIJ7Ys4zz1TnkcR3DJo7XMiTkM","plus_code":{"compound_code":"QJ5G+JR Vohburg, Germany","global_code":"8FWHQJ5G+JR"},"reference":"ChIJ7Ys4zz1TnkcR3DJo7XMiTkM","scope":"GOOGLE","types":["hospital","health","point_of_interest","establishment"],"vicinity":"Dorfwiese 2, Vohburg an der Donau"},{"geometry":{"location":{"lat":48.88940969999999,"lng":11.1913993},"viewport":{"northeast":{"lat":48.89068193029149,"lng":11.1926940302915},"southwest":{"lat":48.88798396970849,"lng":11.1899960697085}}},"icon":"https://maps.gstatic.com/mapfiles/place_api/icons/doctor-71.png","id":"460ba4db383c6a6a20d658b7c44d271c810e5e1c","name":"Herr Gregor Voggenreiter","place_id":"ChIJ5UZI87gen0cR7i6J9O-fBxQ","plus_code":{"compound_code":"V5QR+QH Eichstätt, Germany","global_code":"8FWHV5QR+QH"},"reference":"ChIJ5UZI87gen0cR7i6J9O-fBxQ","scope":"GOOGLE","types":["hospital","health","point_of_interest","establishment"],"vicinity":"Ostenstraße 31, Eichstätt"},{"geometry":{"location":{"lat":48.64305359999999,"lng":11.7798873},"viewport":{"northeast":{"lat":48.6444300802915,"lng":11.7812873802915},"southwest":{"lat":48.6417321197085,"lng":11.7785894197085}}},"icon":"https://maps.gstatic.com/mapfiles/place_api/icons/doctor-71.png","id":"c64c7cc4914aaaa10e0076e8af6fb8788761b380","name":"Krankenhaus Mainburg - Verbundklinik der Ilmtalklinik Pfaffenhofen Innere Medizin und internistische Notfall- und Intensivmedizin","opening_hours":{"open_now":true},"place_id":"ChIJKePXPSFJnkcRumYvGnE4oME","plus_code":{"compound_code":"JQVH+6X Mainburg, Germany","global_code":"8FWHJQVH+6X"},"rating":5,"reference":"ChIJKePXPSFJnkcRumYvGnE4oME","scope":"GOOGLE","types":["hospital","health","point_of_interest","establishment"],"user_ratings_total":1,"vicinity":"Laurentiusweg 1, Mainburg"},{"geometry":{"location":{"lat":48.53196759999999,"lng":11.5090177},"viewport":{"northeast":{"lat":48.53331783029149,"lng":11.5104523802915},"southwest":{"lat":48.5306198697085,"lng":11.5077544197085}}},"icon":"https://maps.gstatic.com/mapfiles/place_api/icons/doctor-71.png","id":"5567018f49b7fae2f3716b92f9cd3e091e9f7ce6","name":"Ambulanter Hospiz- und Palliativberatungsdienst","place_id":"ChIJ390LTBpcnkcRrU-FLd1GKUI","plus_code":{"compound_code":"GGJ5+QJ Pfaffenhofen an der Ilm, Germany","global_code":"8FWHGGJ5+QJ"},"reference":"ChIJ390LTBpcnkcRrU-FLd1GKUI","scope":"GOOGLE","types":["hospital","health","point_of_interest","establishment"],"vicinity":"Türltorstraße 9, Pfaffenhofen an der Ilm"},{"geometry":{"location":{"lat":48.81506809999999,"lng":11.5064503},"viewport":{"northeast":{"lat":48.81655723029149,"lng":11.5077853302915},"southwest":{"lat":48.81385926970849,"lng":11.5050873697085}}},"icon":"https://maps.gstatic.com/mapfiles/place_api/icons/doctor-71.png","id":"dfe7982e094eaca5bd297361a9fae272171c52f4","name":"Klinikverbund Mittelbayern GmbH","place_id":"ChIJdxSmCnYAn0cRVdMpeD08v-s","plus_code":{"compound_code":"RG84+2H Kösching, Germany","global_code":"8FWHRG84+2H"},"rating":1,"reference":"ChIJdxSmCnYAn0cRVdMpeD08v-s","scope":"GOOGLE","types":["hospital","health","point_of_interest","establishment"],"user_ratings_total":1,"vicinity":"Krankenhausstraße 19, Kösching"},{"geometry":{"location":{"lat":48.770048,"lng":11.3815013},"viewport":{"northeast":{"lat":48.77143463029149,"lng":11.3824886802915},"southwest":{"lat":48.7687366697085,"lng":11.3797907197085}}},"icon":"https://maps.gstatic.com/mapfiles/place_api/icons/doctor-71.png","id":"4a24fdbbdbcd2909a8375e022ebca89193c88da1","name":"Hollis Center","photos":[{"height":3024,"html_attributions":["<a href=\"https://maps.google.com/maps/contrib/102780556086022537007\">Walze Rüttel</a>"],"photo_reference":"CmRaAAAAcxzaieQEfDmW1KKOcku-_ljsQqraYpas35OWHtra11ad_om2dnCsTXr2QroJbHG2J9jzYTd1eyaYI_7yrfXQN_O44VAFFOXvTveOYNrzOHAFCeatxzXwQ3-ELpD25tBeEhDFHscgHjUrpXMEnajCXIPpGhRXDJPkkeGlr7w5DWTW1rzQhOH9bQ","width":4032}],"place_id":"ChIJmzVyFNb9nkcR6txUCecsMXo","plus_code":{"compound_code":"Q9CJ+2J Ingolstadt, Germany","global_code":"8FWHQ9CJ+2J"},"rating":4.5,"reference":"ChIJmzVyFNb9nkcR6txUCecsMXo","scope":"GOOGLE","types":["hospital","health","point_of_interest","establishment"],"user_ratings_total":2,"vicinity":"Krumenauerstraße, Ingolstadt"},{"geometry":{"location":{"lat":48.77027279999999,"lng":11.3775597},"viewport":{"northeast":{"lat":48.77196158029149,"lng":11.3789053802915},"southwest":{"lat":48.76926361970849,"lng":11.3762074197085}}},"icon":"https://maps.gstatic.com/mapfiles/place_api/icons/doctor-71.png","id":"841f940749f7f1afb18c90971a65de0ddcd83974","name":"Klinikum Ingolstadt GmbH Institut für Diagnostische und Interventionelle Chirurgie","place_id":"ChIJJa45Ftf9nkcR161FEmT_X8o","plus_code":{"compound_code":"Q9CH+42 Ingolstadt, Germany","global_code":"8FWHQ9CH+42"},"reference":"ChIJJa45Ftf9nkcR161FEmT_X8o","scope":"GOOGLE","types":["hospital","health","point_of_interest","establishment"],"vicinity":"Krumenauerstraße 25, Ingolstadt"}]