[{"geometry":{"location":{"lat":50.3233301,"lng":10.2352588},"viewport":{"northeast":{"lat":50.3249384302915,"lng":10.2368761302915},"southwest":{"lat":50.3222404697085,"lng":10.2341781697085}}},"icon":"https://maps.gstatic.com/mapfiles/place_api/icons/doctor-71.png","id":"204be3ff6cb84d13a725e3f55c5ffc87697c37e6","name":"RHÖN-KLINIKUM Campus Bad Neustadt","opening_hours":{"open_now":true},"photos":[{"height":3120,"html_attributions":["<a href=\"https://maps.google.com/maps/contrib/105541219308789373054\">Jörg Müller</a>"],"photo_reference":"CmRZAAAAiTktGv60Tjdk-wOIti5_rGuLfu87Gm78-aPTRYqdxeMt0oN8EN40ORJjDQY5Nx9pWEIGXAOd9AjttrVHJtDda1jFyD3EdqfsUPEU48v4RUDivG-QsXa6SyuAFB081xsuEhAdeHx0BSfdbm6Rtke9ixeJGhQNdsMi-spDGDqItvEcktTGxFBfEw","width":4208}],"place_id":"ChIJBR-aZRAEo0cRrmxzw69qWIE","plus_code":{"compound_code":"86FP+84 Bad Neustadt an der Saale, Germany","global_code":"9F2G86FP+84"},"rating":3.4,"reference":"ChIJBR-aZRAEo0cRrmxzw69qWIE","scope":"GOOGLE","types":["hospital","health","point_of_interest","establishment"],"user_ratings_total":98,"vicinity":"Von-Guttenberg-Straße 11, Bad Neustadt an der Saale"},{"geometry":{"location":{"lat":50.5467936,"lng":9.7060834},"viewport":{"northeast":{"lat":50.5484559302915,"lng":9.707139730291505},"southwest":{"lat":50.5457579697085,"lng":9.7044417697085}}},"icon":"https://maps.gstatic.com/mapfiles/place_api/icons/doctor-71.png","id":"815115e7613dba2b64800d7fb4137367fe7dbf9e","name":"Klinikum Fulda","opening_hours":{"open_now":true},"photos":[{"height":3024,"html_attributions":["<a href=\"https://maps.google.com/maps/contrib/114626493867649752649\">CF Yang</a>"],"photo_reference":"CmRaAAAASu5XVq9CvolSfh4OKkfGw-Kk2OYCjaqJjbYRJn0DZIbDEQqt4CjLLxpNWSiruUtmawdipCEU-5j7MfpSHoA4eBtRnjPmcOJnzh4gb8w0JkFinV2QbjKAXDX6hKAN-FK6EhBnGKOwxouSBNPk6Da9uE6lGhQbTQCVP4Vj17Cw2Ehm3CvGTWrRqw","width":4032}],"place_id":"ChIJKx9sgek2o0cRAqsTFbzBHC8","plus_code":{"compound_code":"GPW4+PC Fulda, Germany","global_code":"9F2FGPW4+PC"},"rating":2.8,"reference":"ChIJKx9sgek2o0cRAqsTFbzBHC8","scope":"GOOGLE","types":["hospital","health","point_of_interest","establishment"],"user_ratings_total":225,"vicinity":"Pacelliallee 4, Fulda"},{"geometry":{"location":{"lat":50.1985877,"lng":10.084442},"viewport":{"northeast":{"lat":50.2000831302915,"lng":10.0858003302915},"southwest":{"lat":50.1973851697085,"lng":10.0831023697085}}},"icon":"https://maps.gstatic.com/mapfiles/place_api/icons/generic_business-71.png","id":"93d31dbf3213b8b7dbefed1a56ff92ac3986f43d","name":"Klinik Bavaria GmbH & Co. KG","opening_hours":{"open_now":true},"photos":[{"height":1535,"html_attributions":["<a href=\"https://maps.google.com/maps/contrib/104711807364219346121\">Klinik Bavaria GmbH &amp; Co. KG</a>"],"photo_reference":"CmRaAAAAbEv_54QWVY5dzOkRMWa4wfJElLBG5ZzBh8PqM0-Bh3KzGMenFUzpIHRam2amRoaGRViVjFhxWIPssI-FhuLM53mg1neibarYaEtImdL_WQ_GsALgx0EZ1GB3VDZ9wM_6EhBannlwWrPEEm5uYdniH5LNGhSvuyQzou1cZjTfc26TN1mBw2imQg","width":2048}],"place_id":"ChIJaa05NSjjokcREDCURh5C6W0","plus_code":{"compound_code":"53XM+CQ Bad Kissingen, Germany","global_code":"9F2G53XM+CQ"},"rating":4.2,"reference":"ChIJaa05NSjjokcREDCURh5C6W0","scope":"GOOGLE","types":["hospital","health","point_of_interest","establishment"],"user_ratings_total":47,"vicinity":"Von-der-Tann-Straße 18–22, Bad Kissingen"},{"geometry":{"location":{"lat":50.18709299999999,"lng":10.070555},"viewport":{"northeast":{"lat":50.1884448802915,"lng":10.0721729802915},"southwest":{"lat":50.1857469197085,"lng":10.0694750197085}}},"icon":"https://maps.gstatic.com/mapfiles/place_api/icons/doctor-71.png","id":"0b3b90808ccd55141c847896cce6d05107cc250a","name":"Fachklinik Heiligenfeld","opening_hours":{"open_now":true},"photos":[{"height":479,"html_attributions":["<a href=\"https://maps.google.com/maps/contrib/110658433775073321867\">Fachklinik Heiligenfeld</a>"],"photo_reference":"CmRaAAAAM97j_ep3Y_rGdPtD9phTMRvF26QxbWAFlq5_EbQLsBToTv0cPVKki5dMh4YOj8tmZafTlTb_7uggYQrJP6gr5IG2yuQYtLJAX3SldnjMbTnX-A-ZcJHwwhzOO9hgeWJ4EhD4ACUG7PSr0dmxHtjHTkqXGhTtxTw35PqpVRB1j1MP5ysW6ybaOg","width":600}],"place_id":"ChIJOwv8dzzjokcR3eoPYyvftY0","plus_code":{"compound_code":"53PC+R6 Bad Kissingen, Germany","global_code":"9F2G53PC+R6"},"rating":3.4,"reference":"ChIJOwv8dzzjokcR3eoPYyvftY0","scope":"GOOGLE","types":["hospital","health","point_of_interest","establishment"],"user_ratings_total":26,"vicinity":"Euerdorfer Straße 4-6, Bad Kissingen"},{"geometry":{"location":{"lat":50.21600489999999,"lng":9.3545506},"viewport":{"northeast":{"lat":50.21750383029149,"lng":9.356307630291502},"southwest":{"lat":50.21480586970849,"lng":9.353609669708497}}},"icon":"https://maps.gstatic.com/mapfiles/place_api/icons/generic_business-71.png","id":"8b45659fe81c8249eabad9cc2feeb40de2d1ee2c","name":"MediClin rehabilitation center Bad Orb","opening_hours":{"open_now":true},"photos":[{"height":3024,"html_attributions":["<a href=\"https://maps.google.com/maps/contrib/108124403589290460098\">Thomas Herrmann</a>"],"photo_reference":"CmRaAAAAijEW0tPsypMBs7FKgy-2UM0jrD9AmGC-N7LyrWhhVc8pR3xOnJ2kVBOkthobshazf0mKuvH1rSMbsRO5zws_wXYWUa7zuuh9VS7qyZGatQDjbrVOiYBKVZJbKsiOvVesEhArDZJvCn4v1Yk-GxYmgTHJGhRu2nYRXGOicQ5ayGEuBKpH5yrvHg","width":4032}],"place_id":"ChIJLVvIywcsvUcRbOopjNrgyhg","plus_code":{"compound_code":"6983+CR Bad Orb, Germany","global_code":"9F2F6983+CR"},"rating":3.5,"reference":"ChIJLVvIywcsvUcRbOopjNrgyhg","scope":"GOOGLE","types":["hospital","health","point_of_interest","establishment"],"user_ratings_total":42,"vicinity":"Spessartstraße 20, Bad Orb"},{"geometry":{"location":{"lat":50.2067074,"lng":9.1808382},"viewport":{"northeast":{"lat":50.2080124802915,"lng":9.182282930291501},"southwest":{"lat":50.2053145197085,"lng":9.179584969708497}}},"icon":"https://maps.gstatic.com/mapfiles/place_api/icons/doctor-71.png","id":"e31ed4fb9e06ced7b4c39aafda4be0017622a193","name":"Main-Kinzig-Kliniken GmbH","opening_hours":{"open_now":true},"photos":[{"height":1100,"html_attributions":["<a href=\"https://maps.google.com/maps/contrib/103537242328920824499\">Main-Kinzig-Kliniken GmbH</a>"],"photo_reference":"CmRaAAAAwNHO-wEgxhrxl5SVVt_t2UsUQKzthOF-9fHnvCRhht6HxM52aV4A-ATaVX8oay6xt_jfsI361mzgKGygbDu1KyXmAq26wS7irASIpN-KZ-Qp1z8z-64CsGV669PumDxDEhC8UgHhIZWYFk2Wynr-W2KrGhTAcQQc7DwphwAXaBgOGkPug5xdfQ","width":2048}],"place_id":"ChIJ1Zp9cbMlvUcR-qiwIz3v4s0","plus_code":{"compound_code":"654J+M8 Gelnhausen, Germany","global_code":"9F2F654J+M8"},"rating":3.3,"reference":"ChIJ1Zp9cbMlvUcR-qiwIz3v4s0","scope":"GOOGLE","types":["hospital","health","point_of_interest","establishment"],"user_ratings_total":144,"vicinity":"Herzbachweg 14, Gelnhausen"},{"geometry":{"location":{"lat":50.5538613,"lng":9.6779426},"viewport":{"northeast":{"lat":50.5551570302915,"lng":9.679188980291501},"southwest":{"lat":50.5524590697085,"lng":9.676491019708498}}},"icon":"https://maps.gstatic.com/mapfiles/place_api/icons/doctor-71.png","id":"de6c9d1e0eb3c65123b056702963ecba01628680","name":"Verkehrs- und Psychotherapeutische Praxis","opening_hours":{"open_now":false},"photos":[{"height":4608,"html_attributions":["<a href=\"https://maps.google.com/maps/contrib/109478993324905420337\">Hannes</a>"],"photo_reference":"CmRaAAAAMQQsh9GBYW8nbR0mSw7io2NRbldD4ckxBHJmTD9eP2Plq9X37U5e99RH3cbcm0Ps1tFN4R9__EMbwP-H_cScURqKcd_f6JR4fhuyPYMt03gpcF5MBpXkK3QTuyukhk9HEhBRAmjkF456hruobIYtikGbGhRZFtt1snLhKR6Lqu4G8D9sGa7whg","width":2592}],"place_id":"ChIJdSExNZw2o0cRaB6KX8ZvNgc","plus_code":{"compound_code":"HM3H+G5 Fulda, Germany","global_code":"9F2FHM3H+G5"},"reference":"ChIJdSExNZw2o0cRaB6KX8ZvNgc","scope":"GOOGLE","types":["hospital","health","point_of_interest","establishment"],"vicinity":"Rabanusstraße 5, Fulda"},{"geometry":{"location":{"lat":50.51300999999999,"lng":9.31441},"viewport":{"northeast":{"lat":50.51449673029149,"lng":9.315766480291503},"southwest":{"lat":50.51179876970849,"lng":9.313068519708498}}},"icon":"https://maps.gstatic.com/mapfiles/place_api/icons/generic_business-71.png","id":"931c6cd7f86ca19d68b19ac0a8163ed2ca799ac2","name":"Gemeinnützige Schottener Reha- und Betreuungseinrichtungen GmbH Wohnheim","place_id":"ChIJI5lAc3bFvEcR5v1J5ugCruU","plus_code":{"compound_code":"G877+6Q Grebenhain, Germany","global_code":"9F2FG877+6Q"},"reference":"ChIJI5lAc3bFvEcR5v1J5ugCruU","scope":"GOOGLE","types":["hospital","health","point_of_interest","establishment"],"vicinity":"Am Hegholz 18, Grebenhain"},{"geometry":{"location":{"lat":50.30873889999999,"lng":9.786498},"viewport":{"northeast":{"lat":50.3100506802915,"lng":9.788061930291502},"southwest":{"lat":50.3073527197085,"lng":9.785363969708499}}},"icon":"https://maps.gstatic.com/mapfiles/place_api/icons/generic_business-71.png","id":"17627f096a0e7883824fb0acb65bf6c90815fccf","name":"Prof. Dr. med. Emanuel Fritschka - Hausärztlich-Internistische Praxis","opening_hours":{"open_now":false},"photos":[{"height":2048,"html_attributions":["<a href=\"https://maps.google.com/maps/contrib/113131081745213445938\">Prof. Dr. med. Emanuel Fritschka - Hausärztlich-Internistische Praxis</a>"],"photo_reference":"CmRaAAAAa8Ta6fasx86JQrkWASMEbF8WCZ8-f0QxC-shsKxEQxhW6GIRz9YopRFnaoJg3TlBiKpLo7IhYO9UJRavIGLjde6tBLd6VQSigw98NPzNJK5pFhqD9hPlADDmnsC15HxIEhC2S2adVI878ASQkw-5KECdGhQysypMt4DIgLFYiobfGAEZO_eGSQ","width":1536}],"place_id":"ChIJv1pYEiAno0cRS6ZEZJ-sCI4","plus_code":{"compound_code":"8Q5P+FH Bad Brückenau, Germany","global_code":"9F2F8Q5P+FH"},"rating":4.2,"reference":"ChIJv1pYEiAno0cRS6ZEZJ-sCI4","scope":"GOOGLE","types":["doctor","hospital","health","point_of_interest","establishment"],"user_ratings_total":5,"vicinity":"Bahnhofstraße 2, Bad Brückenau"},{"geometry":{"location":{"lat":50.5475121,"lng":9.6747745},"viewport":{"northeast":{"lat":50.54885463029149,"lng":9.675976080291502},"southwest":{"lat":50.5461566697085,"lng":9.673278119708497}}},"icon":"https://maps.gstatic.com/mapfiles/place_api/icons/generic_business-71.png","id":"fe8319a3493b3b7d67cca19fb7ee150f8d3309fc","name":"Nicole Weider - Kommunikation im Gesundheitswesen","opening_hours":{"open_now":false},"photos":[{"height":596,"html_attributions":["<a href=\"https://maps.google.com/maps/contrib/108655190850778566518\">Nicole Weider - Kommunikation im Gesundheitswesen</a>"],"photo_reference":"CmRaAAAACVwZ08uSDeAE2-y_ez03RG-ujGcFjRgj-k7tra5bO5EgwuV_cP66ZX8mV8nbdBRfbmBbioYLURvN5sQe0-yVQChwypMEfiD7ImRqMym3p8ZoQXtFwRQ8NKE1YiDZxvPtEhCDF_fnINtqobHznVotJpwaGhSRnpMPk1lGGluOqKGv1D3n8N5WKg","width":845}],"place_id":"ChIJ7bT8JqA2o0cRabxkyEeZawI","plus_code":{"compound_code":"GMXF+2W Fulda, Germany","global_code":"9F2FGMXF+2W"},"reference":"ChIJ7bT8JqA2o0cRabxkyEeZawI","scope":"GOOGLE","types":["hospital","health","point_of_interest","establishment"],"vicinity":"Löherstraße 29, Fulda"},{"geometry":{"location":{"lat":50.66341,"lng":9.76741},"viewport":{"northeast":{"lat":50.6647520802915,"lng":9.768896680291503},"southwest":{"lat":50.66205411970851,"lng":9.766198719708498}}},"icon":"https://maps.gstatic.com/mapfiles/place_api/icons/generic_business-71.png","id":"fc854f9ec69891ae531beddbf312266cd94420eb","name":"Frau Elena Schlothauer","opening_hours":{"open_now":false},"place_id":"ChIJJcFk1x9Jo0cR3VbxC4acUjo","plus_code":{"compound_code":"MQ78+9X Hünfeld, Germany","global_code":"9F2FMQ78+9X"},"reference":"ChIJJcFk1x9Jo0cR3VbxC4acUjo","scope":"GOOGLE","types":["hospital","doctor","health","point_of_interest","establishment"],"vicinity":"Schillerstraße 22, Hünfeld"},{"geometry":{"location":{"lat":50.62980510000001,"lng":9.391172200000002},"viewport":{"northeast":{"lat":50.6312643302915,"lng":9.392454730291504},"southwest":{"lat":50.6285663697085,"lng":9.3897567697085}}},"icon":"https://maps.gstatic.com/mapfiles/place_api/icons/doctor-71.png","id":"3e97eb252679c1e85adcc7908169a5c8bd28a695","name":"Medizinisches Zentrum Eichhof Abteilung für Innere Medizin","photos":[{"height":1152,"html_attributions":["<a href=\"https://maps.google.com/maps/contrib/115427318608718906098\">Samer 730</a>"],"photo_reference":"CmRaAAAACo32TZmumQNcjH3y6SrFjOZUEeW3fHoC81pDuYnu_RRhW7LGgD1-gADil5wzZn-YidSfH-m_9U3vH9euk50m6v0KYymfEo3T4BYseDaO1goWkfJrWPJM20fYTh1ViGOMEhAE_Zri9mItypNNMyIEg_U-GhSuYGycoyQFl_dvWBV65toOSMdTFQ","width":2048}],"place_id":"ChIJjeoxseG3vEcRgSqnaBZq0sI","plus_code":{"compound_code":"J9HR+WF Lauterbach, Germany","global_code":"9F2FJ9HR+WF"},"rating":5,"reference":"ChIJjeoxseG3vEcRgSqnaBZq0sI","scope":"GOOGLE","types":["hospital","health","point_of_interest","establishment"],"user_ratings_total":2,"vicinity":"Eichhofstraße 1, Lauterbach (Hessen)"},{"geometry":{"location":{"lat":50.5578497,"lng":9.710189399999999},"viewport":{"northeast":{"lat":50.5593071302915,"lng":9.711559180291504},"southwest":{"lat":50.55660916970851,"lng":9.7088612197085}}},"icon":"https://maps.gstatic.com/mapfiles/place_api/icons/doctor-71.png","id":"cc93a0f71e67e08fabf466954fcca6d056a99bba","name":"PRAXIS für PRÄVENTIONSMEDIZIN","opening_hours":{"open_now":false},"photos":[{"height":1096,"html_attributions":["<a href=\"https://maps.google.com/maps/contrib/118269608134541950792\">PRAXIS für PRÄVENTIONSMEDIZIN</a>"],"photo_reference":"CmRaAAAATI16IhzvYbO3QIpFc-NWMcWUXA-gtoRhjl0Q9Hae-yLfkF_wffBftQT8_21BxFed-v7tAOj3ffjbiepQnIeYWjvNAK0KA-wJqzA55DTBWJ7Iprvj5f44JT72rqaxRU0tEhAfNChvgmQ6so0wowKPBTJ_GhQESCAvxgQuEJw8GZ6_1SSYPX2XxQ","width":1096}],"place_id":"ChIJ2RQpFoM2o0cRNiZJU1sk0G8","plus_code":{"compound_code":"HP56+43 Petersberg, Germany","global_code":"9F2FHP56+43"},"reference":"ChIJ2RQpFoM2o0cRNiZJU1sk0G8","scope":"GOOGLE","types":["hospital","health","point_of_interest","establishment"],"vicinity":"Bergstraße 7, Petersberg"},{"geometry":{"location":{"lat":50.5622032,"lng":9.6738956},"viewport":{"northeast":{"lat":50.5634785802915,"lng":9.6751165302915},"southwest":{"lat":50.5607806197085,"lng":9.672418569708498}}},"icon":"https://maps.gstatic.com/mapfiles/place_api/icons/doctor-71.png","id":"056ba48f4ee438c666e14bad256be3b8f1cb945f","name":"Abteilung für Allgemeine Innere Medizin, Gastroenterologie und Diabetologie","place_id":"ChIJub5edCk0o0cRemaKCOO5ge0","plus_code":{"compound_code":"HM6F+VH Fulda, Germany","global_code":"9F2FHM6F+VH"},"reference":"ChIJub5edCk0o0cRemaKCOO5ge0","scope":"GOOGLE","types":["hospital","health","point_of_interest","establishment"],"vicinity":"Buttlarstraße 74, Fulda"},{"geometry":{"location":{"lat":50.4530596,"lng":9.4454005},"viewport":{"northeast":{"lat":50.45443593029149,"lng":9.4467128802915},"southwest":{"lat":50.45173796970849,"lng":9.444014919708495}}},"icon":"https://maps.gstatic.com/mapfiles/place_api/icons/doctor-71.png","id":"416274d297464981a5f46c026d1df87597af990a","name":"Gripability GmbH","place_id":"ChIJPZz-oQ3SvEcRYtrwSsN-PBU","plus_code":{"compound_code":"FC3W+65 Freiensteinau, Germany","global_code":"9F2FFC3W+65"},"reference":"ChIJPZz-oQ3SvEcRYtrwSsN-PBU","scope":"GOOGLE","types":["hospital","health","point_of_interest","establishment"],"vicinity":"Am Wiesengrund 3, Freiensteinau"},{"geometry":{"location":{"lat":50.6348522,"lng":9.3978209},"viewport":{"northeast":{"lat":50.63620658029149,"lng":9.3991736802915},"southwest":{"lat":50.63350861970849,"lng":9.396475719708498}}},"icon":"https://maps.gstatic.com/mapfiles/place_api/icons/doctor-71.png","id":"b3e9ec15b2e2547be56c6936a3ee8941e791dd30","name":"Herr Dr. med. Dr. rer. nat. Christoph Herda","place_id":"ChIJmxoOJhzIvEcRlB2jhh2a3i4","plus_code":{"compound_code":"J9MX+W4 Lauterbach, Germany","global_code":"9F2FJ9MX+W4"},"reference":"ChIJmxoOJhzIvEcRlB2jhh2a3i4","scope":"GOOGLE","types":["hospital","health","point_of_interest","establishment"],"vicinity":"Eichhofstraße 1, Lauterbach (Hessen)"},{"geometry":{"location":{"lat":50.86510999999999,"lng":9.71823},"viewport":{"northeast":{"lat":50.86644613029149,"lng":9.719717880291503},"southwest":{"lat":50.86374816970849,"lng":9.717019919708498}}},"icon":"https://maps.gstatic.com/mapfiles/place_api/icons/doctor-71.png","id":"95641bed0b81f1b5fe3843efcc3db94285d1e3d2","name":"Diagnostisch-medizinisches-Zentrum","opening_hours":{"open_now":false},"place_id":"ChIJScUoRYRUo0cRXMoQckIlfyo","plus_code":{"compound_code":"VP89+27 Bad Hersfeld, Germany","global_code":"9F2FVP89+27"},"rating":4.3,"reference":"ChIJScUoRYRUo0cRXMoQckIlfyo","scope":"GOOGLE","types":["hospital","health","point_of_interest","establishment"],"user_ratings_total":3,"vicinity":"Frankfurter Straße 7, Bad Hersfeld"},{"geometry":{"location":{"lat":50.6348522,"lng":9.3978209},"viewport":{"northeast":{"lat":50.63620658029149,"lng":9.3991736802915},"southwest":{"lat":50.63350861970849,"lng":9.396475719708498}}},"icon":"https://maps.gstatic.com/mapfiles/place_api/icons/doctor-71.png","id":"3b5923bde7f110cabcd85b21f40ce14f6bdb8c51","name":"Herr Dr. med. Achim R. Müller","place_id":"ChIJjeoxseG3vEcRgDl6J8cRWsc","plus_code":{"compound_code":"J9MX+W4 Lauterbach, Germany","global_code":"9F2FJ9MX+W4"},"reference":"ChIJjeoxseG3vEcRgDl6J8cRWsc","scope":"GOOGLE","types":["hospital","health","point_of_interest","establishment"],"vicinity":"Eichhofstraße 1, Lauterbach (Hessen)"},{"geometry":{"location":{"lat":50.66341,"lng":9.76741},"viewport":{"northeast":{"lat":50.6647520802915,"lng":9.768896680291503},"southwest":{"lat":50.66205411970851,"lng":9.766198719708498}}},"icon":"https://maps.gstatic.com/mapfiles/place_api/icons/doctor-71.png","id":"a29608b5911e04ff721accc2586b36dff0070dc5","name":"HELIOS Privatklinik Hünfeld","place_id":"ChIJd3V_JeBIo0cR8BRc3YnfYeE","plus_code":{"compound_code":"MQ78+9X Hünfeld, Germany","global_code":"9F2FMQ78+9X"},"reference":"ChIJd3V_JeBIo0cR8BRc3YnfYeE","scope":"GOOGLE","types":["hospital","health","point_of_interest","establishment"],"vicinity":"Schillerstraße 22, Hünfeld"},{"geometry":{"location":{"lat":50.6348522,"lng":9.3978209},"viewport":{"northeast":{"lat":50.63620658029149,"lng":9.3991736802915},"southwest":{"lat":50.63350861970849,"lng":9.396475719708498}}},"icon":"https://maps.gstatic.com/mapfiles/place_api/icons/doctor-71.png","id":"1199aca91b4748cc23750b697ee83de07ce94c8e","name":"Frau Dr. med. Ines Christin Josek","place_id":"ChIJjeoxseG3vEcRJSfLK0XnqNs","plus_code":{"compound_code":"J9MX+W4 Lauterbach, Germany","global_code":"9F2FJ9MX+W4"},"reference":"ChIJjeoxseG3vEcRJSfLK0XnqNs","scope":"GOOGLE","types":["hospital","health","point_of_interest","establishment"],"vicinity":"Eichhofstraße 1, Lauterbach (Hessen)"}]