[{"geometry":{"location":{"lat":51.05170150000001,"lng":9.1733065},"viewport":{"northeast":{"lat":51.0529157802915,"lng":9.174977080291502},"southwest":{"lat":51.05021781970851,"lng":9.172279119708497}}},"icon":"https://maps.gstatic.com/mapfiles/place_api/icons/generic_business-71.png","id":"fdbb068ca8bc7ceebc0234f841d8117827f55a0c","name":"Schloss Bad Zwesten Kavaliershaus","place_id":"ChIJQfnzCedju0cR4EFN_r_7trg","plus_code":{"compound_code":"352F+M8 Bad Zwesten, Germany","global_code":"9F3F352F+M8"},"rating":3.4,"reference":"ChIJQfnzCedju0cR4EFN_r_7trg","scope":"GOOGLE","types":["hospital","doctor","dentist","health","point_of_interest","establishment"],"user_ratings_total":5,"vicinity":"Schloßweg 2-4, Bad Zwesten"},{"geometry":{"location":{"lat":51.3281223,"lng":9.480330000000002},"viewport":{"northeast":{"lat":51.3294384302915,"lng":9.481493380291504},"southwest":{"lat":51.3267404697085,"lng":9.478795419708499}}},"icon":"https://maps.gstatic.com/mapfiles/place_api/icons/doctor-71.png","id":"2aa45d3a6a66c48f803fef0c6051b5afa7de0a30","name":"Marienkrankenhaus Kassel","opening_hours":{"open_now":true},"photos":[{"height":2368,"html_attributions":["<a href=\"https://maps.google.com/maps/contrib/118321902550710529578\">Harald Schäfer</a>"],"photo_reference":"CmRaAAAAufkdOQJTVWjk1p4zbzV0toRHjoZNUsTO_38fjutseGLWNpi7swlG_fSqUDxa37HFtAcYC7cd4yLII3gtlS4qHx0M_mynrjx0MFONx3pjDqku2sXCoyET3RAbP8zf_OdGEhAX0blG9N4YOiCVPmC2VceiGhREdw1aoR4USJb1KXqzmN_sL9arTg","width":4928}],"place_id":"ChIJFWu0oDs_u0cRaD8OKDSwC6g","plus_code":{"compound_code":"8FHJ+64 Kassel, Germany","global_code":"9F3F8FHJ+64"},"rating":4.3,"reference":"ChIJFWu0oDs_u0cRaD8OKDSwC6g","scope":"GOOGLE","types":["hospital","health","point_of_interest","establishment"],"user_ratings_total":91,"vicinity":"Marburger Straße 85, Kassel"},{"geometry":{"location":{"lat":51.3124087,"lng":9.430446000000002},"viewport":{"northeast":{"lat":51.3138960802915,"lng":9.4316508302915},"southwest":{"lat":51.3111981197085,"lng":9.428952869708496}}},"icon":"https://maps.gstatic.com/mapfiles/place_api/icons/generic_business-71.png","id":"243299798fc19e2cbdc653553cf39f898bb69efe","name":"Vitos Orthopedic Clinic Kassel","opening_hours":{"open_now":true},"photos":[{"height":1536,"html_attributions":["<a href=\"https://maps.google.com/maps/contrib/106870919258232751147\">Vitos Orthopädische Klinik Kassel</a>"],"photo_reference":"CmRaAAAAXfMEbTeh5LXN7jdqN8QLp__pYPzI_mm3yUpg9EwoRRmEjRDJPGO9CdvO-BtAYT4f4z2yUDbO-HrF8DhrwenlMHtxkkmYtgrYC-MWYCPv5u4uuLF0qQ4p_9mD_NzGRaVgEhBjn3nqpOGKH3AyaDeQsiofGhQU6ihQQuGDwYO3oqfrHREKNVDacg","width":2048}],"place_id":"ChIJtyPukYQ_u0cRSuUQ3wj-KJk","plus_code":{"compound_code":"8C6J+X5 Kassel, Germany","global_code":"9F3F8C6J+X5"},"rating":3.3,"reference":"ChIJtyPukYQ_u0cRSuUQ3wj-KJk","scope":"GOOGLE","types":["hospital","doctor","health","point_of_interest","establishment"],"user_ratings_total":82,"vicinity":"Wilhelmshöher Allee 345, Kassel"},{"geometry":{"location":{"lat":51.11055,"lng":9.07841},"viewport":{"northeast":{"lat":51.1117490802915,"lng":9.079496330291501},"southwest":{"lat":51.1090511197085,"lng":9.076798369708497}}},"icon":"https://maps.gstatic.com/mapfiles/place_api/icons/generic_business-71.png","id":"66489c3f5e2e464bd179d9e7a068fe4fb8ed1769","name":"MEDICLIN Kliniken Bad Wildungen","photos":[{"height":2448,"html_attributions":["<a href=\"https://maps.google.com/maps/contrib/106740711352411957003\">Alexander Poelder</a>"],"photo_reference":"CmRaAAAAjV_fwbfUQQDiREW20S1gJ6OCd2hA7ii8d6mZbILygVKYl_TwqzMI3gRwBN8rh-16H3PqaSZxhbIW1bl0siMw3Rih_dZxYFTi6mO8k9n-_IuijFgkVJZ6fOldhn6RaDgbEhCkhOuezDqiG4Xtw4Jy0QQXGhTRFfIH1KHgzDhakEAEazTmCu2eNA","width":3264}],"place_id":"ChIJN6-mNyV7u0cRaaq_oKfv2Lc","plus_code":{"compound_code":"436H+69 Bad Wildungen, Germany","global_code":"9F3F436H+69"},"rating":3.8,"reference":"ChIJN6-mNyV7u0cRaaq_oKfv2Lc","scope":"GOOGLE","types":["hospital","health","point_of_interest","establishment"],"user_ratings_total":33,"vicinity":"Ziergartenstraße 9, Bad Wildungen"},{"geometry":{"location":{"lat":51.3118248,"lng":9.4540417},"viewport":{"northeast":{"lat":51.31331383029149,"lng":9.4554023802915},"southwest":{"lat":51.3106158697085,"lng":9.452704419708496}}},"icon":"https://maps.gstatic.com/mapfiles/place_api/icons/doctor-71.png","id":"7505abbb9bc70225146f35cbac82d495ff8c5ba2","name":"DRK-Kliniken Nordhessen Gemeinnützige GmbH","opening_hours":{"open_now":true},"photos":[{"height":2008,"html_attributions":["<a href=\"https://maps.google.com/maps/contrib/115490104566222680314\">DRK-Kliniken Nordhessen Gemeinnützige GmbH</a>"],"photo_reference":"CmRaAAAAThY_HC7TWkAfmDAKqtwt4FD2duA6-8yZJP5BRtBAj5WfKfykXjb0d8MxvONuZAabf96koEa_A_loCcx6v22KgVMRq-ROF2GZ_wnfslyn1AKnymae2f75Wu2RFQ29HjSjEhAx0raOpX2tDBzMPAebVSoMGhROGdMbGvJOelZ3KIijUEhWN60YOw","width":2835}],"place_id":"ChIJtwosb2U_u0cRF_gesuG38XE","plus_code":{"compound_code":"8F63+PJ Kassel, Germany","global_code":"9F3F8F63+PJ"},"rating":3.6,"reference":"ChIJtwosb2U_u0cRF_gesuG38XE","scope":"GOOGLE","types":["hospital","health","point_of_interest","establishment"],"user_ratings_total":74,"vicinity":"Hansteinstraße 29, Kassel"},{"geometry":{"location":{"lat":51.5555505,"lng":9.9431458},"viewport":{"northeast":{"lat":51.5570360802915,"lng":9.944541480291502},"southwest":{"lat":51.5543381197085,"lng":9.941843519708497}}},"icon":"https://maps.gstatic.com/mapfiles/place_api/icons/doctor-71.png","id":"7c73063df04c7c3477f87cfa9aa75dea37baa520","name":"Evangelisches Krankenhaus Göttingen-Weende","opening_hours":{"open_now":true},"photos":[{"height":367,"html_attributions":["<a href=\"https://maps.google.com/maps/contrib/101980896282870501013\">Evangelisches Krankenhaus Göttingen-Weende</a>"],"photo_reference":"CmRaAAAANeHCtCy0Gp4gDGDLPD6BmazZ2DLqDdrtp1RyRVTNhLDHCuk28Uf_idUFYA4-pwnyp-gOsAAVqJnN-Fp-JMdCvNAx4beMW4BKj5UzLQ12E-SENzuhelrLjiXhlIJVDxeJEhBO6kZd_iPUKhUXb9O23PYsGhQeNLfYeCbFAOgwhBEtSlaxp9gsJg","width":550}],"place_id":"ChIJycn4Md7UpEcRRP8Uf0cW_J8","plus_code":{"compound_code":"HW4V+67 Göttingen, Germany","global_code":"9F3FHW4V+67"},"rating":3.6,"reference":"ChIJycn4Md7UpEcRRP8Uf0cW_J8","scope":"GOOGLE","types":["hospital","health","point_of_interest","establishment"],"user_ratings_total":117,"vicinity":"An der Lutter 24, Göttingen"},{"geometry":{"location":{"lat":51.3098512,"lng":9.4915649},"viewport":{"northeast":{"lat":51.3111792802915,"lng":9.492814430291503},"southwest":{"lat":51.30848131970851,"lng":9.490116469708498}}},"icon":"https://maps.gstatic.com/mapfiles/place_api/icons/doctor-71.png","id":"d5ad6575b32b4fdf781b78f1e1306bfd096af72b","name":"Elisabeth-Krankenhaus Kassel gGmbH Abteilung für Anästhesie","place_id":"ChIJM6SEQU0_u0cRChwSZvP-Zx0","plus_code":{"compound_code":"8F5R+WJ Kassel, Germany","global_code":"9F3F8F5R+WJ"},"rating":2.3,"reference":"ChIJM6SEQU0_u0cRChwSZvP-Zx0","scope":"GOOGLE","types":["hospital","health","point_of_interest","establishment"],"user_ratings_total":3,"vicinity":"Weinbergstraße 7, Kassel"},{"geometry":{"location":{"lat":51.0618,"lng":9.17191},"viewport":{"northeast":{"lat":51.0633219802915,"lng":9.173231580291501},"southwest":{"lat":51.0606240197085,"lng":9.170533619708497}}},"icon":"https://maps.gstatic.com/mapfiles/place_api/icons/doctor-71.png","id":"28a7e24420575de3a5470063a016afb315d434cd","name":"Hardtwald Clinic I Werner Wicker GmbH & Co. KG","opening_hours":{"open_now":true},"photos":[{"height":1001,"html_attributions":["<a href=\"https://maps.google.com/maps/contrib/115569990625780337015\">Hardtwaldklinik I</a>"],"photo_reference":"CmRaAAAAXgcrD8gW_8nzoiSg0GOWcbTXeG7o0oI0UP6bwBkUUKbhiRd2VU37-neS9XZasugt_T9qU-n7SuKZ9fTqhGCeKqQlLThBaulvNaDnk1dVvXJMVDV9EfFf1U42YdexGncNEhBwtNSXaEzUXuTJwAXFnqKVGhR0UPtkxPNWgdfX3vWpomUoYcPBBQ","width":1500}],"place_id":"ChIJqYIROPBju0cRgv7Nfjh8-Y8","plus_code":{"compound_code":"356C+PQ Bad Zwesten, Germany","global_code":"9F3F356C+PQ"},"rating":3.7,"reference":"ChIJqYIROPBju0cRgv7Nfjh8-Y8","scope":"GOOGLE","types":["hospital","health","point_of_interest","establishment"],"user_ratings_total":60,"vicinity":"Hardtstraße 31, Bad Zwesten"},{"geometry":{"location":{"lat":51.38014,"lng":9.0273},"viewport":{"northeast":{"lat":51.3816118802915,"lng":9.028645380291502},"southwest":{"lat":51.3789139197085,"lng":9.025947419708498}}},"icon":"https://maps.gstatic.com/mapfiles/place_api/icons/doctor-71.png","id":"91b90287f7948ff8d01e49b2f28be81aac674c68","name":"Schön Klinik Bad Arolsen","opening_hours":{"open_now":true},"photos":[{"height":2912,"html_attributions":["<a href=\"https://maps.google.com/maps/contrib/102671519244922137066\">Schön Klinik Bad Arolsen</a>"],"photo_reference":"CmRaAAAAMctfibJUytFdIun-NWOKgeI9losyg7_pl139F3o48jtXs2Az04CmigcTIOIHcJCTms4TPAV-aC2OGF1XJPG8-u_bn6WWiSrXIH5PxA0Z5tJsqXUkWyGwSFwlQqINpB6XEhCh6qM2aZLjt1gQwt11FHwtGhQjS4vu4jujdNXpcWMY0g54Y3qJzQ","width":4368}],"place_id":"ChIJabkzUagLu0cRT1xLsOCNMYA","plus_code":{"compound_code":"92JG+3W Arolsen, Germany","global_code":"9F3F92JG+3W"},"rating":3.7,"reference":"ChIJabkzUagLu0cRT1xLsOCNMYA","scope":"GOOGLE","types":["hospital","health","point_of_interest","establishment"],"user_ratings_total":60,"vicinity":"Hofgarten 10, Bad Arolsen"},{"geometry":{"location":{"lat":51.5416677,"lng":9.9427511},"viewport":{"northeast":{"lat":51.54314288029151,"lng":9.944230130291503},"southwest":{"lat":51.54044491970851,"lng":9.941532169708498}}},"icon":"https://maps.gstatic.com/mapfiles/place_api/icons/doctor-71.png","id":"87d09ba3ae73c03ea1e58db88315e040358ef203","name":"Krankenhaus Neu-Mariahilf","opening_hours":{"open_now":true},"photos":[{"height":1222,"html_attributions":["<a href=\"https://maps.google.com/maps/contrib/111191293749233453236\">Krankenhaus Neu-Mariahilf</a>"],"photo_reference":"CmRaAAAASwsu5U5QoZy3ZhJ2cfP3-hlsdCunwPQJHP_v9hLVTE-CRS7clv5zDgCtRDHyVL8wlzDc8JvWUVCIqEVV2j5MCQJ8lyJ9yGtk4oPB5RBwMZK7vyHqEH7dOdJtYiCpaTS-EhCX3JHV_Y2PWmWVvUNTA4CuGhQaWG8t6UzyYUCR07-ICB9tzfc7ug","width":2048}],"place_id":"ChIJeSyYienUpEcRL4XB6-U4ikI","plus_code":{"compound_code":"GWRV+M4 Göttingen, Germany","global_code":"9F3FGWRV+M4"},"rating":3.7,"reference":"ChIJeSyYienUpEcRL4XB6-U4ikI","scope":"GOOGLE","types":["hospital","health","point_of_interest","establishment"],"user_ratings_total":27,"vicinity":"Waldweg 9, Göttingen"},{"geometry":{"location":{"lat":51.39832,"lng":9.658410000000002},"viewport":{"northeast":{"lat":51.3995666802915,"lng":9.659586980291502},"southwest":{"lat":51.3968687197085,"lng":9.656889019708498}}},"icon":"https://maps.gstatic.com/mapfiles/place_api/icons/doctor-71.png","id":"037df6a4c55f498a17e8f93bc106b98243867ba6","name":"Prostatakarzinom Zentrum Hann. Münden (PKZ Hann. Münden)","place_id":"ChIJgYDfy5Mwu0cRqBc3LLHggF0","plus_code":{"compound_code":"9MX5+89 Hann. Münden, Germany","global_code":"9F3F9MX5+89"},"reference":"ChIJgYDfy5Mwu0cRqBc3LLHggF0","scope":"GOOGLE","types":["hospital","health","point_of_interest","establishment"],"vicinity":"Vogelsang 105, Hann. Münden"},{"geometry":{"location":{"lat":51.3101236,"lng":9.491614399999998},"viewport":{"northeast":{"lat":51.31143323029151,"lng":9.4927759302915},"southwest":{"lat":51.30873526970851,"lng":9.490077969708496}}},"icon":"https://maps.gstatic.com/mapfiles/place_api/icons/doctor-71.png","id":"b5c4f97b9687af74b643ddb0229480cb996dc841","name":"Elisabeth-Krankenhaus Kassel","opening_hours":{"open_now":true},"photos":[{"height":281,"html_attributions":["<a href=\"https://maps.google.com/maps/contrib/112719322558811057387\">Elisabeth-Krankenhaus Kassel</a>"],"photo_reference":"CmRaAAAAucK_z0kLC7N6edIRxqatPr_doJuzMLY5OnnpT2rH6-yev_Wb6fVKpgDDV0PzTTfdLnpC9oh_618a-9sq-96clYl3p9V_m6C--SAWlE-IOmHmA1ky8SRhVv-DnG5WcFZSEhCy9yDKy9bQdHVa3BYVVNNsGhQOzj6yCMS-XRlgO-L1q3BTXfA64Q","width":498}],"place_id":"ChIJM6SEQU0_u0cRM5R7BOV7aSk","plus_code":{"compound_code":"8F6R+2J Kassel, Germany","global_code":"9F3F8F6R+2J"},"rating":3.8,"reference":"ChIJM6SEQU0_u0cRM5R7BOV7aSk","scope":"GOOGLE","types":["hospital","health","point_of_interest","establishment"],"user_ratings_total":221,"vicinity":"Weinbergstraße 7, Kassel"},{"geometry":{"location":{"lat":51.3138014,"lng":9.4541682},"viewport":{"northeast":{"lat":51.3152668802915,"lng":9.455526930291501},"southwest":{"lat":51.3125689197085,"lng":9.452828969708499}}},"icon":"https://maps.gstatic.com/mapfiles/place_api/icons/doctor-71.png","id":"438752aa65bacbdf6f1e380ee3221488d5bdb08c","name":"Vitos Klinik Bad Wilhelmshöhe","photos":[{"height":2628,"html_attributions":["<a href=\"https://maps.google.com/maps/contrib/102162900122243982304\">Vitos Klinik Bad Wilhelmshöhe</a>"],"photo_reference":"CmRaAAAAM3j4acru9xzEGMNLS-bz1gyrDj99lklYHIrgfccpzzrYl2n3wvzCLT1HUws-76niT1xaGdfRaNFN42V2i2_k1_igTiDOn__Pd0CPhAawEVDQnbijoEY8TcYNO29SumDCEhAJ8uSD0D6UwnAFEzzDXsG3GhRfWUWzgZqOuIjG3SjqesGYKh-q2g","width":4462}],"place_id":"ChIJE4mVw28_u0cRSP4ObRKCS7A","plus_code":{"compound_code":"8F73+GM Kassel, Germany","global_code":"9F3F8F73+GM"},"rating":1,"reference":"ChIJE4mVw28_u0cRSP4ObRKCS7A","scope":"GOOGLE","types":["hospital","health","point_of_interest","establishment"],"user_ratings_total":1,"vicinity":"Herkulesstraße 111, Kassel"},{"geometry":{"location":{"lat":51.10784820000001,"lng":9.084956400000001},"viewport":{"northeast":{"lat":51.1094379802915,"lng":9.085857930291501},"southwest":{"lat":51.1067400197085,"lng":9.083159969708497}}},"icon":"https://maps.gstatic.com/mapfiles/place_api/icons/doctor-71.png","id":"6c6704fc77ade209d03b90c51e9988a762a2081a","name":"Parkland-Klinik","photos":[{"height":533,"html_attributions":["<a href=\"https://maps.google.com/maps/contrib/117440773055804326520\">Parkland-Klinik</a>"],"photo_reference":"CmRaAAAA9DOpNp-xZR_OoG9jPCXIJXyrrPVSvE5YE-G3E204tAIomkSykBts5MpmMBvTRCYgnGCuCB_jJr2P8ei4lbXlGjviUKJaBCXTGStJfsJbUm30kPthgfLbTlX2iPO5bCCtEhBPPcY2Sjtoikufh5D-Dd7jGhThphabCx6tRX2-6O5V7RsGut4YqQ","width":800}],"place_id":"ChIJgwz7lDF7u0cRPi3xMoQugdk","plus_code":{"compound_code":"435M+4X Bad Wildungen, Germany","global_code":"9F3F435M+4X"},"rating":4.1,"reference":"ChIJgwz7lDF7u0cRPi3xMoQugdk","scope":"GOOGLE","types":["hospital","health","point_of_interest","establishment"],"user_ratings_total":46,"vicinity":"Im Kreuzfeld 6, Bad Wildungen"},{"geometry":{"location":{"lat":51.31377029999999,"lng":9.4619333},"viewport":{"northeast":{"lat":51.3151494802915,"lng":9.463291680291503},"southwest":{"lat":51.3124515197085,"lng":9.460593719708498}}},"icon":"https://maps.gstatic.com/mapfiles/place_api/icons/doctor-71.png","id":"9c99f8a6e0accfd8a507a3c0c20624d06e780e12","name":"Diakonie-Kliniken Kassel/ Diakonissen-Krankenhaus Abteilung für Anästhesie, Intensivmedizin und Schmerztherapie","place_id":"ChIJ04KVqWk_u0cRcghYxrKewds","plus_code":{"compound_code":"8F76+GQ Kassel, Germany","global_code":"9F3F8F76+GQ"},"rating":1,"reference":"ChIJ04KVqWk_u0cRcghYxrKewds","scope":"GOOGLE","types":["hospital","health","point_of_interest","establishment"],"user_ratings_total":1,"vicinity":"Herkulesstraße 34, Kassel"},{"geometry":{"location":{"lat":51.53162,"lng":9.902820000000002},"viewport":{"northeast":{"lat":51.53290998029149,"lng":9.904016630291503},"southwest":{"lat":51.5302120197085,"lng":9.901318669708498}}},"icon":"https://maps.gstatic.com/mapfiles/place_api/icons/doctor-71.png","id":"84e39b71ff6754654c1314b5bcea25f9c27fbfda","name":"The Medical Care Center Göttingen","opening_hours":{"open_now":false},"photos":[{"height":1365,"html_attributions":["<a href=\"https://maps.google.com/maps/contrib/110577058009408432248\">MVZ Göttingen; Kinderwuschzentrum; Dysplasiesprechstunde</a>"],"photo_reference":"CmRaAAAAX6x_BtbADi5JuAUVt7kUbc204vwvxyF9D1kaYPjxIez2NCYhD1H_RxH_6Z4tCbKirbUU8s30P8DsKTZtTnUNMfNdG0x-O1nsppWK86NqZXG-xlg_P_7tUbfbPupvfHwBEhDUAykl5ebMGmaWWNfAkXctGhQiY79p89MjgCeqM5nJ4gRUlpaNnQ","width":2048}],"place_id":"ChIJbaaAzk0ru0cR2x1KSheuCjY","plus_code":{"compound_code":"GWJ3+J4 Göttingen, Germany","global_code":"9F3FGWJ3+J4"},"rating":3.3,"reference":"ChIJbaaAzk0ru0cR2x1KSheuCjY","scope":"GOOGLE","types":["hospital","doctor","health","point_of_interest","establishment"],"user_ratings_total":16,"vicinity":"Kasseler Landstraße 25A, Göttingen"},{"geometry":{"location":{"lat":51.3138093,"lng":9.4248025},"viewport":{"northeast":{"lat":51.3153707802915,"lng":9.426059280291502},"southwest":{"lat":51.3126728197085,"lng":9.423361319708498}}},"icon":"https://maps.gstatic.com/mapfiles/place_api/icons/doctor-71.png","id":"ebc42a979b9370340c63f77ff220d70aecc8b9e8","name":"Habichtswald-Klinik","opening_hours":{"open_now":true},"photos":[{"height":4400,"html_attributions":["<a href=\"https://maps.google.com/maps/contrib/109458351260199454314\">Habichtswald-Klinik</a>"],"photo_reference":"CmRaAAAA6BLBqZceJoPaJ_bc89iK9YtNKnKWcrMBxdkDcPUaqi61thN1jZtPfyEwaTaHyYTzz93hw_AaG7yav9_wl9O2Z3bBI5o1jlb48H_R_6zL0BQHFN1IyptHcLH9sXdktDduEhCs6gqJkK9pSGs6JHDeGFfFGhSWe7Xw6Mtm3gvRiE0hiRrQQlYZLw","width":5961}],"place_id":"ChIJeRvj7I8_u0cRsF12nz0xjDU","plus_code":{"compound_code":"8C7F+GW Kassel, Germany","global_code":"9F3F8C7F+GW"},"rating":4.5,"reference":"ChIJeRvj7I8_u0cRsF12nz0xjDU","scope":"GOOGLE","types":["hospital","health","point_of_interest","establishment"],"user_ratings_total":20,"vicinity":"Wigandstraße 1, Kassel"},{"geometry":{"location":{"lat":51.61325000000001,"lng":9.58474},"viewport":{"northeast":{"lat":51.6145084302915,"lng":9.586056730291501},"southwest":{"lat":51.6118104697085,"lng":9.583358769708497}}},"icon":"https://maps.gstatic.com/mapfiles/place_api/icons/doctor-71.png","id":"f677c0e5d81f24c230bbf34dc5970449958d5f4c","name":"Klinik und Rehabilitationszentrum Lippoldsberg gGmbH Abteilung für Orthopädie","place_id":"ChIJBbGBXLcgu0cRM8ka2wT6uLc","plus_code":{"compound_code":"JH7M+7V Wahlsburg","global_code":"9F3FJH7M+7V"},"reference":"ChIJBbGBXLcgu0cRM8ka2wT6uLc","scope":"GOOGLE","types":["hospital","health","point_of_interest","establishment"],"vicinity":"Birkenallee 1, Wahlsburg"},{"geometry":{"location":{"lat":51.3983347,"lng":9.6581601},"viewport":{"northeast":{"lat":51.3995945302915,"lng":9.659423730291502},"southwest":{"lat":51.3968965697085,"lng":9.656725769708498}}},"icon":"https://maps.gstatic.com/mapfiles/place_api/icons/doctor-71.png","id":"6738363886591c41cd8aaeb0360c679becf18b29","name":"Hospital Hann. Münden","opening_hours":{"open_now":true},"photos":[{"height":3456,"html_attributions":["<a href=\"https://maps.google.com/maps/contrib/111434787870759403663\">Joe Ka</a>"],"photo_reference":"CmRaAAAAek5fncDXwx710RfNrhcFoSz8DH-EXHXWdXQ0foXIe8XKXOcJG_fVGFt_UFhM7_dkugywUy28XvNBqVnLi_s_Le7U-H_zZVdPxvIUTX1LMjx4IYoIWw2np-h6AZNiCmB-EhCj_sSRz2eMhXhv0VIlUguBGhS1bUpCuvjpAIq9otI7IX2XbELkaA","width":4608}],"place_id":"ChIJgYDfy5Mwu0cRXHNPRiC3R4I","plus_code":{"compound_code":"9MX5+87 Hann. Münden, Germany","global_code":"9F3F9MX5+87"},"rating":3.6,"reference":"ChIJgYDfy5Mwu0cRXHNPRiC3R4I","scope":"GOOGLE","types":["hospital","health","point_of_interest","establishment"],"user_ratings_total":75,"vicinity":"Vogelsang 105, Hann. Münden"},{"geometry":{"location":{"lat":51.5549279,"lng":9.9462533},"viewport":{"northeast":{"lat":51.55652353029149,"lng":9.947688780291504},"southwest":{"lat":51.55382556970849,"lng":9.944990819708499}}},"icon":"https://maps.gstatic.com/mapfiles/place_api/icons/doctor-71.png","id":"d4806bd7b59a6db2d35743307666544edaf8a24a","name":"Gesundheitspark Südniedersachsen","opening_hours":{"open_now":false},"photos":[{"height":2448,"html_attributions":["<a href=\"https://maps.google.com/maps/contrib/104563259756854763390\">Jens Fehrensen</a>"],"photo_reference":"CmRaAAAA8NaWatXC7v0IX_Sm6QUGV5k92JoMTOiiN8P2Vl8RalixSYtTiONXyTdSNPdWjw5EXzzr1vDRLLWi-hT6QOxh_LL7UoPzZi5hWL_UB2TMW-QWNV_OTEA5jA4cF5jTqnycEhCZ1GwgGX3crk4C4ume4ezvGhQROS_LEN47NKx5YUly7Nxf4MNv7w","width":3264}],"place_id":"ChIJVSQGut_UpEcRxBgHoPWiY6c","plus_code":{"compound_code":"HW3W+XG Göttingen, Germany","global_code":"9F3FHW3W+XG"},"rating":3.2,"reference":"ChIJVSQGut_UpEcRxBgHoPWiY6c","scope":"GOOGLE","types":["hospital","health","point_of_interest","establishment"],"user_ratings_total":17,"vicinity":"An der Lutter 24, Göttingen"}]