[{"geometry":{"location":{"lat":50.3880777,"lng":8.0514554},"viewport":{"northeast":{"lat":50.3892512802915,"lng":8.053133880291501},"southwest":{"lat":50.3865533197085,"lng":8.050435919708498}}},"icon":"https://maps.gstatic.com/mapfiles/place_api/icons/doctor-71.png","id":"64938d3222d2a75d2ff38073a36234898a0c5228","name":"St. Vincenz Hospital Limburg","opening_hours":{"open_now":true},"photos":[{"height":3840,"html_attributions":["<a href=\"https://maps.google.com/maps/contrib/107517246691630957876\">greb.architekten | greb.generalplaner _würzburg</a>"],"photo_reference":"CmRaAAAAn1kSKT_zL739zPdtGD1u7A0t6mYMYoJXQWJ56yNqGpYbsw__2lKfoCck4IRDrLv1qFCrO5RWIjvBvdBTaiTnNYH0mdRpiFk-7X_k8iRhWbIeS3hVdFaF_2xd7fmebKReEhBwuB-9gHH-fSlwerojugQFGhTNRHgafTTtp9p0BALLSzcn1ELxCw","width":5760}],"place_id":"ChIJGTEyAyXNvUcRRO-tzInenpo","plus_code":{"compound_code":"93Q2+6H Limburg, Germany","global_code":"9F2C93Q2+6H"},"rating":2.8,"reference":"ChIJGTEyAyXNvUcRRO-tzInenpo","scope":"GOOGLE","types":["hospital","health","point_of_interest","establishment"],"user_ratings_total":164,"vicinity":"Auf dem Schafsberg, Limburg an der Lahn"},{"geometry":{"location":{"lat":50.45076,"lng":8.04081},"viewport":{"northeast":{"lat":50.4519485802915,"lng":8.042154430291502},"southwest":{"lat":50.4492506197085,"lng":8.039456469708497}}},"icon":"https://maps.gstatic.com/mapfiles/place_api/icons/doctor-71.png","id":"826c854232a14fd3f403078ea67f8779da56272c","name":"Vitos Hadamar gGmbH","opening_hours":{"open_now":true},"place_id":"ChIJCxdGK3syvEcRjyJkddqyXeM","plus_code":{"compound_code":"F22R+88 Hadamar, Germany","global_code":"9F2CF22R+88"},"rating":2,"reference":"ChIJCxdGK3syvEcRjyJkddqyXeM","scope":"GOOGLE","types":["hospital","health","point_of_interest","establishment"],"user_ratings_total":22,"vicinity":"Mönchberg 8, Hadamar"},{"geometry":{"location":{"lat":50.36870529999999,"lng":7.543477500000003},"viewport":{"northeast":{"lat":50.37078235,"lng":7.544233700000004},"southwest":{"lat":50.36801294999999,"lng":7.541208899999997}}},"icon":"https://maps.gstatic.com/mapfiles/place_api/icons/civic_building-71.png","id":"e1aaa853512175a94515487914097c08e7404f8b","name":"Bundeswehr Central Hospital in Koblenz","opening_hours":{"open_now":true},"photos":[{"height":1680,"html_attributions":["<a href=\"https://maps.google.com/maps/contrib/114583751980683870402\">Müller Müller</a>"],"photo_reference":"CmRaAAAADj_qUlhgeDrYXmybJQPAazDFSm8_rp_vM_MiQ6hthfbH8svOrXpdNJKWPD-R_tYMnKT--0ayO-0uay0BBYF2SK26gw2nlQep92Kt6ebuVyW85QcRU5YFSMECwMKWzLluEhCC8VXlVIpakWAFwE89YZWbGhRQUi9WXJcbmhCuvyPp5Lp0AIBTkw","width":2240}],"place_id":"ChIJF3Em9G1jvkcRn5MO6i6glD4","plus_code":{"compound_code":"9G9V+F9 Koblenz, Germany","global_code":"9F299G9V+F9"},"rating":3.9,"reference":"ChIJF3Em9G1jvkcRn5MO6i6glD4","scope":"GOOGLE","types":["hospital","health","point_of_interest","establishment"],"user_ratings_total":185,"vicinity":"Rübenacher Straße 170, Koblenz"},{"geometry":{"location":{"lat":50.232655,"lng":7.586813999999998},"viewport":{"northeast":{"lat":50.2340114302915,"lng":7.588097780291502},"southwest":{"lat":50.2313134697085,"lng":7.585399819708497}}},"icon":"https://maps.gstatic.com/mapfiles/place_api/icons/generic_business-71.png","id":"8d3cf7566b9d432318ae545636d8a01fbc7d8d6b","name":"Gemeinschaftsklinikum Mittelrhein, Heilig Geist - Notfall-Ambulanz","opening_hours":{"open_now":true},"photos":[{"height":4096,"html_attributions":["<a href=\"https://maps.google.com/maps/contrib/108967307593509318537\">Gemeinschaftsklinikum Mittelrhein, Heilig Geist - Notfall-Ambulanz</a>"],"photo_reference":"CmRaAAAAvNqF1a8JJCAyKvRVELFLjbZ7E6K0AOhFiqFCrvhBDEXb9pl3YZ-x3Avzv2pSf6ajBH6pA5hFqlG-tRCgLlTeqDLFtwGs9wxNBUT-Ve9cqynFVGN0n3lh1_5yXgrPtyzcEhCkBomFXEAa0knuAykaV2RyGhTTcN-IHJSyOyiIH9c0mtxiFAh4vg","width":6144}],"place_id":"ChIJ46ybylFwvkcR5j0S4U0J4Gg","plus_code":{"compound_code":"6HMP+3P Boppard, Germany","global_code":"9F296HMP+3P"},"rating":3,"reference":"ChIJ46ybylFwvkcR5j0S4U0J4Gg","scope":"GOOGLE","types":["hospital","health","point_of_interest","establishment"],"user_ratings_total":2,"vicinity":"Bahnhofstraße 7, Boppard"},{"geometry":{"location":{"lat":50.3014878,"lng":7.6420534},"viewport":{"northeast":{"lat":50.3027469302915,"lng":7.643468780291502},"southwest":{"lat":50.30004896970851,"lng":7.640770819708497}}},"icon":"https://maps.gstatic.com/mapfiles/place_api/icons/doctor-71.png","id":"e0026ce0cbfe39c1e5ccee673661516abeb3cfc5","name":"Med. Zentrum Lahnhöhe","opening_hours":{"open_now":true},"photos":[{"height":2988,"html_attributions":["<a href=\"https://maps.google.com/maps/contrib/100152299338204572651\">Sonja Klappert</a>"],"photo_reference":"CmRaAAAAuKr7NrvAK1NL3Tj5J9NFIcHbL1XXGVXXqJuFislyu3ARamc3ifhybL4g16JC3Uy4_h6tm-B9lOCyAyFUsjGG77dBMoKYv1kPga-0AD0EEV1eHiFHsDw_nSn3XrExwegMEhBzTBRT9mf12EUv-x1fqb7fGhQGrZIIQr1SxqZyE-OLTRV4trv6aA","width":5312}],"place_id":"ChIJ77iQ80p6vkcRc4YsxX-cHtw","plus_code":{"compound_code":"8J2R+HR Lahnstein, Germany","global_code":"9F298J2R+HR"},"rating":3.9,"reference":"ChIJ77iQ80p6vkcRc4YsxX-cHtw","scope":"GOOGLE","types":["hospital","health","point_of_interest","establishment"],"user_ratings_total":48,"vicinity":"Am Kurpark 1, Lahnstein"},{"geometry":{"location":{"lat":50.5650809,"lng":7.319630599999999},"viewport":{"northeast":{"lat":50.5664557802915,"lng":7.320894180291502},"southwest":{"lat":50.5637578197085,"lng":7.318196219708497}}},"icon":"https://maps.gstatic.com/mapfiles/place_api/icons/doctor-71.png","id":"1b83fc63eaa9dfe7ed270cfa3ddeef124cb6e926","name":"Verbundkrankenhaus Linz-Remagen Standort Franziskus Krankenhaus Linz","opening_hours":{"open_now":true},"photos":[{"height":1117,"html_attributions":["<a href=\"https://maps.google.com/maps/contrib/110583519998819222801\">Verbundkrankenhaus Linz-Remagen Standort Franziskus Krankenhaus Linz</a>"],"photo_reference":"CmRaAAAAnN2ussTPH_p4yl4aZYPQgTtx3Bphmbcy9Uvilg8_v2WgStDb5gGJ5YYrX3ugE9Gz4Hb0AaCIGdFxwFZ_BuAPBTm-wWl7UAysQzUk3cFlmXLhOxjGJ979b8a0rsm_1GI5EhCxIeQAHLt7O2ZKuObDGsoQGhSDGLW5SpTl935zayFNU1ywikcL2A","width":2817}],"place_id":"ChIJPYnwN33xvkcRSlxX_UQaoos","plus_code":{"compound_code":"H889+2V Linz am Rhein, Germany","global_code":"9F29H889+2V"},"rating":3.9,"reference":"ChIJPYnwN33xvkcRSlxX_UQaoos","scope":"GOOGLE","types":["hospital","health","point_of_interest","establishment"],"user_ratings_total":49,"vicinity":"Magdalena-Daemen-Straße 20, Linz am Rhein"},{"geometry":{"location":{"lat":50.64481000000001,"lng":7.222269999999999},"viewport":{"northeast":{"lat":50.6462334802915,"lng":7.224056280291501},"southwest":{"lat":50.6435355197085,"lng":7.221358319708497}}},"icon":"https://maps.gstatic.com/mapfiles/place_api/icons/doctor-71.png","id":"c51ef9a289cdcca130978fdff575f696d902dee5","name":"Rhein-Klinik","opening_hours":{"open_now":true},"photos":[{"height":535,"html_attributions":["<a href=\"https://maps.google.com/maps/contrib/114696645534336406608\">Rhein-Klinik</a>"],"photo_reference":"CmRaAAAAVD0hoDihBLEN16Fhw3b9oPo-R-VqTrRnOxQ06QGvQNl_mK5ly-XvfSXtMyqqb4-cIcce4r8zwP2HQdtkqqzcz9--H_r-j2lZBwcoqsmQpomVicqOZzHTrucu2NHMKvwXEhBHDaFAhYSsxIclYZlypB5OGhTvw7x7qX6wq71IBPWZNwCHVR2gmA","width":800}],"place_id":"ChIJA4OpXGjlvkcRuSl19l18zOU","plus_code":{"compound_code":"J6VC+WW Bad Honnef, Germany","global_code":"9F29J6VC+WW"},"rating":4.1,"reference":"ChIJA4OpXGjlvkcRuSl19l18zOU","scope":"GOOGLE","types":["hospital","health","point_of_interest","establishment"],"user_ratings_total":30,"vicinity":"Luisenstraße 3, Bad Honnef"},{"geometry":{"location":{"lat":50.68218279999999,"lng":7.128469600000001},"viewport":{"northeast":{"lat":50.6837231302915,"lng":7.129392180291503},"southwest":{"lat":50.6810251697085,"lng":7.126694219708498}}},"icon":"https://maps.gstatic.com/mapfiles/place_api/icons/doctor-71.png","id":"42ae4f855bcc95050b943507fb0a356fe0f6ea3d","name":"Johanniter GmbH Waldkrankenhaus","opening_hours":{"open_now":true},"photos":[{"height":3024,"html_attributions":["<a href=\"https://maps.google.com/maps/contrib/114855341200289145548\">M. Schiefen</a>"],"photo_reference":"CmRaAAAAMZmURJIjP9zs5lmVEh5HwC6_afiF6hVGFxQ4Mv89wcKe9vSl4NIk6-JSLJ2D2tKRnO1_fJfUH_XH_eKmQ1gX-Xvg7eBueYh4H7Fa_IVix_P7wtomfhpENGB3VCahcFssEhA-KZGhXzxLa8p2YIhcGpV9GhQMV_beHhvcvEVvKE8ntXo0QJh98g","width":4032}],"place_id":"ChIJK6sQGo7jvkcR4XKuYLUx7XY","plus_code":{"compound_code":"M4JH+V9 Bonn, Germany","global_code":"9F29M4JH+V9"},"rating":3.2,"reference":"ChIJK6sQGo7jvkcR4XKuYLUx7XY","scope":"GOOGLE","types":["hospital","health","point_of_interest","establishment"],"user_ratings_total":121,"vicinity":"Waldstraße 73, Bonn"},{"geometry":{"location":{"lat":50.3340069,"lng":7.726937599999999},"viewport":{"northeast":{"lat":50.3354213302915,"lng":7.7284218302915},"southwest":{"lat":50.3327233697085,"lng":7.725723869708497}}},"icon":"https://maps.gstatic.com/mapfiles/place_api/icons/doctor-71.png","id":"352a411a6474d7d8ef76a698c0c4902f9c0373d7","name":"Hufeland-Klinik Abteilung für Innere Medizin/Schwerpunkt Pneumologie","place_id":"ChIJC2gJTSl5vkcRi0MoBQOlDuU","plus_code":{"compound_code":"8PMG+JQ Bad Ems, Germany","global_code":"9F298PMG+JQ"},"reference":"ChIJC2gJTSl5vkcRi0MoBQOlDuU","scope":"GOOGLE","types":["hospital","health","point_of_interest","establishment"],"vicinity":"Taunusallee 5, Bad Ems"},{"geometry":{"location":{"lat":50.485748,"lng":8.2523851},"viewport":{"northeast":{"lat":50.4871624802915,"lng":8.253526130291503},"southwest":{"lat":50.4844645197085,"lng":8.250828169708498}}},"icon":"https://maps.gstatic.com/mapfiles/place_api/icons/doctor-71.png","id":"71acb1878e65c791729ac99c85d895edab42f860","name":"Kreiskrankenhaus Weilburg gGmbH Hessenklinik","opening_hours":{"open_now":true},"photos":[{"height":4128,"html_attributions":["<a href=\"https://maps.google.com/maps/contrib/101364885191911378401\">دلشير روسيل ايفا</a>"],"photo_reference":"CmRaAAAA9W-2qJ6dyWZ1Lpd-QEhaKuFcgBHxyXbUznjQb3Zmfn-o7kEsIxf_LZ25i1byP7Edd4615IO1K3nd1Oe4an381y1Nkxtqn-cj5GUddoeMvAIW_Pvj9dhPEzQ2Jrfk2S2sEhAwxNlZuJVVYbmF3vytVJ7nGhSzjiY5nSgncC872Th5N-ZKoJzXCQ","width":2322}],"place_id":"ChIJ96TTLuJJvEcR-eAcouNzlFg","plus_code":{"compound_code":"F7P2+7X Weilburg, Germany","global_code":"9F2CF7P2+7X"},"rating":3.1,"reference":"ChIJ96TTLuJJvEcR-eAcouNzlFg","scope":"GOOGLE","types":["hospital","health","point_of_interest","establishment"],"user_ratings_total":77,"vicinity":"Am Steinbühl 2, Weilburg"},{"geometry":{"location":{"lat":50.356719,"lng":7.594180000000001},"viewport":{"northeast":{"lat":50.3581481302915,"lng":7.595560030291502},"southwest":{"lat":50.3554501697085,"lng":7.592862069708497}}},"icon":"https://maps.gstatic.com/mapfiles/place_api/icons/generic_business-71.png","id":"baf22a47db36cc0db33315ccaece807a189243ec","name":"MEDIAN Gesundheitsdienste Koblenz","photos":[{"height":800,"html_attributions":["<a href=\"https://maps.google.com/maps/contrib/116379086582024594676\">MEDIAN Gesundheitsdienste Koblenz</a>"],"photo_reference":"CmRaAAAAL2jVNah8E-be4lwIipGfjwvrmSYY-8gS8CPFdtGb9xan1t9NnBKxgE8YrC5MKrJIUdnqJAM51SlfZnhSxbaaxnZqwwnT1PjcNoq0KZfOdnv0QhGhSNRft8ZejM_gBSRYEhDui9ZKd5fFtTmq66iDmSTCGhRANIcqlR3mWTBCtOSgIRAmBUmBow","width":800}],"place_id":"ChIJmZf2eaV8vkcRyOAo79C61Bw","plus_code":{"compound_code":"9H4V+MM Koblenz, Germany","global_code":"9F299H4V+MM"},"rating":2,"reference":"ChIJmZf2eaV8vkcRyOAo79C61Bw","scope":"GOOGLE","types":["hospital","health","point_of_interest","establishment"],"user_ratings_total":8,"vicinity":"Schloßstraße 43-45, Koblenz"},{"geometry":{"location":{"lat":50.35946999999999,"lng":7.571289999999999},"viewport":{"northeast":{"lat":50.36048943029149,"lng":7.572043199999998},"southwest":{"lat":50.35779146970849,"lng":7.569030399999998}}},"icon":"https://maps.gstatic.com/mapfiles/place_api/icons/doctor-71.png","id":"c59e165689d59a61cac597e2eac2927e21eae02e","name":"Katholisches Klinikum Marienhof/St. Josef gGmbH, Marienhof und Brüderhaus Abteilung für Pneumologie mit Schlaflabor","place_id":"ChIJS1gJulFjvkcRlj5mmqMAucg","plus_code":{"compound_code":"9H5C+QG Koblenz, Germany","global_code":"9F299H5C+QG"},"rating":3.8,"reference":"ChIJS1gJulFjvkcRlj5mmqMAucg","scope":"GOOGLE","types":["hospital","health","point_of_interest","establishment"],"user_ratings_total":4,"vicinity":"Rudolf-Virchow-Straße 7, Koblenz"},{"geometry":{"location":{"lat":50.35420999999999,"lng":7.587059999999998},"viewport":{"northeast":{"lat":50.35569753029149,"lng":7.588448580291501},"southwest":{"lat":50.35299956970849,"lng":7.585750619708496}}},"icon":"https://maps.gstatic.com/mapfiles/place_api/icons/doctor-71.png","id":"d83d877d909e1dda4cec335328fd50bbfad60715","name":"Gemeinnützige GmbH","place_id":"ChIJzTRcTal8vkcRjlEYOOgKMfg","plus_code":{"compound_code":"9H3P+MR Koblenz, Germany","global_code":"9F299H3P+MR"},"rating":2,"reference":"ChIJzTRcTal8vkcRjlEYOOgKMfg","scope":"GOOGLE","types":["hospital","health","point_of_interest","establishment"],"user_ratings_total":1,"vicinity":"Kardinal-Krementz-Straße 1-5, Koblenz"},{"geometry":{"location":{"lat":50.4293586,"lng":7.4655021},"viewport":{"northeast":{"lat":50.4307396802915,"lng":7.466918530291503},"southwest":{"lat":50.4280417197085,"lng":7.464220569708498}}},"icon":"https://maps.gstatic.com/mapfiles/place_api/icons/doctor-71.png","id":"1a50b600484aac843a8411394568389b5bd21b15","name":"DRK Krankenhaus Neuwied Abteilung für Radiologie und Nuklearmedizin","place_id":"ChIJ2_OpNcNhvkcRAWmt07i_vRA","plus_code":{"compound_code":"CFH8+P6 Neuwied, Germany","global_code":"9F29CFH8+P6"},"reference":"ChIJ2_OpNcNhvkcRAWmt07i_vRA","scope":"GOOGLE","types":["hospital","health","point_of_interest","establishment"],"vicinity":"Marktstraße 104, Neuwied"},{"geometry":{"location":{"lat":50.35946999999999,"lng":7.571289999999999},"viewport":{"northeast":{"lat":50.36048943029149,"lng":7.572043199999998},"southwest":{"lat":50.35779146970849,"lng":7.569030399999998}}},"icon":"https://maps.gstatic.com/mapfiles/place_api/icons/doctor-71.png","id":"44f5e67907aea604969745c2cd66a465fe75ea5a","name":"Katholisches Klinikum Marienhof/St. Josef gGmbH, Marienhof und Brüderhaus Abteilung für Urologie","place_id":"ChIJS1gJulFjvkcRj7a9jHh5g_I","plus_code":{"compound_code":"9H5C+QG Koblenz, Germany","global_code":"9F299H5C+QG"},"reference":"ChIJS1gJulFjvkcRj7a9jHh5g_I","scope":"GOOGLE","types":["hospital","health","point_of_interest","establishment"],"vicinity":"Rudolf-Virchow-Straße 7, Koblenz"},{"geometry":{"location":{"lat":50.3707854,"lng":7.282919},"viewport":{"northeast":{"lat":50.3722387802915,"lng":7.284326530291501},"southwest":{"lat":50.3695408197085,"lng":7.281628569708498}}},"icon":"https://maps.gstatic.com/mapfiles/place_api/icons/doctor-71.png","id":"bd54d2ae6afffb02506a8413b71e052cd08c9f34","name":"Dr. János Palik, Kinder- und Jugendarzt","opening_hours":{"open_now":false},"place_id":"ChIJ1W1mZKhevkcREeE175B5ONo","plus_code":{"compound_code":"97CM+85 Mendig, Germany","global_code":"9F2997CM+85"},"rating":2.6,"reference":"ChIJ1W1mZKhevkcREeE175B5ONo","scope":"GOOGLE","types":["hospital","health","point_of_interest","establishment"],"user_ratings_total":15,"vicinity":"Bahnstraße 40A, Mendig"},{"geometry":{"location":{"lat":50.36905729999999,"lng":7.561665499999999},"viewport":{"northeast":{"lat":50.3702992302915,"lng":7.562991480291503},"southwest":{"lat":50.3676012697085,"lng":7.560293519708498}}},"icon":"https://maps.gstatic.com/mapfiles/place_api/icons/doctor-71.png","id":"bd6be023fda6738d4ff952628daea9ca90722923","name":"CIM - Center Integrative Medicine","opening_hours":{"open_now":false},"photos":[{"height":1022,"html_attributions":["<a href=\"https://maps.google.com/maps/contrib/114753742072026441240\">CIM - Centrum Integrativer Medizin</a>"],"photo_reference":"CmRaAAAAbHlwWKtjiTJzEo6YphthxmSsFCwv56SdgR74es8bvrD2BBmyWwIkX-Peo-co484npSEFzIzQoylGHeuX_Yheekg6kxdhU478451epPn6ODlI2SeZp_ZEPO9OsocKuFVVEhABrj-_wXLkZ8NCxsmH9sVyGhRgPvCO-pInCxav-GUTS2PicetNFg","width":1600}],"place_id":"ChIJidqR7kBjvkcRKtXBVG90Uxw","plus_code":{"compound_code":"9H96+JM Koblenz, Germany","global_code":"9F299H96+JM"},"rating":3.6,"reference":"ChIJidqR7kBjvkcRKtXBVG90Uxw","scope":"GOOGLE","types":["hospital","health","point_of_interest","establishment"],"user_ratings_total":20,"vicinity":"Rübenacher Straße 32, Koblenz"},{"geometry":{"location":{"lat":50.3690885,"lng":7.5423423},"viewport":{"northeast":{"lat":50.3704866302915,"lng":7.543785380291501},"southwest":{"lat":50.3677886697085,"lng":7.541087419708496}}},"icon":"https://maps.gstatic.com/mapfiles/place_api/icons/doctor-71.png","id":"b74c3188e03be939d759ff288bf797a467037325","name":"Bundeswehrzentralkrankenhaus Abteilung für Orthopädie, Unfallchirurgie, Handchirurgie, Verbrennungsmedizin - Abteilung","place_id":"ChIJ94M8BnJjvkcRhsoAs8FuS3w","plus_code":{"compound_code":"9G9R+JW Koblenz, Germany","global_code":"9F299G9R+JW"},"rating":3,"reference":"ChIJ94M8BnJjvkcRhsoAs8FuS3w","scope":"GOOGLE","types":["hospital","health","point_of_interest","establishment"],"user_ratings_total":2,"vicinity":"Rübenacher Straße 170, Koblenz"},{"geometry":{"location":{"lat":50.4293586,"lng":7.4655021},"viewport":{"northeast":{"lat":50.4307396802915,"lng":7.466918530291503},"southwest":{"lat":50.4280417197085,"lng":7.464220569708498}}},"icon":"https://maps.gstatic.com/mapfiles/place_api/icons/doctor-71.png","id":"eff8e759bae40b5c005943d3d5e94c5e6b5057c5","name":"DRK Krankenhaus Neuwied Abteilung für Pathologie","place_id":"ChIJ2_OpNcNhvkcRSroXX4d7JUY","plus_code":{"compound_code":"CFH8+P6 Neuwied, Germany","global_code":"9F29CFH8+P6"},"reference":"ChIJ2_OpNcNhvkcRSroXX4d7JUY","scope":"GOOGLE","types":["hospital","health","point_of_interest","establishment"],"vicinity":"Marktstraße 104, Neuwied"},{"geometry":{"location":{"lat":50.4403836,"lng":7.4057722},"viewport":{"northeast":{"lat":50.4417336802915,"lng":7.407113630291501},"southwest":{"lat":50.4390357197085,"lng":7.404415669708497}}},"icon":"https://maps.gstatic.com/mapfiles/place_api/icons/doctor-71.png","id":"6c2e2502b8fd2be3e6d6a7fbbdef0c7d56b63f66","name":"St. Nikolaus-Stiftshospital GmbH Abteilung für Anästhesie- und Intensivmedizin","place_id":"ChIJmdMqPQNgvkcR_lDgAcgP72g","plus_code":{"compound_code":"CCR4+58 Andernach, Germany","global_code":"9F29CCR4+58"},"reference":"ChIJmdMqPQNgvkcR_lDgAcgP72g","scope":"GOOGLE","types":["hospital","health","point_of_interest","establishment"],"vicinity":"Hindenburgwall 1, Andernach"}]