[{"geometry":{"location":{"lat":47.6727848,"lng":9.4300465},"viewport":{"northeast":{"lat":47.6742414302915,"lng":9.431777380291502},"southwest":{"lat":47.6715434697085,"lng":9.429079419708497}}},"icon":"https://maps.gstatic.com/mapfiles/place_api/icons/doctor-71.png","id":"b0f9b18de40945f5e2e92fdd3ea78d9224839e32","name":"Klinikum Friedrichshafen GmbH","opening_hours":{"open_now":true},"photos":[{"height":848,"html_attributions":["<a href=\"https://maps.google.com/maps/contrib/111213703002178347343\">Klinikum Friedrichshafen GmbH</a>"],"photo_reference":"CmRaAAAAlGMbZHibWgPjf6tWN8uKVvfwrsb9sui4hysbXefebEvdE_taVQ_WsBkfGELBZm5mqUvI-CuMR_rOP5HZ_Z8EUOe-7jP4qhGS2q6iLRhHwuf-fZBFejb4MZhLZZr0w_ENEhBZcbNbmvItlm8e78XglBwvGhRjkSRS-qJBxzm3E5fm424Xn7-g2Q","width":2000}],"place_id":"ChIJEatR2CEAm0cRvPoK2yEmS2Q","plus_code":{"compound_code":"MCFJ+42 Friedrichshafen, Germany","global_code":"8FVFMCFJ+42"},"rating":2.9,"reference":"ChIJEatR2CEAm0cRvPoK2yEmS2Q","scope":"GOOGLE","types":["hospital","health","point_of_interest","establishment"],"user_ratings_total":136,"vicinity":"Röntgenstraße 2, Friedrichshafen"},{"geometry":{"location":{"lat":47.6714359,"lng":9.188207},"viewport":{"northeast":{"lat":47.67359509999999,"lng":9.194318399999998},"southwest":{"lat":47.6696631,"lng":9.181964399999995}}},"icon":"https://maps.gstatic.com/mapfiles/place_api/icons/doctor-71.png","id":"512daebe9af12174f057a42984469de4daf30cf8","name":"Health composite district of Konstanz - Constance Hospital","opening_hours":{"open_now":true},"photos":[{"height":2479,"html_attributions":["<a href=\"https://maps.google.com/maps/contrib/105886014974379833011\">Jens R</a>"],"photo_reference":"CmRaAAAAFYzkux3iwiKJKrDF5R6kG297Wm6kiXZvaMkjCuygACNzn2VMjEzCyZGA19AVxAx2IHbK-R9Zm4pWXDUr6vfdJTue_lPHzt9IuN-BE3xYOanjjJ3mDD-VUHAlHcGSJhNZEhC6SweLlTXn8hT9EFyejJL_GhR-h6s2njCG-_tCbY2TsFWpKXMLdw","width":3602}],"place_id":"ChIJTU2P16n3mkcRWJWFoZf37KE","plus_code":{"compound_code":"M5CQ+H7 Konstanz, Germany","global_code":"8FVFM5CQ+H7"},"rating":3.3,"reference":"ChIJTU2P16n3mkcRWJWFoZf37KE","scope":"GOOGLE","types":["hospital","health","point_of_interest","establishment"],"user_ratings_total":115,"vicinity":"Mainaustraße 35, Konstanz"},{"geometry":{"location":{"lat":47.6310394,"lng":9.234861},"viewport":{"northeast":{"lat":47.6324561302915,"lng":9.236819180291501},"southwest":{"lat":47.6297581697085,"lng":9.234121219708497}}},"icon":"https://maps.gstatic.com/mapfiles/place_api/icons/doctor-71.png","id":"09fbcda77897016a1df0f12b41666e1c9b197818","name":"Kantonsspital Münsterlingen","opening_hours":{"open_now":true},"photos":[{"height":2250,"html_attributions":["<a href=\"https://maps.google.com/maps/contrib/115527151856335913712\">Kantonsspital Münsterlingen</a>"],"photo_reference":"CmRaAAAAcTsLFgenaqkH9oOjrs86ukdYdQwSwHiLTonEv2Dssf3x8TCtL9MjaJgcTfMopdvs52CRW49nzUSwtKdFPqzGrqEXfSRsgbn0izmzWaqAiq2i1lYXwzhdIGYUIXVinzIuEhCeTtq2CuNTYNLOZILsLfA_GhQeAvLu3vdxQPdLYi3Jw5eFHa9F8A","width":4000}],"place_id":"ChIJ_____xz6mkcRncE_scJmL8M","plus_code":{"compound_code":"J6JM+CW Münsterlingen, Switzerland","global_code":"8FVFJ6JM+CW"},"rating":3.2,"reference":"ChIJ_____xz6mkcRncE_scJmL8M","scope":"GOOGLE","types":["hospital","health","point_of_interest","establishment"],"user_ratings_total":105,"vicinity":"Spitalcampus 1, Münsterlingen"},{"geometry":{"location":{"lat":47.6986084,"lng":9.8357043},"viewport":{"northeast":{"lat":47.69991553029149,"lng":9.836433780291502},"southwest":{"lat":47.6972175697085,"lng":9.8337358197085}}},"icon":"https://maps.gstatic.com/mapfiles/place_api/icons/generic_business-71.png","id":"c306c493942ad4da9815d174778d0e08ebaaa08c","name":"Fachkliniken Wangen","opening_hours":{"open_now":false},"photos":[{"height":569,"html_attributions":["<a href=\"https://maps.google.com/maps/contrib/112882306568072444967\">Fachkliniken Wangen</a>"],"photo_reference":"CmRaAAAAOUQCNYTuuUiSCPaszFLMlzXtMUpJeIYYZTvGIYnNcDhNFejy5aeQE56bmg4tnGczH7Rf4VbYG_-pf4uwGgMedGzunEj-ztOuITBuedoOSaePZ19Iumk0BjH8ewVUlFCgEhAv7lssEPIHcPdmlxxG4w3rGhS0bF2uG8zEF8CiHDtUU594d00_zA","width":850}],"place_id":"ChIJuSjNVtWhm0cRZkPR3xDny58","plus_code":{"compound_code":"MRXP+C7 Wangen im Allgäu, Germany","global_code":"8FVFMRXP+C7"},"rating":2.9,"reference":"ChIJuSjNVtWhm0cRZkPR3xDny58","scope":"GOOGLE","types":["hospital","health","point_of_interest","establishment"],"user_ratings_total":52,"vicinity":"Am Vogelherd 14, Wangen im Allgäu"},{"geometry":{"location":{"lat":47.581742,"lng":10.0087375},"viewport":{"northeast":{"lat":47.5829768802915,"lng":10.0102047802915},"southwest":{"lat":47.5802789197085,"lng":10.0075068197085}}},"icon":"https://maps.gstatic.com/mapfiles/place_api/icons/doctor-71.png","id":"06a678a1f0a37ed159964174376d0fabf6b48f1e","name":"Hochgrat Klinik - Fachklinik für Psychosomatik und Psychotherapie","opening_hours":{"open_now":false},"photos":[{"height":400,"html_attributions":["<a href=\"https://maps.google.com/maps/contrib/104992879995296678169\">Adeltraut Betzold</a>"],"photo_reference":"CmRaAAAAaBNOmy_XXnW4qmXNznXsRy2cp2UfMbIl6DLKP-fGw5BnH0t-8SQ_fYaMDM1XUW5WMPRnxng9zwI3D4JiTy-hgWAGQjnP5GPXgaleY6VAskgQOsF3BoPkZ0bR2JWrxcJ0EhAB5A40OD15MR355wbM8jBBGhS2mp1SohlBMT4C1XwEwAea12ucyQ","width":544}],"place_id":"ChIJf1dVxed5m0cRpt_Q5zh5LsE","plus_code":{"compound_code":"H2J5+MF Stiefenhofen, Germany","global_code":"8FVGH2J5+MF"},"rating":4.2,"reference":"ChIJf1dVxed5m0cRpt_Q5zh5LsE","scope":"GOOGLE","types":["hospital","health","point_of_interest","establishment"],"user_ratings_total":26,"vicinity":"Wolfsried 108, Stiefenhofen"},{"geometry":{"location":{"lat":47.445349,"lng":9.411887300000002},"viewport":{"northeast":{"lat":47.4462013802915,"lng":9.412959430291503},"southwest":{"lat":47.4435034197085,"lng":9.410261469708498}}},"icon":"https://maps.gstatic.com/mapfiles/place_api/icons/doctor-71.png","id":"a259778f2c68a9345240d8fc9527dc57687dfb0e","name":"Hirslanden Klinik Stephanshorn","opening_hours":{"open_now":true},"photos":[{"height":608,"html_attributions":["<a href=\"https://maps.google.com/maps/contrib/114671800949666628300\">Hirslanden Klinik Stephanshorn</a>"],"photo_reference":"CmRaAAAAhB-ANBnlrmTkYcjp9hCKF0BKLWXOemcBFwBKoROTNxx5hjpSKpLHYJeEEBprqKF_eCH1JzGU7WSYxNl0xiPOpOen-NoKEhXJ5FXi53OZeu-RldGcik795DOilg1qTzAiEhD-VFdaF3SgAkPReH4jk7NtGhS8gZcUMqpSx6QIxNxiDT__xvpslw","width":1080}],"place_id":"ChIJ80ju7Y8em0cRDK4lpTQD1jM","plus_code":{"compound_code":"CCW6+4Q St. Gallen, Switzerland","global_code":"8FVFCCW6+4Q"},"rating":4.4,"reference":"ChIJ80ju7Y8em0cRDK4lpTQD1jM","scope":"GOOGLE","types":["hospital","health","point_of_interest","establishment"],"user_ratings_total":43,"vicinity":"Brauerstrasse 95, St. Gallen"},{"geometry":{"location":{"lat":47.1736694,"lng":9.4486224},"viewport":{"northeast":{"lat":47.1751053302915,"lng":9.4500476302915},"southwest":{"lat":47.1724073697085,"lng":9.447349669708498}}},"icon":"https://maps.gstatic.com/mapfiles/place_api/icons/doctor-71.png","id":"567e26c25c9c8767e7489488028b62684a930349","name":"Spital Grabs","opening_hours":{"open_now":true},"photos":[{"height":3024,"html_attributions":["<a href=\"https://maps.google.com/maps/contrib/100572421550558032615\">Stähli Claudio</a>"],"photo_reference":"CmRaAAAAEStM3eKBsq1cKpfYZ7_zJU3zSKk8v5o40RAZotn_TlujN9-U8PAv0IyhKs9zmAe_nKjQDDZM-bZcBG92B_zBAgwBtvcOMuIQm5SiNTNmlyJ6f8vXYzrVnpjyswjIS5nDEhDMl0mXCYDOXDs1oLfHJjgOGhSuJNDb8Zm_XXpe55OomKm4IdZqMQ","width":4032}],"place_id":"ChIJ74XAsy0um0cRf-VVKfZcHiw","plus_code":{"compound_code":"5CFX+FC Grabs, Switzerland","global_code":"8FVF5CFX+FC"},"rating":3,"reference":"ChIJ74XAsy0um0cRf-VVKfZcHiw","scope":"GOOGLE","types":["hospital","doctor","health","point_of_interest","establishment"],"user_ratings_total":36,"vicinity":"Spitalstrasse 44, Grabs"},{"geometry":{"location":{"lat":47.4162627,"lng":9.4377484},"viewport":{"northeast":{"lat":47.4175709302915,"lng":9.438969930291503},"southwest":{"lat":47.4148729697085,"lng":9.436271969708498}}},"icon":"https://maps.gstatic.com/mapfiles/place_api/icons/doctor-71.png","id":"ff7fdec749d5c8c7489d7c81ce8892bd4f60b921","name":"Berit Klinik AG","photos":[{"height":4032,"html_attributions":["<a href=\"https://maps.google.com/maps/contrib/108251253642991388698\">Jasmin Ecknauer</a>"],"photo_reference":"CmRaAAAAEIF-y1BrrWYEv-SwtAukgkPwl4bbNg_LpOaRJH5vOCdMqrsszSshepPzCzjWGx3QR6AFCst_RFR-VYccSwiINcgY1JXx3FECG6MXTXOMj1UPwkKvhKYk4WNZTamtrWZyEhBnSvyJZT-FlEow5FXTLPtRGhSTRY4nkuS8B74iTm8SZgrljsSRsQ","width":3024}],"place_id":"ChIJ7_3N5Y0fm0cR0FHkI0OOZsg","plus_code":{"compound_code":"CC8Q+G3 Speicher, Switzerland","global_code":"8FVFCC8Q+G3"},"rating":4.4,"reference":"ChIJ7_3N5Y0fm0cR0FHkI0OOZsg","scope":"GOOGLE","types":["hospital","health","point_of_interest","establishment"],"user_ratings_total":45,"vicinity":"Vögelinsegg 5, Speicher"},{"geometry":{"location":{"lat":47.7882778,"lng":9.621666699999999},"viewport":{"northeast":{"lat":47.7899599802915,"lng":9.623372630291502},"southwest":{"lat":47.7872620197085,"lng":9.620674669708498}}},"icon":"https://maps.gstatic.com/mapfiles/place_api/icons/doctor-71.png","id":"efc59a689b88962e78e46b488a31f600d04a2440","name":"St. Elisabeth Hospital","opening_hours":{"open_now":true},"photos":[{"height":1827,"html_attributions":["<a href=\"https://maps.google.com/maps/contrib/108556193871391969797\">Erich Wucher</a>"],"photo_reference":"CmRaAAAAFtFxZfBSJbpmxvxepgL3bACZxFQK0d_mGTkcKnjiMV8LtCcYIPIBuLGiJql0xvQznOtaWHILFp7WUSalXr6g3uKpXW9_1vkaKuY_snRvOcxS6OwWeva6MWpKCaCjjU8SEhBSHqlaSYowr1snZbkIIZ4lGhQyRYt5aWnddk-vfnZmRbl3S5XW_g","width":3248}],"place_id":"ChIJv3FGegOvm0cRipNb4aamN7Q","plus_code":{"compound_code":"QJQC+8M Ravensburg, Germany","global_code":"8FVFQJQC+8M"},"rating":3.2,"reference":"ChIJv3FGegOvm0cRipNb4aamN7Q","scope":"GOOGLE","types":["hospital","health","point_of_interest","establishment"],"user_ratings_total":151,"vicinity":"Elisabethenstraße 15, Ravensburg"},{"geometry":{"location":{"lat":47.429958,"lng":9.394041399999997},"viewport":{"northeast":{"lat":47.43141298029149,"lng":9.3954696802915},"southwest":{"lat":47.42871501970849,"lng":9.392771719708495}}},"icon":"https://maps.gstatic.com/mapfiles/place_api/icons/doctor-71.png","id":"b9b0a8951651df3ab6a41fb37c23a24ac781ff57","name":"Children's Hospital of Eastern Switzerland St.Gallen","opening_hours":{"open_now":true},"photos":[{"height":2000,"html_attributions":["<a href=\"https://maps.google.com/maps/contrib/110142171384053218861\">Ostschweizer Kinderspital St.Gallen</a>"],"photo_reference":"CmRZAAAAuq9hfUTB7HThWMq8UM1wPWjUHYT1lf8wtwn488FxKK4yu6PhlemAhpmydIRaDvOL-awdEQQ6CfUWfPlYuFDMBm4Jx0APA52eZRigvHPIL6K7DtKFDoLflD96QlvbAewbEhB28cssh4vzOdO9hMcoOpfbGhR1ZBdTWLwwDyQ39LKIogyyMg5BCA","width":1500}],"place_id":"ChIJVZjpZ1gem0cREOGAm7r3UJg","plus_code":{"compound_code":"C9HV+XJ St. Gallen, Switzerland","global_code":"8FVFC9HV+XJ"},"rating":4,"reference":"ChIJVZjpZ1gem0cREOGAm7r3UJg","scope":"GOOGLE","types":["hospital","health","point_of_interest","establishment"],"user_ratings_total":55,"vicinity":"Claudiusstrasse 6, St. Gallen"},{"geometry":{"location":{"lat":47.2311043,"lng":9.580079999999999},"viewport":{"northeast":{"lat":47.23259618029149,"lng":9.581989030291503},"southwest":{"lat":47.2298982197085,"lng":9.579291069708498}}},"icon":"https://maps.gstatic.com/mapfiles/place_api/icons/doctor-71.png","id":"61f7ab124348b4986ac8d118c02bdb2f2653db28","name":"Landeskrankenhaus Feldkirch","opening_hours":{"open_now":true},"photos":[{"height":2695,"html_attributions":["<a href=\"https://maps.google.com/maps/contrib/105997561764929378023\">Andreas Stieger</a>"],"photo_reference":"CmRaAAAAI1mtYQuO9wHdMuBCDsiZFNmI1yeKAYsUUBiGqribIIUTWD40CJ78ac5JuvmDeXWQmc8LUxQ8t8Yy9a3gAGYIDBS9xUMY7sZP-OqEvvCHFOld4Ul3LQZAncWoFnFvxAyrEhBTSVHTcwOu-6vXQ_c_Uf5FGhTAGcjVwbkoJxy-6M4IIi827SyC-Q","width":3772}],"place_id":"ChIJw0Lvaok5m0cRrGEpzLHWQJU","plus_code":{"compound_code":"6HJJ+C2 Feldkirch, Austria","global_code":"8FVF6HJJ+C2"},"rating":3.3,"reference":"ChIJw0Lvaok5m0cRrGEpzLHWQJU","scope":"GOOGLE","types":["hospital","health","point_of_interest","establishment"],"user_ratings_total":132,"vicinity":"Carinagasse 47, Feldkirch"},{"geometry":{"location":{"lat":47.41290169999999,"lng":9.743136999999999},"viewport":{"northeast":{"lat":47.4144346802915,"lng":9.7445542302915},"southwest":{"lat":47.4117367197085,"lng":9.741856269708498}}},"icon":"https://maps.gstatic.com/mapfiles/place_api/icons/doctor-71.png","id":"885d8179b68773096566a220265c0a457d36367b","name":"Röntgenpraxis Dr. Hoflehner und Dr. Rettl","opening_hours":{"open_now":false},"photos":[{"height":271,"html_attributions":["<a href=\"https://maps.google.com/maps/contrib/115900640031093228737\">Röntgenpraxis Dr. Hoflehner und Dr. Rettl</a>"],"photo_reference":"CmRaAAAAuSdFt_D-HpUvgHsVIx1p3PQ-ux6qAv_Bq8i42ZMRHbLMKblXOcEcKNju2fNRZxO47DvRPP-zh8CixvC2hboYEKgLvPif9VOWCOOvAvwhYOQixUbe9_DVhE84av8k0_lgEhBQp93LoZeOJ_ukRrY4js-NGhRiETZ5-3wg7b0W8s5MgHCrfuu5dA","width":440}],"place_id":"ChIJ7Y4f-0trm0cRye9-OTtuLKk","plus_code":{"compound_code":"CP7V+57 Dornbirn, Austria","global_code":"8FVFCP7V+57"},"rating":5,"reference":"ChIJ7Y4f-0trm0cRye9-OTtuLKk","scope":"GOOGLE","types":["hospital","health","point_of_interest","establishment"],"user_ratings_total":4,"vicinity":"Marktstraße 13, Dornbirn"},{"geometry":{"location":{"lat":47.6717049,"lng":9.185444500000001},"viewport":{"northeast":{"lat":47.6730839302915,"lng":9.186697180291503},"southwest":{"lat":47.6703859697085,"lng":9.183999219708499}}},"icon":"https://maps.gstatic.com/mapfiles/place_api/icons/doctor-71.png","id":"4e14309e20cbbf0c8276cad680809b4b0e4c7a79","name":"Herz-Zentrum Bodensee","opening_hours":{"open_now":true},"photos":[{"height":536,"html_attributions":["<a href=\"https://maps.google.com/maps/contrib/111622206516379355730\">Dionysios Giannopoulos</a>"],"photo_reference":"CmRaAAAAlRZn_YkTx70Qm0oryVpxFcXs1BymYsMtLeqpB4wLL5i83KBrc3nBQmUatp9e3VhXWnifGMIrMJjPP8JBaWQMgNkaWH39Bs0B_rHI3O3xPLX8wzKp1HA5bKBlmIDxtTp3EhCLEqHPSNI_vzK_pJc-CyYvGhR-r_NL4pIe19aGoyGon7pGo8Pw7A","width":800}],"place_id":"ChIJ19Jxdgf3mkcR9xW7dvG0I3c","plus_code":{"compound_code":"M5CP+M5 Konstanz, Germany","global_code":"8FVFM5CP+M5"},"rating":4.3,"reference":"ChIJ19Jxdgf3mkcR9xW7dvG0I3c","scope":"GOOGLE","types":["hospital","health","point_of_interest","establishment"],"user_ratings_total":17,"vicinity":"Luisenstraße 9A, Konstanz"},{"geometry":{"location":{"lat":47.6729103,"lng":9.598156499999998},"viewport":{"northeast":{"lat":47.67430883029149,"lng":9.5993547802915},"southwest":{"lat":47.67161086970849,"lng":9.596656819708496}}},"icon":"https://maps.gstatic.com/mapfiles/place_api/icons/doctor-71.png","id":"9aefac3b019222fe36b5e734a81373aefd7adbce","name":"Klinik Tettnang GmbH Abteilung für Innere Medizin","place_id":"ChIJoevkQowHm0cRdFR8AIyuVIg","plus_code":{"compound_code":"MHFX+57 Tettnang, Germany","global_code":"8FVFMHFX+57"},"rating":5,"reference":"ChIJoevkQowHm0cRdFR8AIyuVIg","scope":"GOOGLE","types":["hospital","health","point_of_interest","establishment"],"user_ratings_total":1,"vicinity":"Emil-Münch-Straße 16, Tettnang"},{"geometry":{"location":{"lat":47.3286823,"lng":9.9749193},"viewport":{"northeast":{"lat":47.32998318029149,"lng":9.9762537802915},"southwest":{"lat":47.3272852197085,"lng":9.973555819708496}}},"icon":"https://maps.gstatic.com/mapfiles/place_api/icons/generic_business-71.png","id":"ef0171e59ae2bea406eb8ff35027c594d3993857","name":"Dr. med. Ganthaler","opening_hours":{"open_now":false},"place_id":"ChIJRXiA3Yldm0cRBz892MHXypQ","plus_code":{"compound_code":"8XHF+FX Au, Austria","global_code":"8FVF8XHF+FX"},"rating":5,"reference":"ChIJRXiA3Yldm0cRBz892MHXypQ","scope":"GOOGLE","types":["doctor","pharmacy","hospital","health","point_of_interest","store","establishment"],"user_ratings_total":10,"vicinity":"Am Stein 367, Au"},{"geometry":{"location":{"lat":47.67192429999999,"lng":9.188217},"viewport":{"northeast":{"lat":47.6733958302915,"lng":9.189266630291502},"southwest":{"lat":47.6706978697085,"lng":9.186568669708498}}},"icon":"https://maps.gstatic.com/mapfiles/place_api/icons/doctor-71.png","id":"2b05e04416b90404fd1b42b72d590e5fea81f005","name":"Klinikum Konstanz Department of Urology","place_id":"ChIJ8b2P16n3mkcR3oCeS-S9LB0","plus_code":{"compound_code":"M5CQ+Q7 Konstanz, Germany","global_code":"8FVFM5CQ+Q7"},"reference":"ChIJ8b2P16n3mkcR3oCeS-S9LB0","scope":"GOOGLE","types":["hospital","health","point_of_interest","establishment"],"vicinity":"Mainaustraße 35, Konstanz"},{"geometry":{"location":{"lat":47.40695079999999,"lng":10.2586073},"viewport":{"northeast":{"lat":47.40829023029149,"lng":10.2602494302915},"southwest":{"lat":47.40559226970849,"lng":10.2575514697085}}},"icon":"https://maps.gstatic.com/mapfiles/place_api/icons/doctor-71.png","id":"45eb139996b0b5caa196e9bd36f806e4f52e3cd2","name":"Stillachhaus Privatklinik GmbH","opening_hours":{"open_now":true},"photos":[{"height":3120,"html_attributions":["<a href=\"https://maps.google.com/maps/contrib/104641507519774748116\">Claus Scholz</a>"],"photo_reference":"CmRaAAAApLVHtOGNG1JpTcxOMVOjCyPEfvQygC5o4wWo4spzaIk4KfD9Z0NFTKIBGUf8RqnigIw--Oxf8kussAT1bsgTqU08h2RglOt3G75l2YNWgSbgYytASmnHdbtr5XDQx_vIEhBr1ZvfcfMTIVNqWTAgP_2lGhSdEg2Bx5bnyh3eFs_OTdqJaH7zKw","width":4160}],"place_id":"ChIJEXS60pWbnEcRKUqzMmwk5bk","plus_code":{"compound_code":"C745+QC Oberstdorf, Germany","global_code":"8FVGC745+QC"},"reference":"ChIJEXS60pWbnEcRKUqzMmwk5bk","scope":"GOOGLE","types":["hospital","health","point_of_interest","establishment"],"vicinity":"15, Alte Walserstraße, Oberstdorf"},{"geometry":{"location":{"lat":47.69283000000001,"lng":9.84467},"viewport":{"northeast":{"lat":47.6942696802915,"lng":9.8461501802915},"southwest":{"lat":47.69157171970851,"lng":9.843452219708498}}},"icon":"https://maps.gstatic.com/mapfiles/place_api/icons/doctor-71.png","id":"8fbc5af65142ee33b68f9e2048868b2239a3e249","name":"Fachkliniken Wangen Abteilung für Hals-, Nasen-, Ohrenheilkunde","place_id":"ChIJ__M0ZYOfm0cRMMUvHcUi_-Q","plus_code":{"compound_code":"MRVV+4V Wangen im Allgäu, Germany","global_code":"8FVFMRVV+4V"},"reference":"ChIJ__M0ZYOfm0cRMMUvHcUi_-Q","scope":"GOOGLE","types":["hospital","health","point_of_interest","establishment"],"vicinity":"Am Engelberg 29, Wangen im Allgäu"},{"geometry":{"location":{"lat":47.4074131,"lng":9.6297981},"viewport":{"northeast":{"lat":47.4088370302915,"lng":9.631195330291503},"southwest":{"lat":47.4061390697085,"lng":9.6284973697085}}},"icon":"https://maps.gstatic.com/mapfiles/place_api/icons/generic_business-71.png","id":"0b0d1abbd868b52fcc7b6e6f18b5b8452e98e9e4","name":"Rhydorfpraxis","opening_hours":{"open_now":false},"photos":[{"height":1677,"html_attributions":["<a href=\"https://maps.google.com/maps/contrib/108776733631055661808\">Rhydorfpraxis</a>"],"photo_reference":"CmRZAAAA2sQ4RsfHw3mJ1mLOAlnMX_WbfknJLC4BVqL0QQOhiBmmInFhmqxoZniT1ng_R61SqLxrA2Wlhez1FzL1L7Ivv091Tqu9f-wQCoMdcuA5PlkqsSaiKkCOwkrP4VMFli36EhC4rFmuicnxUobFefPOWv9rGhSEJqHn6bw-gER7WqD2ibU3OHexVg","width":5906}],"place_id":"ChIJBz86poQWm0cRwM3tzVx5Ztw","plus_code":{"compound_code":"CJ4H+XW Widnau, Switzerland","global_code":"8FVFCJ4H+XW"},"rating":5,"reference":"ChIJBz86poQWm0cRwM3tzVx5Ztw","scope":"GOOGLE","types":["hospital","doctor","health","point_of_interest","establishment"],"user_ratings_total":4,"vicinity":"Bahnhofstrasse 4, Widnau"},{"geometry":{"location":{"lat":47.69283000000001,"lng":9.84467},"viewport":{"northeast":{"lat":47.69426513029151,"lng":9.846149280291502},"southwest":{"lat":47.69156716970851,"lng":9.843451319708498}}},"icon":"https://maps.gstatic.com/mapfiles/place_api/icons/doctor-71.png","id":"8c1b614f1b5bdfd78092a2e4d17e51f31f269dea","name":"Krankenhaus Wangen Abteilung für Allgemeine Chirurgie","place_id":"ChIJ__M0ZYOfm0cRkqEOj2zIriY","plus_code":{"compound_code":"MRVV+4V Wangen im Allgäu, Germany","global_code":"8FVFMRVV+4V"},"rating":5,"reference":"ChIJ__M0ZYOfm0cRkqEOj2zIriY","scope":"GOOGLE","types":["hospital","health","point_of_interest","establishment"],"user_ratings_total":2,"vicinity":"Am Engelberg 29, Wangen im Allgäu"}]