[{"geometry":{"location":{"lat":49.46401239999999,"lng":8.471240199999999},"viewport":{"northeast":{"lat":49.46569493029149,"lng":8.472681850000003},"southwest":{"lat":49.46299696970849,"lng":8.468414050000002}}},"icon":"https://maps.gstatic.com/mapfiles/place_api/icons/doctor-71.png","id":"b31a6bee254718d7e61e2b50b532562203cc5b82","name":"Diakonissenkrankenhaus Mannheim","opening_hours":{"open_now":true},"photos":[{"height":3024,"html_attributions":["<a href=\"https://maps.google.com/maps/contrib/112868928109070934814\">Candy on Tour</a>"],"photo_reference":"CmRaAAAAH09qDzkRBBUWhQCQpWEzn-gidbDdjdF7GFgNFpXJT8VpIPFHyymW01a9oo7somitcOnM6nleQZrIAa3i97ihYFLMbZBDR-bJ-E71aFEv7gGffwagF2gWJWvyTq-HU4aDEhDAe-dLaU8Rv_jNcQ6VyPZLGhRq1Kx1ituNm4b7_UYs1-4nvx7uYA","width":4032}],"place_id":"ChIJgZH0karOl0cRM8Qs1s01RP8","plus_code":{"compound_code":"FF7C+JF Mannheim, Germany","global_code":"8FXCFF7C+JF"},"rating":3.1,"reference":"ChIJgZH0karOl0cRM8Qs1s01RP8","scope":"GOOGLE","types":["hospital","health","point_of_interest","establishment"],"user_ratings_total":141,"vicinity":"Speyerer Straße 91-93, Mannheim"},{"geometry":{"location":{"lat":49.4923704,"lng":8.487509899999997},"viewport":{"northeast":{"lat":49.49468979999999,"lng":8.492011249999997},"southwest":{"lat":49.48947580000001,"lng":8.48465665}}},"icon":"https://maps.gstatic.com/mapfiles/place_api/icons/doctor-71.png","id":"c36fde29dd7993bc83967478c7b3d6ea4efd4534","name":"Universitätsklinik Mannheim","opening_hours":{"open_now":true},"photos":[{"height":3462,"html_attributions":["<a href=\"https://maps.google.com/maps/contrib/100966854002108108017\">Timur Matsiev</a>"],"photo_reference":"CmRaAAAA7aQZ9aH0Qi3SmpFl5pHTwPT_epF7AMl-3dsVFpKW5AIP40N_IW7lzb5DeRQnVJ99Ra5VP8ikFcd0YlwVocdMwbMxynqHj8GeobKMuv2Z9I0tmgMW29tP7DNOYV9eOq-zEhA043jmKrHEAbq7NPzJ5bwVGhSu6jBMHqtpRpmyrR74hald0ong_g","width":4620}],"place_id":"ChIJXcqghJrOl0cRuy9-J2UKmgs","plus_code":{"compound_code":"FFRQ+W2 Mannheim, Germany","global_code":"8FXCFFRQ+W2"},"rating":2.8,"reference":"ChIJXcqghJrOl0cRuy9-J2UKmgs","scope":"GOOGLE","types":["hospital","health","point_of_interest","establishment"],"user_ratings_total":354,"vicinity":"Theodor-Kutzer-Ufer 1-3, Mannheim"},{"geometry":{"location":{"lat":49.5422342,"lng":8.3312019},"viewport":{"northeast":{"lat":49.5434699802915,"lng":8.332623380291501},"southwest":{"lat":49.5407720197085,"lng":8.329925419708497}}},"icon":"https://maps.gstatic.com/mapfiles/place_api/icons/doctor-71.png","id":"4d3c647c9cdfa02aeb2ca29dd8168dc3ad9d67af","name":"Stadtklinik Frankenthal","opening_hours":{"open_now":true},"photos":[{"height":3693,"html_attributions":["<a href=\"https://maps.google.com/maps/contrib/105814948567031614157\">T. Петрович</a>"],"photo_reference":"CmRaAAAAxOPaja8V8w3w95W2xwecduKWtnzDEsxPZWWfdHjxIuohWsAKZYh8e-Xcvw4agqqSRYacNvTd-E5zwKB85oKmJ2LPTBb_rnvfJ0GW6yVU0_VLw3O9GiVDejDVDb9pRL6OEhBwrbAvfvgiF907LxUOh81yGhQ_FycdqIVPe-i8TfqHN-izsD3dbg","width":5539}],"place_id":"ChIJx1rGgmQylkcRLdW8m6mADzE","plus_code":{"compound_code":"G8RJ+VF Frankenthal, Germany","global_code":"8FXCG8RJ+VF"},"rating":2.5,"reference":"ChIJx1rGgmQylkcRLdW8m6mADzE","scope":"GOOGLE","types":["hospital","health","point_of_interest","establishment"],"user_ratings_total":100,"vicinity":"Elsa-Brändström-Straße 1, Frankenthal"},{"geometry":{"location":{"lat":49.4212688,"lng":8.6816539},"viewport":{"northeast":{"lat":49.42273738029149,"lng":8.6830253802915},"southwest":{"lat":49.42003941970849,"lng":8.680327419708497}}},"icon":"https://maps.gstatic.com/mapfiles/place_api/icons/doctor-71.png","id":"645e6254194484c3f44a3603fa8a45fc5e6920bc","name":"Klinik Sankt Elisabeth","opening_hours":{"open_now":true},"photos":[{"height":2160,"html_attributions":["<a href=\"https://maps.google.com/maps/contrib/102010804359231087374\">Thomas Freund</a>"],"photo_reference":"CmRaAAAA32RIwLWEjLvTCfPHMemz4FTPQiRMTE6HdAjyDhZn577bFMYxTjsDH22Bm2hNsq0g8ANNtofcqlfC0RCy9qPwPcaXadgrCWh-LL6ipt9bhPENCJTBTUFL-xH64AciRJBcEhBlPXN9d_QEq2rSFKYuD0x-GhRwFv6wRKXHVJiSg9wEobbE8HaIFw","width":3840}],"place_id":"ChIJDwdb5zvBl0cR0xMNVb4LsbA","plus_code":{"compound_code":"CMCJ+GM Heidelberg, Germany","global_code":"8FXCCMCJ+GM"},"rating":4.5,"reference":"ChIJDwdb5zvBl0cR0xMNVb4LsbA","scope":"GOOGLE","types":["hospital","doctor","health","point_of_interest","establishment"],"user_ratings_total":88,"vicinity":"Max-Reger-Straße 5-7, Heidelberg"},{"geometry":{"location":{"lat":49.4861982,"lng":8.3890535},"viewport":{"northeast":{"lat":49.4874101302915,"lng":8.390314180291503},"southwest":{"lat":49.4847121697085,"lng":8.387616219708498}}},"icon":"https://maps.gstatic.com/mapfiles/place_api/icons/doctor-71.png","id":"061cb432848992e6089a45ce8c841c4460263bff","name":"Berufsgenossenschaftliche Unfallklinik Ludwigshafen","opening_hours":{"open_now":true},"photos":[{"height":312,"html_attributions":["<a href=\"https://maps.google.com/maps/contrib/107253094092551786508\">BG Klinik Ludwigshafen</a>"],"photo_reference":"CmRaAAAAGsVCeguuq2T3jtLBR640TrMb-JpJIrU8Y3NDot1vqvzHidnFSHNqnowoTRvegWTWeUGxyxMm4Zx9xmx_Si6PZ8BMqT8S1c54xh8Ok3XsClAGIUCPDT-xt3_ZIyp1yGCrEhDdTrzVVyAK9eCWnn1oyy3JGhSV4WvebZsosa6P0xRfH8nnXP7Zrw","width":830}],"place_id":"ChIJtWU3prnMl0cR4p5M5t1B0qA","plus_code":{"compound_code":"F9PQ+FJ Ludwigshafen, Germany","global_code":"8FXCF9PQ+FJ"},"rating":3.3,"reference":"ChIJtWU3prnMl0cR4p5M5t1B0qA","scope":"GOOGLE","types":["hospital","health","point_of_interest","establishment"],"user_ratings_total":181,"vicinity":"Ludwig-Guttmann-Straße 13, Ludwigshafen am Rhein"},{"geometry":{"location":{"lat":49.56439719999999,"lng":8.158264899999999},"viewport":{"northeast":{"lat":49.5657235802915,"lng":8.159668280291502},"southwest":{"lat":49.5630256197085,"lng":8.156970319708497}}},"icon":"https://maps.gstatic.com/mapfiles/place_api/icons/doctor-71.png","id":"9373823ebb7577511d194a9136e45b04f3774fa9","name":"Kreiskrankenhaus Grünstadt","opening_hours":{"open_now":true},"photos":[{"height":3024,"html_attributions":["<a href=\"https://maps.google.com/maps/contrib/114446953040484469464\">Bernd Korz</a>"],"photo_reference":"CmRaAAAAwz9zpw96T3dv4AC4n88z7jUYYViqrH_-_vmQEz2xOSVCZ95qUywXQr3nqglm5avw15rfQVHE1HNNinLVkb03KBLX5eu-gOz-jN2yxkion1yckQV3rCVWvwezOCIpvHkVEhCSJhrFjJGOjIvktWB-kJ6hGhTKD-2QmIMVEKwOB4X7PLRUhH59PA","width":4032}],"place_id":"ChIJq4-bmcs6lkcRpGq1VbjZhC8","plus_code":{"compound_code":"H575+Q8 Grünstadt, Germany","global_code":"8FXCH575+Q8"},"rating":3.7,"reference":"ChIJq4-bmcs6lkcRpGq1VbjZhC8","scope":"GOOGLE","types":["hospital","health","point_of_interest","establishment"],"user_ratings_total":117,"vicinity":"Westring 55, Grünstadt"},{"geometry":{"location":{"lat":49.482111,"lng":8.449881999999999},"viewport":{"northeast":{"lat":49.4834179302915,"lng":8.451114680291502},"southwest":{"lat":49.4807199697085,"lng":8.448416719708497}}},"icon":"https://maps.gstatic.com/mapfiles/place_api/icons/doctor-71.png","id":"bf3524207d45651a0543f24fd89e1f799bf6b2df","name":"Center for Nature and Medicine","opening_hours":{"open_now":false},"photos":[{"height":1348,"html_attributions":["<a href=\"https://maps.google.com/maps/contrib/101925719478728848861\">Bernd Schwőbel</a>"],"photo_reference":"CmRaAAAAlFGUWILZP6Escn13d8v73RQNEiNlDbrs0ucpqC59c57YQvPtSEkGBfB4PLnJtle5rTDjxgFvWLq4ZOsYXdhcxdFvCHKTCsgAr_1AEgKoA40fHyXodfgmSr-Avv-4vplqEhBSIEJwpd7k6dsQf_g4aSqvGhTl540iQ7IFTCNkW5cEGIUg-_vcXA","width":1011}],"place_id":"ChIJp1cK1hTMl0cRf-W9k2McwHg","plus_code":{"compound_code":"FCJX+RX Ludwigshafen, Germany","global_code":"8FXCFCJX+RX"},"rating":3.8,"reference":"ChIJp1cK1hTMl0cRf-W9k2McwHg","scope":"GOOGLE","types":["hospital","health","point_of_interest","establishment"],"user_ratings_total":4,"vicinity":"Ludwigstraße 30, Ludwigshafen am Rhein"},{"geometry":{"location":{"lat":49.5495004,"lng":8.6445554},"viewport":{"northeast":{"lat":49.5507027302915,"lng":8.645915030291505},"southwest":{"lat":49.5480047697085,"lng":8.6432170697085}}},"icon":"https://maps.gstatic.com/mapfiles/place_api/icons/doctor-71.png","id":"b359480a8a3ea73de13c862e987eb86bf56f141e","name":"GRN-Klinik Weinheim","opening_hours":{"open_now":true},"photos":[{"height":2400,"html_attributions":["<a href=\"https://maps.google.com/maps/contrib/101925719478728848861\">Bernd Schwőbel</a>"],"photo_reference":"CmRaAAAAFxXfQrDEep0BCXx5bC16XVC9g19N99fo_NYjBDZyGu07L2ueoKNlyDZHSuI6zIRl1jh4pAGtHDTPN8Q-o8t-_UgxW-Z4SWykKTkUF-p5aDXGJom53uQMTL1qa4uO5Xg2EhAuZXseXcV45ohcqD2nd4dgGhTusFwf3PTtPucaKJf3MYfj2Xhg-g","width":4261}],"place_id":"ChIJvXQq0t3al0cRorcIaZzFNEg","plus_code":{"compound_code":"GJXV+RR Weinheim, Germany","global_code":"8FXCGJXV+RR"},"rating":2.9,"reference":"ChIJvXQq0t3al0cRorcIaZzFNEg","scope":"GOOGLE","types":["hospital","health","point_of_interest","establishment"],"user_ratings_total":78,"vicinity":"Röntgenstraße 1, Weinheim"},{"geometry":{"location":{"lat":49.682221,"lng":8.625261},"viewport":{"northeast":{"lat":49.6835189302915,"lng":8.626646680291504},"southwest":{"lat":49.6808209697085,"lng":8.6239487197085}}},"icon":"https://maps.gstatic.com/mapfiles/place_api/icons/generic_business-71.png","id":"e5ad089f1e55717491b28aab7a338cbdc1ddec0a","name":"ENT Group Practice Dr. S. El-Bitar and Dr. H. Knoch","photos":[{"height":493,"html_attributions":["<a href=\"https://maps.google.com/maps/contrib/115789461705967426070\">HNO-Praxis Dr. med. Samir El-Bitar und Dr. med. Hans Knoch</a>"],"photo_reference":"CmRaAAAAd3fPXVXiunUJc3Zrv-byYEeH33kPkUGVSj4r3n2o_hwkWFAW1TJ5mnDoSXud_35xXnAY-t9HbhfkNtKymcq6Y_dXIwKmDxEBZ0OLtj0gEj8a2pItJVURaB0dVGc9-xbQEhDCKdDwkbmpCP69SY2P0qbMGhSmSmin1MR2kkyPAmiH_IjGyxLG5w","width":800}],"place_id":"ChIJh1PW1-3Xl0cR29Nnhfgqoxs","plus_code":{"compound_code":"MJJG+V4 Bensheim, Germany","global_code":"8FXCMJJG+V4"},"rating":4.2,"reference":"ChIJh1PW1-3Xl0cR29Nnhfgqoxs","scope":"GOOGLE","types":["hospital","doctor","health","point_of_interest","establishment"],"user_ratings_total":46,"vicinity":"Nibelungenstraße 26, Bensheim"},{"geometry":{"location":{"lat":49.3465222,"lng":8.1499007},"viewport":{"northeast":{"lat":49.3479359802915,"lng":8.151269930291503},"southwest":{"lat":49.3452380197085,"lng":8.148571969708499}}},"icon":"https://maps.gstatic.com/mapfiles/place_api/icons/doctor-71.png","id":"d1bdb9971a62ab3b248b957c69da5e12eb39f69c","name":"Marienhaus Klinikum Hetzelstift Neustadt/Weinstrasse","opening_hours":{"open_now":false},"photos":[{"height":3264,"html_attributions":["<a href=\"https://maps.google.com/maps/contrib/109002963534689575372\">Diether Eckert</a>"],"photo_reference":"CmRaAAAAu-gjofjcWJ39-HEmipznA5nsyhPwZiaDrgHyYtG9drDJUYk0kWgEcvKkrNBbUp7Z5jOYIXeuo5445PuIWVdY4conXMEEZDAHiHeVO4AdUg5fmqWO8ik3TzYHUFzF_10bEhCHEYYWP1Dmz8au37gEi_XxGhSp10hqmNQbiVVVNdEgGQhTitZ2fQ","width":2448}],"place_id":"ChIJlVGavpRIlkcRIB6yOnpF1y0","plus_code":{"compound_code":"84WX+JX Neustadt, Germany","global_code":"8FXC84WX+JX"},"rating":3.2,"reference":"ChIJlVGavpRIlkcRIB6yOnpF1y0","scope":"GOOGLE","types":["hospital","health","point_of_interest","establishment"],"user_ratings_total":38,"vicinity":"Stiftstraße 10, Neustadt an der Weinstraße"},{"geometry":{"location":{"lat":49.4897331,"lng":8.4814343},"viewport":{"northeast":{"lat":49.4908373802915,"lng":8.482629880291501},"southwest":{"lat":49.4881394197085,"lng":8.479931919708497}}},"icon":"https://maps.gstatic.com/mapfiles/place_api/icons/doctor-71.png","id":"56e95bbe18a4ad24a1cbf1e93e78404c5a87370f","name":"Theresienkrankenhaus Mannheim","opening_hours":{"open_now":true},"photos":[{"height":1461,"html_attributions":["<a href=\"https://maps.google.com/maps/contrib/100574029852017319544\">Theresienkrankenhaus Mannheim</a>"],"photo_reference":"CmRaAAAABEXqGOkOS2-oTksv9zXofcyPuWEc1CthTXh8exAoPjp03xpyb3ntuImwS-Sl8lpqvV6WZhFcmYvUAxzBykYAvd2w8ZAGfSS_u1AV1zV3c1RAS5mA5PejdYt4S1CJATvjEhD_2iP-MzL0RAXeVjIHb8-OGhTNok-ex0ry2vqOX9KGQO1Gm-j3Mw","width":2048}],"place_id":"ChIJiS6jXJzOl0cRyr6LUYNhWDY","plus_code":{"compound_code":"FFQJ+VH Mannheim, Germany","global_code":"8FXCFFQJ+VH"},"rating":3.3,"reference":"ChIJiS6jXJzOl0cRyr6LUYNhWDY","scope":"GOOGLE","types":["hospital","health","point_of_interest","establishment"],"user_ratings_total":147,"vicinity":"Bassermannstraße 1, Mannheim"},{"geometry":{"location":{"lat":49.4577451,"lng":8.408709000000002},"viewport":{"northeast":{"lat":49.45944933029149,"lng":8.409841280291504},"southwest":{"lat":49.4567513697085,"lng":8.4071433197085}}},"icon":"https://maps.gstatic.com/mapfiles/place_api/icons/doctor-71.png","id":"5ce6b5e1232d3dfb09295eb4d9e430cd1dbf2f5f","name":"St. Marienkrankenhaus","opening_hours":{"open_now":true},"photos":[{"height":3464,"html_attributions":["<a href=\"https://maps.google.com/maps/contrib/102010804359231087374\">Thomas Freund</a>"],"photo_reference":"CmRaAAAA-8zBS-pFU7YJ1HrdLUAcRQTKHV9-Cscv8F7PrmmeeBbbz7twvgDXT88EZlFHzNfFX7zhCi0tiam8TiueuerlxJZw8ooBvr76VXcLppOrxdixbbhv8TOODpR2q7FFpv8tEhBAWzTAMv6vHSSMLwpY5maqGhS02vPMRKOvBk3rkKAP0iL7bwjzbw","width":4618}],"place_id":"ChIJlS6rMnrLl0cRKIUiHltQVDI","plus_code":{"compound_code":"FC55+3F Ludwigshafen, Germany","global_code":"8FXCFC55+3F"},"rating":3.3,"reference":"ChIJlS6rMnrLl0cRKIUiHltQVDI","scope":"GOOGLE","types":["hospital","health","point_of_interest","establishment"],"user_ratings_total":110,"vicinity":"Salzburger Straße 15, Ludwigshafen am Rhein"},{"geometry":{"location":{"lat":49.678329,"lng":8.620415999999997},"viewport":{"northeast":{"lat":49.67960033029149,"lng":8.6217864302915},"southwest":{"lat":49.67690236970849,"lng":8.619088469708496}}},"icon":"https://maps.gstatic.com/mapfiles/place_api/icons/doctor-71.png","id":"d878165c3e797df4381121d50d9fa2592dc73bf5","name":"Heilig Geist Hospital","opening_hours":{"open_now":true},"photos":[{"height":1363,"html_attributions":["<a href=\"https://maps.google.com/maps/contrib/115559961307746324719\">Heilig Geist Hospital</a>"],"photo_reference":"CmRaAAAAKHoI9Iq_A-w0uoPAjtjJMv9y21kp0bvQVWwh0V5ETrcVDiiwaciw2L6tQ5Zi2MpllenCMCVra9iSgE0oumhJeeQ5lPRL19ANAPbeWcCsXANwJVC3F4d1yKusid89ONx3EhDWNeBsCYfYp9U0sqp6DNjyGhShDPC5ONbsakKeCCrj-HryfAC5GA","width":2048}],"place_id":"ChIJMZjolezXl0cRx1I-oR_Fy6I","plus_code":{"compound_code":"MJHC+85 Bensheim, Germany","global_code":"8FXCMJHC+85"},"rating":4,"reference":"ChIJMZjolezXl0cRx1I-oR_Fy6I","scope":"GOOGLE","types":["hospital","health","point_of_interest","establishment"],"user_ratings_total":78,"vicinity":"Rodensteinstraße 94, Bensheim"},{"geometry":{"location":{"lat":49.3778887,"lng":8.690152},"viewport":{"northeast":{"lat":49.37886173029149,"lng":8.691327530291503},"southwest":{"lat":49.3761637697085,"lng":8.688629569708498}}},"icon":"https://maps.gstatic.com/mapfiles/place_api/icons/doctor-71.png","id":"64881b1c69ac2a1fa395bf28d2be0abfd0a528ae","name":"Universitätsklinikum Heidelberg Thorax Clinic Heidelberg","opening_hours":{"open_now":true},"photos":[{"height":2448,"html_attributions":["<a href=\"https://maps.google.com/maps/contrib/102010804359231087374\">Thomas Freund</a>"],"photo_reference":"CmRaAAAABnyGe7ysuBxVt9h2vSlO3xmHJwnkWAXJdE3x34MC31qxzLuD6T3wKqlm94TP2RUQ7A3-TgqHpCxSGmX3Gk-cahqCK_8s55sj1qqgYEKK48Jdd-V-vyWZ2NF03g10zxorEhApaPWN8SW6SnJB2NdUcLE1GhT-Jetrqw1YPenRjyfHtl6kslRvSg","width":3264}],"place_id":"ChIJ5XL50ZHAl0cRgW0rtksbUVQ","plus_code":{"compound_code":"9MHR+53 Heidelberg, Germany","global_code":"8FXC9MHR+53"},"rating":4.2,"reference":"ChIJ5XL50ZHAl0cRgW0rtksbUVQ","scope":"GOOGLE","types":["hospital","health","point_of_interest","establishment"],"user_ratings_total":65,"vicinity":"Röntgenstraße 1, Heidelberg"},{"geometry":{"location":{"lat":49.4135074,"lng":8.653775799999998},"viewport":{"northeast":{"lat":49.4150133302915,"lng":8.6550592802915},"southwest":{"lat":49.4123153697085,"lng":8.652361319708497}}},"icon":"https://maps.gstatic.com/mapfiles/place_api/icons/doctor-71.png","id":"d44ccfa3ec91c3ce1895562cdaccf776b77cfc95","name":"SRH Kurpfalz Hospital Heidelberg GmbH","opening_hours":{"open_now":true},"photos":[{"height":2048,"html_attributions":["<a href=\"https://maps.google.com/maps/contrib/116676503677612451975\">Uwe Kaufmann</a>"],"photo_reference":"CmRaAAAAbJIYa8P8rtaF3Woiul57J7wJFPgqar7TiUqFhOS90DsSu3yHdVTL5f7uiTFFZbzo_u6rJ4h9liQ7_l8m5De3rpVhuw6V5AnqIPhlZvi-1wcmC6Fjk9dFjiFg2yz3DH9vEhBxwaMdqGoZHugSCK22yiRdGhTFI8hoWB6juwnVrFtFbEUCxyfWcQ","width":2048}],"place_id":"ChIJtxpSStHGl0cRZP35gMvnZxM","plus_code":{"compound_code":"CM73+CG Heidelberg, Germany","global_code":"8FXCCM73+CG"},"rating":3.8,"reference":"ChIJtxpSStHGl0cRZP35gMvnZxM","scope":"GOOGLE","types":["hospital","health","point_of_interest","establishment"],"user_ratings_total":22,"vicinity":"Bonhoefferstraße 5, Heidelberg"},{"geometry":{"location":{"lat":49.41844,"lng":8.666392000000002},"viewport":{"northeast":{"lat":49.4197889802915,"lng":8.667740980291503},"southwest":{"lat":49.4170910197085,"lng":8.665043019708499}}},"icon":"https://maps.gstatic.com/mapfiles/place_api/icons/generic_business-71.png","id":"9090311c3f824e6d12cd2e0133ddc21bd81b6870","name":"Kopfklinik","opening_hours":{"open_now":true},"photos":[{"height":1321,"html_attributions":["<a href=\"https://maps.google.com/maps/contrib/117403301076126564127\">Kliniken Tel</a>"],"photo_reference":"CmRaAAAAO8L-t0gn8K2udeAEMKQJzM97ZvvnVLGgsPd3fp0Avkt3TOvIUBMHCnyKX_GKLXQrR44cbJ5kfRIC5yf1JEx3TEkzwqKZKbjnx1WborLcSDICj58ZYGrffwpidSdcoe4BEhDfmt4uoh77ZSd7Rg-Mr3XEGhRxY3AV-CuhpweDEl03Gu9EII59bg","width":2350}],"place_id":"ChIJvaY6ijLBl0cRrG_5uenGOm8","plus_code":{"compound_code":"CM98+9H Heidelberg, Germany","global_code":"8FXCCM98+9H"},"rating":3,"reference":"ChIJvaY6ijLBl0cRrG_5uenGOm8","scope":"GOOGLE","types":["hospital","health","point_of_interest","establishment"],"user_ratings_total":139,"vicinity":"Im Neuenheimer Feld 400, Heidelberg"},{"geometry":{"location":{"lat":49.49400300000001,"lng":8.486792099999999},"viewport":{"northeast":{"lat":49.4952107802915,"lng":8.488224780291503},"southwest":{"lat":49.4925128197085,"lng":8.485526819708499}}},"icon":"https://maps.gstatic.com/mapfiles/place_api/icons/generic_business-71.png","id":"3c1189fd6d8575dc196acab61a6b88b5e2328116","name":"Klinik für Dermatologie, Venerologie und Allergologie, Universitätsklinikum Mannheim","opening_hours":{"open_now":false},"place_id":"ChIJXcqghJrOl0cRFsByv6337ms","plus_code":{"compound_code":"FFVP+JP Mannheim, Germany","global_code":"8FXCFFVP+JP"},"rating":2.2,"reference":"ChIJXcqghJrOl0cRFsByv6337ms","scope":"GOOGLE","types":["hospital","doctor","health","point_of_interest","establishment"],"user_ratings_total":25,"vicinity":"Klinik für Dermatologie, Venerologie und Allergologie, Theodor-Kutzer-Ufer 1-3, Mannheim"},{"geometry":{"location":{"lat":49.4233007,"lng":8.684198899999998},"viewport":{"northeast":{"lat":49.4247147302915,"lng":8.685782080291501},"southwest":{"lat":49.4220167697085,"lng":8.683084119708496}}},"icon":"https://maps.gstatic.com/mapfiles/place_api/icons/doctor-71.png","id":"3c8673facc1a3fec04dd8b00eefe64fd625f3b15","name":"Krankenhaus Salem","opening_hours":{"open_now":true},"photos":[{"height":2736,"html_attributions":["<a href=\"https://maps.google.com/maps/contrib/115722754032427177160\">Thomas Enkler</a>"],"photo_reference":"CmRaAAAAccHVJ3oyxliDCctai6wFUeGN6zuVMab834oBpWs_4hsdgMlZAabykJyf3hyZWpTTz09Z-p_n49_6biTr97esqZcYf7ZgHdfYyhF3-NfwBUjWaDCCpH3rCB5A4RHGJfsIEhCkNIRbPUDahVv79o86S4sNGhQ1wMmOq2GWcUAjp3qVY3SxCoYhuA","width":3648}],"place_id":"ChIJnVzV0T7Bl0cRiyIEdMj9rgE","plus_code":{"compound_code":"CMFM+8M Heidelberg, Germany","global_code":"8FXCCMFM+8M"},"rating":3.8,"reference":"ChIJnVzV0T7Bl0cRiyIEdMj9rgE","scope":"GOOGLE","types":["hospital","health","point_of_interest","establishment"],"user_ratings_total":83,"vicinity":"Zeppelinstraße 11-33, Heidelberg"},{"geometry":{"location":{"lat":49.6496782,"lng":8.320064499999999},"viewport":{"northeast":{"lat":49.6511183302915,"lng":8.3216411802915},"southwest":{"lat":49.6484203697085,"lng":8.318943219708496}}},"icon":"https://maps.gstatic.com/mapfiles/place_api/icons/doctor-71.png","id":"fac0104012a82237abca151595c483363167d564","name":"Klinikum Worms","opening_hours":{"open_now":true},"photos":[{"height":2322,"html_attributions":["<a href=\"https://maps.google.com/maps/contrib/115124240521693754335\">Erik Herrmann</a>"],"photo_reference":"CmRaAAAAjhb4RYQLoV0tUZ_JScAh_STeYN-ZU2AzyLPqUiHUaGjR1opt1F7qCT8ZBxGsPJyvesHthk5VDahGgfaikxPA_7A66-1fpPE1He3hS3MLexcPV8TnLxaWq7JM5OYSUgR-EhDT17ffVvg9uoOlmDgoH0JBGhRoYiliA67_KvtkzWWBqXK4iLoWPQ","width":4128}],"place_id":"ChIJmfqL6uIrlkcRNCeLgU2bgvE","plus_code":{"compound_code":"J8XC+V2 Worms, Germany","global_code":"8FXCJ8XC+V2"},"rating":2.5,"reference":"ChIJmfqL6uIrlkcRNCeLgU2bgvE","scope":"GOOGLE","types":["hospital","health","point_of_interest","establishment"],"user_ratings_total":167,"vicinity":"Gabriel-von-Seidl-Straße 81, Worms"},{"geometry":{"location":{"lat":49.74323159999999,"lng":8.1310789},"viewport":{"northeast":{"lat":49.7445544302915,"lng":8.132421780291502},"southwest":{"lat":49.7418564697085,"lng":8.129723819708497}}},"icon":"https://maps.gstatic.com/mapfiles/place_api/icons/doctor-71.png","id":"0d20140a99146c6c1bab909241f4dab18772cbaa","name":"Rheinhessen-Fachklinik Alzey","opening_hours":{"open_now":true},"photos":[{"height":1504,"html_attributions":["<a href=\"https://maps.google.com/maps/contrib/109953636151765983675\">Rheinhessen-Fachklinik Alzey</a>"],"photo_reference":"CmRaAAAASjvTYbqFVjfRQ7TI6VTMTT6UnVxeUi8hCDs943MGeF4eD56gGwBQHM__ElU1lqJRs4ZTVuSsC4VDbVL77XMYutkQugQIy4-2NMjWVAFHJUvRCoMq4v4CpK3CFBxLhm9NEhD6C3nQTaQlR4lDiWy_TL9ZGhTSdwbgfubhKh_XaVacilApBY7abg","width":2256}],"place_id":"ChIJkdZzegOKvUcRV9Q-dGLWTYU","plus_code":{"compound_code":"P4VJ+7C Alzey, Germany","global_code":"8FXCP4VJ+7C"},"rating":2.7,"reference":"ChIJkdZzegOKvUcRV9Q-dGLWTYU","scope":"GOOGLE","types":["hospital","health","point_of_interest","establishment"],"user_ratings_total":42,"vicinity":"Dautenheimer Landstraße 66, Alzey"}]