[{"geometry":{"location":{"lat":50.09230029999999,"lng":8.2667023},"viewport":{"northeast":{"lat":50.09373618029149,"lng":8.268146080291503},"southwest":{"lat":50.09103821970849,"lng":8.265448119708498}}},"icon":"https://maps.gstatic.com/mapfiles/place_api/icons/generic_business-71.png","id":"f02fd9524cbb566a54f080394acdf5b3f13eb1bc","name":"MEDIAN Rehaklinik Aukammtal Wiesbaden","opening_hours":{"open_now":false},"photos":[{"height":608,"html_attributions":["<a href=\"https://maps.google.com/maps/contrib/115982526492465991115\">MEDIAN Rehaklinik Aukammtal Wiesbaden</a>"],"photo_reference":"CmRaAAAAvYWlStDvzGBDDZ_Lj6eaJkbtiuzfcwSv1bcEq4L2BWvQjvr6vqzGC5cmfGM9rBW2Goeh_MWUqv--6Q1xeyyV9g_-GLkJmGQ0cqPdH4WeZSkvIea-mBO350MiJKAnIFfmEhAQJ3vXOdhxk4mQQNn62wJ0GhQXybOdFJNtpEcoVDj6Rc2hKw95wA","width":1080}],"place_id":"ChIJw2RJgbW9vUcRFNol6vaP3lQ","plus_code":{"compound_code":"37R8+WM Wiesbaden, Germany","global_code":"9F2C37R8+WM"},"rating":3.1,"reference":"ChIJw2RJgbW9vUcRFNol6vaP3lQ","scope":"GOOGLE","types":["hospital","health","point_of_interest","establishment"],"user_ratings_total":51,"vicinity":"Leibnizstraße 25, Wiesbaden"},{"geometry":{"location":{"lat":50.09990439999999,"lng":8.6687848},"viewport":{"northeast":{"lat":50.1012925802915,"lng":8.670203730291501},"southwest":{"lat":50.0985946197085,"lng":8.667505769708496}}},"icon":"https://maps.gstatic.com/mapfiles/place_api/icons/doctor-71.png","id":"6988d3889ae79d13597032538e3d0dc839aa09e2","name":"Endokrinologikum Frankfurt","opening_hours":{"open_now":false},"photos":[{"height":2268,"html_attributions":["<a href=\"https://maps.google.com/maps/contrib/113105118804663911475\">Ciwan Almhmod</a>"],"photo_reference":"CmRaAAAAZU3Dxtl5QxnpWE95dVuWyGOELQk2giBSukTy0Xw9Ywkexlkgy8ZUMRwabAEbVCrTKY0M9DIkQKVxxBnUSDnCbeblYtxRS8zXZkFZGJ9NVB9BS96wDeGP7T88HhYNTecNEhCHM-KuEI-23UJnImu190I4GhQSRoyIp3RAmte4JdNMXVFRN2IFSQ","width":4032}],"place_id":"ChIJ5cDd8wYMvUcRdc9EYK_-BDA","plus_code":{"compound_code":"3MX9+XG Frankfurt, Germany","global_code":"9F2C3MX9+XG"},"rating":2.4,"reference":"ChIJ5cDd8wYMvUcRdc9EYK_-BDA","scope":"GOOGLE","types":["hospital","doctor","health","point_of_interest","establishment"],"user_ratings_total":107,"vicinity":"Stresemannallee 1/3, Frankfurt am Main"},{"geometry":{"location":{"lat":50.1101183,"lng":8.6929751},"viewport":{"northeast":{"lat":50.11164308029149,"lng":8.694072980291502},"southwest":{"lat":50.10894511970849,"lng":8.691375019708497}}},"icon":"https://maps.gstatic.com/mapfiles/place_api/icons/doctor-71.png","id":"047a2ee9e2a940b3f1f5f813112c9097bb3217cc","name":"Hospital of the Holy Spirit","opening_hours":{"open_now":true},"photos":[{"height":3024,"html_attributions":["<a href=\"https://maps.google.com/maps/contrib/113318534293523378956\">Yasin Kesen</a>"],"photo_reference":"CmRaAAAASAIVPWRVDmvLFdxYv9mri48mf04p1KJ6y6uS_26I7oG7PBbM-a-M3IivULBL28Vs298JuleRRTS8koB4TgrUi4u1mCGTlnY9xswx4cTQkc0SD6-bAmKr5_efbNpzoO4vEhBeuvJSrFwtZxAFAHKNbh3LGhRBOLM_HbRDAi2viOQC27vtsRBfIA","width":4032}],"place_id":"ChIJDQah96EOvUcR64QhjsW4_qs","plus_code":{"compound_code":"4M6V+25 Frankfurt, Germany","global_code":"9F2C4M6V+25"},"rating":3.5,"reference":"ChIJDQah96EOvUcR64QhjsW4_qs","scope":"GOOGLE","types":["hospital","health","point_of_interest","establishment"],"user_ratings_total":112,"vicinity":"Lange Straße 4-6, Frankfurt am Main"},{"geometry":{"location":{"lat":49.8748746,"lng":8.646442700000001},"viewport":{"northeast":{"lat":49.87634183029149,"lng":8.649056749999998},"southwest":{"lat":49.87364386970849,"lng":8.64557135}}},"icon":"https://maps.gstatic.com/mapfiles/place_api/icons/doctor-71.png","id":"63fe7d741e53900c95a5e1b0a86b96a189ae7ecf","name":"Klinikum Darmstadt","opening_hours":{"open_now":true},"photos":[{"height":3024,"html_attributions":["<a href=\"https://maps.google.com/maps/contrib/100192839614017675302\">Reinhard Mohr</a>"],"photo_reference":"CmRaAAAAML1FKnapDCiPek3y0pySah_sxAvaj6jhEWU0NYHV9gGRc25DEovO8ctWymF8bWQUsNjkp1y2LClep7ZmAE_0dLekI2m9Rc3Ef5j7t2BrVttVU-jWFtrbG2RdaTSgjCG1EhAlP0yx5aqWsqaxJ525XoquGhRW6OfMWtTJlghr-rB89TDR1mNrrA","width":4032}],"place_id":"ChIJ3yYLCmJwvUcR_khM4YtppRQ","plus_code":{"compound_code":"VJFW+WH Darmstadt, Germany","global_code":"8FXCVJFW+WH"},"rating":2.2,"reference":"ChIJ3yYLCmJwvUcR_khM4YtppRQ","scope":"GOOGLE","types":["hospital","health","point_of_interest","establishment"],"user_ratings_total":345,"vicinity":"Grafenstraße 9, Darmstadt"},{"geometry":{"location":{"lat":50.00019,"lng":8.256569999999998},"viewport":{"northeast":{"lat":50.0016769802915,"lng":8.258167780291501},"southwest":{"lat":49.9989790197085,"lng":8.255469819708496}}},"icon":"https://maps.gstatic.com/mapfiles/place_api/icons/doctor-71.png","id":"6f54e1460792518d7dd0c6cbb54b7508ee9c8fe7","name":"MED Facharztzentrum","photos":[{"height":853,"html_attributions":["<a href=\"https://maps.google.com/maps/contrib/113571856979093524315\">MED Facharztzentrum</a>"],"photo_reference":"CmRaAAAAso15hEgnML35N4jwx26wlNrd6ldTQAx7bTl45iH9wGBk5txqaSVpd-QP23Wvx0MJuQSUftbDILWpVo_pLVjlgfPr124cSjUP4loT9Htuu4zBiyP2K5mmxTNiO5ebotf_EhBhu-omxdSw9H4fOxb6tnL9GhS6RY22DQlClEEDhH1TUlVADORsQw","width":1280}],"place_id":"ChIJN7TSWOSWvUcRqhAmN815sBE","plus_code":{"compound_code":"2724+3J Mainz, Germany","global_code":"9F2C2724+3J"},"rating":3.7,"reference":"ChIJN7TSWOSWvUcRqhAmN815sBE","scope":"GOOGLE","types":["hospital","health","point_of_interest","establishment"],"user_ratings_total":15,"vicinity":"Wallstraße 3-5, Mainz"},{"geometry":{"location":{"lat":50.1077497,"lng":8.5442251},"viewport":{"northeast":{"lat":50.10902958029151,"lng":8.545430930291502},"southwest":{"lat":50.10633161970851,"lng":8.542732969708497}}},"icon":"https://maps.gstatic.com/mapfiles/place_api/icons/doctor-71.png","id":"93b50a3a0a206471465303deb4323301dc71e446","name":"Klinikum Frankfurt Höchst GmbH","opening_hours":{"open_now":true},"photos":[{"height":2448,"html_attributions":["<a href=\"https://maps.google.com/maps/contrib/107600057509476394684\">Anas Fares</a>"],"photo_reference":"CmRaAAAA2iGOYUJt96qZCzUsoRBUk--2CK9mfIErtuf9TtfnTdZpTVmj0ABRHMGbGrtTJ53nZdXhELCSgworSF3JSP9aSX-ydF4WaZzuEIb2DkxFHQ6Bm71YQ2IputxmMBtx2ekuEhAXwl3-55AK97SFv8F6MomIGhQCMlCkzx8iihSJ5Tl1QKLASsXnuA","width":3264}],"place_id":"ChIJVb8lUbCgvUcRFF8kfw4NlQY","plus_code":{"compound_code":"4G5V+3M Frankfurt, Germany","global_code":"9F2C4G5V+3M"},"rating":2.3,"reference":"ChIJVb8lUbCgvUcRFF8kfw4NlQY","scope":"GOOGLE","types":["hospital","health","point_of_interest","establishment"],"user_ratings_total":395,"vicinity":"Gotenstraße 6-8, Frankfurt am Main"},{"geometry":{"location":{"lat":50.1356289,"lng":8.6473494},"viewport":{"northeast":{"lat":50.13802829999999,"lng":8.649787900000002},"southwest":{"lat":50.13377029999999,"lng":8.644653099999998}}},"icon":"https://maps.gstatic.com/mapfiles/place_api/icons/doctor-71.png","id":"bba036f44d37eb6d6aef00762433127b3be46979","name":"AGAPLESION MARKUS KRANKENHAUS","opening_hours":{"open_now":true},"photos":[{"height":3486,"html_attributions":["<a href=\"https://maps.google.com/maps/contrib/117847886270121754344\">AGAPLESION MARKUS KRANKENHAUS</a>"],"photo_reference":"CmRaAAAAJmlmufmpuip_CUQBYbGEJQoDOrN2jtGLbqnq_64NvE6C61pOB4jEeRMaXaHSliaStK6uZ89NOdkOqcaQtBfKYGyQYQxTTmt3JL_QEWvoQ9MS3qx9MgSt69hyf4d9BezuEhDEmP_N5x9-U6_h8pdWpi4DGhTKugPthbNFDBPd_Y2u6f2D89AiVw","width":5253}],"place_id":"ChIJf4OSQBYJvUcRdN8aAg0c8uo","plus_code":{"compound_code":"4JPW+7W Frankfurt, Germany","global_code":"9F2C4JPW+7W"},"rating":3.2,"reference":"ChIJf4OSQBYJvUcRdN8aAg0c8uo","scope":"GOOGLE","types":["hospital","health","point_of_interest","establishment"],"user_ratings_total":187,"vicinity":"Wilhelm-Epstein-Straße 4, Frankfurt am Main"},{"geometry":{"location":{"lat":50.13618689999999,"lng":8.710607399999999},"viewport":{"northeast":{"lat":50.1375919802915,"lng":8.712133830291503},"southwest":{"lat":50.1348940197085,"lng":8.709435869708498}}},"icon":"https://maps.gstatic.com/mapfiles/place_api/icons/doctor-71.png","id":"560d6c7cea25428b14923d89e69bc09b028b998b","name":"St. Catherine Hospital","photos":[{"height":998,"html_attributions":["<a href=\"https://maps.google.com/maps/contrib/112766850581516289396\">Sankt Katharinen-Krankenhaus</a>"],"photo_reference":"CmRaAAAAjiWkanqarMP0PRC8K0nb1C-B1hPofE4PkmcUkJhVdHJ66bKioblP4KSvMp4kbVZErEexaC4HBgNLMSZIbJibbXp7RFpAIsYPbJ7f2CPNTF_L1lYZLPKQ696ja5z6QkbYEhDgYRomlBRxawkhbNTZxJVbGhReD06vikGrFcuZZXkWENw93Tfr-g","width":1331}],"place_id":"ChIJuYj7duUOvUcRCH9azZdr2Ik","plus_code":{"compound_code":"4PP6+F6 Frankfurt, Germany","global_code":"9F2C4PP6+F6"},"rating":3.6,"reference":"ChIJuYj7duUOvUcRCH9azZdr2Ik","scope":"GOOGLE","types":["hospital","health","point_of_interest","establishment"],"user_ratings_total":100,"vicinity":"Seckbacher Landstraße 65, Frankfurt am Main"},{"geometry":{"location":{"lat":50.0720377,"lng":8.226714900000001},"viewport":{"northeast":{"lat":50.0731943302915,"lng":8.228031980291503},"southwest":{"lat":50.0704963697085,"lng":8.225334019708498}}},"icon":"https://maps.gstatic.com/mapfiles/place_api/icons/doctor-71.png","id":"67a04f9eb81b840366ce8af775fc137ac461f7ee","name":"Asklepios Paulinen Klinik Wiesbaden","opening_hours":{"open_now":true},"photos":[{"height":708,"html_attributions":["<a href=\"https://maps.google.com/maps/contrib/110892849185968086502\">Asklepios Paulinen Klinik Wiesbaden</a>"],"photo_reference":"CmRaAAAAJqtgZEZVJiI5APd49rJkQICF5wfK5UtMbM7AEf8n__0aj0JSMQbDVOIfmtuN84nOgD0tLZJ08rMHMAMjjSuSV1J270QEW6_cgInYq2Ct2KNcl-eC2FU5F17KLAwudpC_EhBXGiwFgOXGZj777ar2Fy0OGhQKuoJWWuOeqLY9wd8JtRduRd8Qhw","width":1063}],"place_id":"ChIJf2eorg6-vUcRPtzMgv4GAhc","plus_code":{"compound_code":"36CG+RM Wiesbaden, Germany","global_code":"9F2C36CG+RM"},"rating":3.2,"reference":"ChIJf2eorg6-vUcRPtzMgv4GAhc","scope":"GOOGLE","types":["hospital","health","point_of_interest","establishment"],"user_ratings_total":154,"vicinity":"Geisenheimer Straße 10, Wiesbaden"},{"geometry":{"location":{"lat":50.0946046,"lng":8.756411299999998},"viewport":{"northeast":{"lat":50.09837334999999,"lng":8.760624300000003},"southwest":{"lat":50.09096995000002,"lng":8.751203499999999}}},"icon":"https://maps.gstatic.com/mapfiles/place_api/icons/doctor-71.png","id":"9cdc404330f039b2d21cc268f8bec5f7c80d6e6e","name":"Sana Klinikum Offenbach GmbH","opening_hours":{"open_now":true},"photos":[{"height":2322,"html_attributions":["<a href=\"https://maps.google.com/maps/contrib/114835440761657009906\">Ганна Ткаченко</a>"],"photo_reference":"CmRaAAAACvGRuRcgpGXsvn1jy0LSw_EQ8f_byTONMcyngJ_K8JQ92m7HoSoOUKAMF97SEuTljw6rz2Bi_S_eWLBXzktQZ5DH1saCi1B1tbqX9rbTZ1laKOd9LRZaPpPrufHM7FBuEhAnMsRcQIN9DB3qsvS10DbMGhRZiMFrGxXbayQuaCvIlZhQb5IPEA","width":4128}],"place_id":"ChIJVfbeWvsNvUcR_bUvIg5jhig","plus_code":{"compound_code":"3QV4+RH Offenbach, Germany","global_code":"9F2C3QV4+RH"},"rating":2.5,"reference":"ChIJVfbeWvsNvUcR_bUvIg5jhig","scope":"GOOGLE","types":["hospital","health","point_of_interest","establishment"],"user_ratings_total":456,"vicinity":"Starkenburgring 66, Offenbach am Main"},{"geometry":{"location":{"lat":50.1262093,"lng":8.6377916},"viewport":{"northeast":{"lat":50.1274616802915,"lng":8.639166630291504},"southwest":{"lat":50.1247637197085,"lng":8.6364686697085}}},"icon":"https://maps.gstatic.com/mapfiles/place_api/icons/doctor-71.png","id":"a5a892063b4a4700d182f940e036908648286458","name":"St. Elisabethen Hospital Frankfurt","opening_hours":{"open_now":true},"photos":[{"height":1365,"html_attributions":["<a href=\"https://maps.google.com/maps/contrib/101342093943672455376\">St. Elisabethen-Krankenhaus | Frankfurt</a>"],"photo_reference":"CmRaAAAAG1AH_X_nIAJQ-PWwJv8WQLSEvVsIZ4l5IiQw2r83NX_PCJrTXTTIW6juBUFE92SsU86wmjK99HDurGqv2hcZc1EYtjNf9GzQbcxllTbF1GpO8Zrw1rgdD6yIHZFtPkxvEhAiRqYcWMH_kzdAKTHBvqc2GhTzPIImzvS5CoXChxBCSuGZR9xO_w","width":2048}],"place_id":"ChIJe2UfEmwJvUcRDZbH8A-Ten4","plus_code":{"compound_code":"4JGQ+F4 Frankfurt, Germany","global_code":"9F2C4JGQ+F4"},"rating":3.7,"reference":"ChIJe2UfEmwJvUcRDZbH8A-Ten4","scope":"GOOGLE","types":["hospital","health","point_of_interest","establishment"],"user_ratings_total":109,"vicinity":"Ginnheimer Straße 3, Frankfurt am Main"},{"geometry":{"location":{"lat":49.9925214,"lng":8.2599667},"viewport":{"northeast":{"lat":49.9936711302915,"lng":8.261737130291504},"southwest":{"lat":49.9909731697085,"lng":8.2590391697085}}},"icon":"https://maps.gstatic.com/mapfiles/place_api/icons/doctor-71.png","id":"24c89d9d4ee80c0c96a9e2557cd82ecfbefaf4da","name":"Universitätsmedizin der Johannes Gutenberg-Universität Mainz","opening_hours":{"open_now":true},"photos":[{"height":1152,"html_attributions":["<a href=\"https://maps.google.com/maps/contrib/101926143835346483768\">Ness</a>"],"photo_reference":"CmRaAAAAc0IUCHKZhKt_hhRiMhKQcdth2mu-Az05S3CdULdqZbnGmXWuo595bvoJi6RW0-xF8Etq0Ptfv7bsfyskYLhPIl13u7v7f3ZPCoc3BWMnq38EagdQp99C6RbMiLkrLoBVEhDgIZXeOfE7914brr32GTT5GhSna_yMHL8QwuLPi3ke2OazxE2MNQ","width":2048}],"place_id":"ChIJcQ4fbOCWvUcR_qSodRoioIo","plus_code":{"compound_code":"X7V5+2X Mainz, Germany","global_code":"8FXCX7V5+2X"},"rating":2.6,"reference":"ChIJcQ4fbOCWvUcR_qSodRoioIo","scope":"GOOGLE","types":["hospital","health","point_of_interest","establishment"],"user_ratings_total":304,"vicinity":"Langenbeckstraße 1, Mainz"},{"geometry":{"location":{"lat":50.11222739999999,"lng":8.6777619},"viewport":{"northeast":{"lat":50.11364733029149,"lng":8.678988230291502},"southwest":{"lat":50.11094936970849,"lng":8.676290269708497}}},"icon":"https://maps.gstatic.com/mapfiles/place_api/icons/generic_business-71.png","id":"e918eecd2c97418407ee9441ace815b75d106458","name":"Ärzte- und Laser- zentrum | Haarentfernung, Tattooentfernung","opening_hours":{"open_now":true},"photos":[{"height":700,"html_attributions":["<a href=\"https://maps.google.com/maps/contrib/109327348227176586728\">Ärzte- und Laser- zentrum | Haarentfernung, Tattooentfernung</a>"],"photo_reference":"CmRaAAAA4bpjE3upaObm3QVWga_5zPIPTdT43RTvOLKLzPyKpv0FvelzeXCTIjB-sbJ5ZgQU_KEKEIXrH9NnhH35J2nc2O2sWe6KuOyNUA_zmD6j0UTMj6jDmoAG3mITpSS6tn5JEhBJ3Rov04dw797xgtnEgcheGhQSLC8WEsNKD8zTjtCKpbZjFO3PBQ","width":1024}],"place_id":"ChIJRxy_IK8OvUcRh9KVakbwdno","plus_code":{"compound_code":"4M6H+V4 Frankfurt, Germany","global_code":"9F2C4M6H+V4"},"rating":4.7,"reference":"ChIJRxy_IK8OvUcRh9KVakbwdno","scope":"GOOGLE","types":["beauty_salon","hair_care","hospital","health","point_of_interest","establishment"],"user_ratings_total":82,"vicinity":"Roßmarkt 15, Frankfurt am Main"},{"geometry":{"location":{"lat":50.2344034,"lng":8.6191995},"viewport":{"northeast":{"lat":50.23567508029149,"lng":8.620163630291502},"southwest":{"lat":50.2329771197085,"lng":8.617465669708498}}},"icon":"https://maps.gstatic.com/mapfiles/place_api/icons/doctor-71.png","id":"acab8d537593c532d8a34b625e9953fe8bdeac3e","name":"Klinik Dr. Baum Stark GmbH","opening_hours":{"open_now":true},"photos":[{"height":1298,"html_attributions":["<a href=\"https://maps.google.com/maps/contrib/113613374905698412826\">Klinik Dr. Baumstark GmbH</a>"],"photo_reference":"CmRaAAAAj_0Ne3z3yGAgrffhYg4av0VpcGT8Sh3yXfTWq3G5vjByTwB2-cf7v5Edo4n1hyh5c4OdHQEvRDqcmq6AA7Vrf30DbQ5uaOT8rzJpqYGOYBhnMUcn-Vp12SBT7Qf5yHU6EhBV9jEjIuCkZGwgO7QvRXraGhSAgI0IHlnyii1MlNC8oIZEWiBk_w","width":2048}],"place_id":"ChIJE-D9550HvUcRovHzO48XCsw","plus_code":{"compound_code":"6JM9+QM Bad Homburg, Germany","global_code":"9F2C6JM9+QM"},"rating":4.3,"reference":"ChIJE-D9550HvUcRovHzO48XCsw","scope":"GOOGLE","types":["hospital","health","point_of_interest","establishment"],"user_ratings_total":26,"vicinity":"Viktoriaweg 18, Bad Homburg vor der Höhe"},{"geometry":{"location":{"lat":50.1319912,"lng":8.676524100000002},"viewport":{"northeast":{"lat":50.1334040302915,"lng":8.677863580291504},"southwest":{"lat":50.1307060697085,"lng":8.6751656197085}}},"icon":"https://maps.gstatic.com/mapfiles/place_api/icons/generic_business-71.png","id":"95331e49e40ec625332e1bb278904714a08d431c","name":"Gemeinschaftspraxis Adickesallee","place_id":"ChIJaZ8iZcsOvUcRMO-tKGXru9M","plus_code":{"compound_code":"4MJG+QJ Frankfurt, Germany","global_code":"9F2C4MJG+QJ"},"rating":3.2,"reference":"ChIJaZ8iZcsOvUcRMO-tKGXru9M","scope":"GOOGLE","types":["hospital","health","point_of_interest","establishment"],"user_ratings_total":6,"vicinity":"Adickesallee 51 - 53, Frankfurt am Main"},{"geometry":{"location":{"lat":50.2268105,"lng":8.616251199999999},"viewport":{"northeast":{"lat":50.2283154302915,"lng":8.617510330291502},"southwest":{"lat":50.2256174697085,"lng":8.614812369708497}}},"icon":"https://maps.gstatic.com/mapfiles/place_api/icons/generic_business-71.png","id":"9dac2e525bbe156a006bc225ca75984490e1e54b","name":"Kardiologische Praxis Dr. W. Jungmair","opening_hours":{"open_now":false},"photos":[{"height":284,"html_attributions":["<a href=\"https://maps.google.com/maps/contrib/100817734216716812483\">Clemens Jungmair</a>"],"photo_reference":"CmRaAAAAt1A1LioLQBlTD5mrHlqS-OePMxvT3MPR0otpkYir2JKxi15j20PgYmxL5Pz86tNVyNVf2LQgQYXBnRVKzyERj5zT43NdUAefAXBTZbsmAiqGVgTtMDNURKlJ9VUGjhPXEhBu7vC3J1KD9Wsi5txmBa97GhTYeHBasSE5x2LZ4IFW8z2xEcpIhg","width":425}],"place_id":"ChIJo94gzpAHvUcRlwuoNVhkSIk","plus_code":{"compound_code":"6JG8+PG Bad Homburg, Germany","global_code":"9F2C6JG8+PG"},"rating":5,"reference":"ChIJo94gzpAHvUcRlwuoNVhkSIk","scope":"GOOGLE","types":["hospital","doctor","health","point_of_interest","establishment"],"user_ratings_total":4,"vicinity":"Louisenstraße 63, Bad Homburg vor der Höhe"},{"geometry":{"location":{"lat":50.09038,"lng":8.44535},"viewport":{"northeast":{"lat":50.09180613029149,"lng":8.446310480291503},"southwest":{"lat":50.0891081697085,"lng":8.443612519708498}}},"icon":"https://maps.gstatic.com/mapfiles/place_api/icons/doctor-71.png","id":"8f981b7e2e619b9dc963a25b2002383fea4c097a","name":"Krankenhaus Hofheim","opening_hours":{"open_now":true},"photos":[{"height":3744,"html_attributions":["<a href=\"https://maps.google.com/maps/contrib/109993050138392833804\">Krankenhaus Hofheim</a>"],"photo_reference":"CmRaAAAAmzdF8ymbkajdamF0mWhMKReUX1bdMI5QmI_IrnQ_T-isn_j0jGqIZ2Abkht846IsirZdbSBaYCE8HlKG5jjw1U7Ox1ZnWD-QQrkgJ1KjCmcHlwLh3DJ3IzyieVRPdCUnEhDHSEZ94qMAsICr3RDAi9GKGhRADO4Rge-dHxbIMl9OfDB0iOe_IA","width":5616}],"place_id":"ChIJ02caHNejvUcRDUMzveLcQBA","plus_code":{"compound_code":"3CRW+54 Hofheim, Germany","global_code":"9F2C3CRW+54"},"rating":3,"reference":"ChIJ02caHNejvUcRDUMzveLcQBA","scope":"GOOGLE","types":["hospital","health","point_of_interest","establishment"],"user_ratings_total":30,"vicinity":"Lindenstraße 10, Hofheim am Taunus"},{"geometry":{"location":{"lat":50.1481949,"lng":8.6706465},"viewport":{"northeast":{"lat":50.1495617802915,"lng":8.672120630291502},"southwest":{"lat":50.14686381970851,"lng":8.669422669708498}}},"icon":"https://maps.gstatic.com/mapfiles/place_api/icons/doctor-71.png","id":"6362a6eea4c50785c662238bddf5dc88db4e5c2f","name":"Herr Priv. Doz. Dr. med. Sven Ackermann","place_id":"ChIJ3yYLCmJwvUcR9iK6ZgAhCx0","plus_code":{"compound_code":"4MXC+77 Frankfurt, Germany","global_code":"9F2C4MXC+77"},"reference":"ChIJ3yYLCmJwvUcR9iK6ZgAhCx0","scope":"GOOGLE","types":["hospital","health","point_of_interest","establishment"],"vicinity":"Grafenstraße 9, Darmstadt-Mitte"},{"geometry":{"location":{"lat":49.74323159999999,"lng":8.1310789},"viewport":{"northeast":{"lat":49.7445544302915,"lng":8.132421780291502},"southwest":{"lat":49.7418564697085,"lng":8.129723819708497}}},"icon":"https://maps.gstatic.com/mapfiles/place_api/icons/doctor-71.png","id":"0d20140a99146c6c1bab909241f4dab18772cbaa","name":"Rheinhessen-Fachklinik Alzey","opening_hours":{"open_now":true},"photos":[{"height":1504,"html_attributions":["<a href=\"https://maps.google.com/maps/contrib/109953636151765983675\">Rheinhessen-Fachklinik Alzey</a>"],"photo_reference":"CmRaAAAAwt9bBF9uO2jeUQxwy83u8MCCkzQ5QDY9r2k-nos7x7Pxslk3abRwDvF755nEG3Z7KdxiZAClH4CVZdbGG0mbYOciN44UdLtrPb0AKsXrD15sAMCNwDy9jiZKe6ILxmUlEhBjPIEmzckLKPft0WTiYmFuGhSsWFVQX-vwj_idrehCyXeQX_9dTw","width":2256}],"place_id":"ChIJkdZzegOKvUcRV9Q-dGLWTYU","plus_code":{"compound_code":"P4VJ+7C Alzey, Germany","global_code":"8FXCP4VJ+7C"},"rating":2.7,"reference":"ChIJkdZzegOKvUcRV9Q-dGLWTYU","scope":"GOOGLE","types":["hospital","health","point_of_interest","establishment"],"user_ratings_total":42,"vicinity":"Dautenheimer Landstraße 66, Alzey"},{"geometry":{"location":{"lat":49.87739699999999,"lng":8.6646741},"viewport":{"northeast":{"lat":49.8788175302915,"lng":8.665906830291501},"southwest":{"lat":49.8761195697085,"lng":8.663208869708496}}},"icon":"https://maps.gstatic.com/mapfiles/place_api/icons/doctor-71.png","id":"99252ebbd5c4db6696d382b5bc16519d5f3ead9e","name":"Alice-Hospital Darmstadt","opening_hours":{"open_now":true},"photos":[{"height":1018,"html_attributions":["<a href=\"https://maps.google.com/maps/contrib/114212511388087088850\">Alice-Hospital Darmstadt</a>"],"photo_reference":"CmRaAAAAGzwIAgk0zuKbll704Ce69XBZBR3a-fa2H1UItSqGC8MllAaQaU-EI6dShHV1OpQyJI2bveSyHIjVwVchAk8PDQOYe1lKdW7J6k7FJKPKbL7IhEuKlKKHxmvjszIn95S4EhBXLtKCuTJuUIrL2dRFC1tvGhR9Vdj_wE_aCReAe2PfRmhca_TO0w","width":1871}],"place_id":"ChIJGRRRCWlwvUcRqk8sFDp6qMU","plus_code":{"compound_code":"VMG7+XV Darmstadt, Germany","global_code":"8FXCVMG7+XV"},"rating":3.5,"reference":"ChIJGRRRCWlwvUcRqk8sFDp6qMU","scope":"GOOGLE","types":["hospital","health","point_of_interest","establishment"],"user_ratings_total":117,"vicinity":"Dieburger Straße 31, Darmstadt"}]