[{"geometry":{"location":{"lat":49.46401239999999,"lng":8.471240199999999},"viewport":{"northeast":{"lat":49.46569493029149,"lng":8.472681850000003},"southwest":{"lat":49.46299696970849,"lng":8.468414050000002}}},"icon":"https://maps.gstatic.com/mapfiles/place_api/icons/doctor-71.png","id":"b31a6bee254718d7e61e2b50b532562203cc5b82","name":"Diakonissenkrankenhaus Mannheim","opening_hours":{"open_now":true},"photos":[{"height":3024,"html_attributions":["<a href=\"https://maps.google.com/maps/contrib/112868928109070934814\">Candy on Tour</a>"],"photo_reference":"CmRaAAAAv1k6HXI6ORvEmQPoycUqu1c7RZZUgzXVt82GiwOCnRI7uncQQvZKeawsPHGlod9Vbz70_XtqzNtEyQmWjAW_3kzyAPuLFPGc3Anzk69xO2cWEEiwoRP0FG9ex23Q8bgKEhCbaNhuHc1aJ5WOdPZM09v0GhS9NKpdUpbLVDjtNa4xsqHfDRFKJg","width":4032}],"place_id":"ChIJgZH0karOl0cRM8Qs1s01RP8","plus_code":{"compound_code":"FF7C+JF Mannheim, Germany","global_code":"8FXCFF7C+JF"},"rating":3.1,"reference":"ChIJgZH0karOl0cRM8Qs1s01RP8","scope":"GOOGLE","types":["hospital","health","point_of_interest","establishment"],"user_ratings_total":141,"vicinity":"Speyerer Straße 91-93, Mannheim"},{"geometry":{"location":{"lat":49.4923704,"lng":8.487509899999997},"viewport":{"northeast":{"lat":49.49468979999999,"lng":8.492011249999997},"southwest":{"lat":49.48947580000001,"lng":8.48465665}}},"icon":"https://maps.gstatic.com/mapfiles/place_api/icons/doctor-71.png","id":"c36fde29dd7993bc83967478c7b3d6ea4efd4534","name":"Universitätsklinik Mannheim","opening_hours":{"open_now":true},"photos":[{"height":3462,"html_attributions":["<a href=\"https://maps.google.com/maps/contrib/100966854002108108017\">Timur Matsiev</a>"],"photo_reference":"CmRaAAAAek0lhcOwqgGJwRZzmdJaSfzlCWUAXgF85ZqCwgOLlF4D_uHKBGAxfO5Z__k9W5_GSJriwLvR24Sgu-ud9Ys5EL9V-Fg8gAeJcJIRXI6f3PYz3h50-fWvgYzbClLNFOy1EhB2NTOhYHyVcZW_Nsqwm2RPGhQhP81yqbNhtfzEZu8_UzwlZCNiMg","width":4620}],"place_id":"ChIJXcqghJrOl0cRuy9-J2UKmgs","plus_code":{"compound_code":"FFRQ+W2 Mannheim, Germany","global_code":"8FXCFFRQ+W2"},"rating":2.8,"reference":"ChIJXcqghJrOl0cRuy9-J2UKmgs","scope":"GOOGLE","types":["hospital","health","point_of_interest","establishment"],"user_ratings_total":354,"vicinity":"Theodor-Kutzer-Ufer 1-3, Mannheim"},{"geometry":{"location":{"lat":49.5422342,"lng":8.3312019},"viewport":{"northeast":{"lat":49.5434699802915,"lng":8.332623380291501},"southwest":{"lat":49.5407720197085,"lng":8.329925419708497}}},"icon":"https://maps.gstatic.com/mapfiles/place_api/icons/doctor-71.png","id":"4d3c647c9cdfa02aeb2ca29dd8168dc3ad9d67af","name":"Stadtklinik Frankenthal","opening_hours":{"open_now":true},"photos":[{"height":3693,"html_attributions":["<a href=\"https://maps.google.com/maps/contrib/105814948567031614157\">T. Петрович</a>"],"photo_reference":"CmRaAAAAseGwm5EpMNA8CIxAZKmI-Sydf_fDCUQl9Wpp7XGiFfvZ57jlyrTNJTcOb4DJSTgRF_DqfEXEi3yE9xNp8H8bwBiMQrD1H7LIH3kWlmCch5aQJKmUnPWF4H2vvA91uzqREhCojZwIEIjebHRg7ll_gDQgGhTgBpaslE1m4t_yqvbPEJB26A1yRg","width":5539}],"place_id":"ChIJx1rGgmQylkcRLdW8m6mADzE","plus_code":{"compound_code":"G8RJ+VF Frankenthal, Germany","global_code":"8FXCG8RJ+VF"},"rating":2.5,"reference":"ChIJx1rGgmQylkcRLdW8m6mADzE","scope":"GOOGLE","types":["hospital","health","point_of_interest","establishment"],"user_ratings_total":100,"vicinity":"Elsa-Brändström-Straße 1, Frankenthal"},{"geometry":{"location":{"lat":49.4212688,"lng":8.6816539},"viewport":{"northeast":{"lat":49.42273738029149,"lng":8.6830253802915},"southwest":{"lat":49.42003941970849,"lng":8.680327419708497}}},"icon":"https://maps.gstatic.com/mapfiles/place_api/icons/doctor-71.png","id":"645e6254194484c3f44a3603fa8a45fc5e6920bc","name":"Klinik Sankt Elisabeth","opening_hours":{"open_now":true},"photos":[{"height":2160,"html_attributions":["<a href=\"https://maps.google.com/maps/contrib/102010804359231087374\">Thomas Freund</a>"],"photo_reference":"CmRaAAAAAvYNPOT0ar8lmyP8cR9yIsLrt_Lgx3mWz9F7dthpuuaFHTjXtWXbJf8uoP9nAoN9qVxm00qcyZj_Zq_Wuv75jYABbIk1wlxpjnB_r0ea1o10c4jh5GetLCh7gORYvRJOEhAIEV_43Z67kONAJp7RytnvGhQhxyPEmL1A3xgH4C5EsSimLxf8hw","width":3840}],"place_id":"ChIJDwdb5zvBl0cR0xMNVb4LsbA","plus_code":{"compound_code":"CMCJ+GM Heidelberg, Germany","global_code":"8FXCCMCJ+GM"},"rating":4.5,"reference":"ChIJDwdb5zvBl0cR0xMNVb4LsbA","scope":"GOOGLE","types":["hospital","doctor","health","point_of_interest","establishment"],"user_ratings_total":88,"vicinity":"Max-Reger-Straße 5-7, Heidelberg"},{"geometry":{"location":{"lat":49.4861982,"lng":8.3890535},"viewport":{"northeast":{"lat":49.4874101302915,"lng":8.390314180291503},"southwest":{"lat":49.4847121697085,"lng":8.387616219708498}}},"icon":"https://maps.gstatic.com/mapfiles/place_api/icons/doctor-71.png","id":"061cb432848992e6089a45ce8c841c4460263bff","name":"Berufsgenossenschaftliche Unfallklinik Ludwigshafen","opening_hours":{"open_now":true},"photos":[{"height":312,"html_attributions":["<a href=\"https://maps.google.com/maps/contrib/107253094092551786508\">BG Klinik Ludwigshafen</a>"],"photo_reference":"CmRaAAAA92TOK5ZHVd7W3IUL7mV9ZEXEgRJ-X5JPBtg_lT1R41lwZuVasOkpXVYtOB8qZFYHyNXG7LWubJnB6-F-5Xlb1YcExMdRu0NN_j-2T57YWROcnbxhPy8e7z0tL5l2nvHvEhA4wsgpLMxPxvWNhHJEzuIvGhS_zKkd5ZjTzXdzCefC7RTu3huLJA","width":830}],"place_id":"ChIJtWU3prnMl0cR4p5M5t1B0qA","plus_code":{"compound_code":"F9PQ+FJ Ludwigshafen, Germany","global_code":"8FXCF9PQ+FJ"},"rating":3.3,"reference":"ChIJtWU3prnMl0cR4p5M5t1B0qA","scope":"GOOGLE","types":["hospital","health","point_of_interest","establishment"],"user_ratings_total":181,"vicinity":"Ludwig-Guttmann-Straße 13, Ludwigshafen am Rhein"},{"geometry":{"location":{"lat":49.56439719999999,"lng":8.158264899999999},"viewport":{"northeast":{"lat":49.5657235802915,"lng":8.159668280291502},"southwest":{"lat":49.5630256197085,"lng":8.156970319708497}}},"icon":"https://maps.gstatic.com/mapfiles/place_api/icons/doctor-71.png","id":"9373823ebb7577511d194a9136e45b04f3774fa9","name":"Kreiskrankenhaus Grünstadt","opening_hours":{"open_now":true},"photos":[{"height":3024,"html_attributions":["<a href=\"https://maps.google.com/maps/contrib/114446953040484469464\">Bernd Korz</a>"],"photo_reference":"CmRaAAAAqjAXHDhSy_HV4YMB9_Co7xHBCkTOhhY5nozRE5ozZ8snZ9Wsj3MmojP4r0noSvn8Q8OuHF0u_mevUdH7Swutbegiowr_96D-lm3OKIsYSMF97Q-H0zChWtWESr9U5UMOEhBZ0vkoiZ6iE-SSpVF1_QMOGhR3dE9LkZZTGId3UNf81A3vNFSUjw","width":4032}],"place_id":"ChIJq4-bmcs6lkcRpGq1VbjZhC8","plus_code":{"compound_code":"H575+Q8 Grünstadt, Germany","global_code":"8FXCH575+Q8"},"rating":3.7,"reference":"ChIJq4-bmcs6lkcRpGq1VbjZhC8","scope":"GOOGLE","types":["hospital","health","point_of_interest","establishment"],"user_ratings_total":117,"vicinity":"Westring 55, Grünstadt"},{"geometry":{"location":{"lat":49.482111,"lng":8.449881999999999},"viewport":{"northeast":{"lat":49.4834179302915,"lng":8.451114680291502},"southwest":{"lat":49.4807199697085,"lng":8.448416719708497}}},"icon":"https://maps.gstatic.com/mapfiles/place_api/icons/doctor-71.png","id":"bf3524207d45651a0543f24fd89e1f799bf6b2df","name":"Center for Nature and Medicine","opening_hours":{"open_now":false},"photos":[{"height":1348,"html_attributions":["<a href=\"https://maps.google.com/maps/contrib/101925719478728848861\">Bernd Schwőbel</a>"],"photo_reference":"CmRaAAAAQ7zeCplCEflnPmTqRtaZZ3RyjxAjo30ghQpUmtHwT7q9ThOW35TWvK2PnvVZ7_3y6vFT1jWmuOQM1AsokPQyKXB2GzBsffyxd4w4qPsbe5JxXvE1h2hkDgdVQixYL_T5EhAMiO32qK1iXkqNrtzjgcr4GhRh1q04FChWOexJi4Yi6CNcnF0bWA","width":1011}],"place_id":"ChIJp1cK1hTMl0cRf-W9k2McwHg","plus_code":{"compound_code":"FCJX+RX Ludwigshafen, Germany","global_code":"8FXCFCJX+RX"},"rating":3.8,"reference":"ChIJp1cK1hTMl0cRf-W9k2McwHg","scope":"GOOGLE","types":["hospital","health","point_of_interest","establishment"],"user_ratings_total":4,"vicinity":"Ludwigstraße 30, Ludwigshafen am Rhein"},{"geometry":{"location":{"lat":49.5495004,"lng":8.6445554},"viewport":{"northeast":{"lat":49.5507027302915,"lng":8.645915030291505},"southwest":{"lat":49.5480047697085,"lng":8.6432170697085}}},"icon":"https://maps.gstatic.com/mapfiles/place_api/icons/doctor-71.png","id":"b359480a8a3ea73de13c862e987eb86bf56f141e","name":"GRN-Klinik Weinheim","opening_hours":{"open_now":true},"photos":[{"height":2400,"html_attributions":["<a href=\"https://maps.google.com/maps/contrib/101925719478728848861\">Bernd Schwőbel</a>"],"photo_reference":"CmRaAAAAjQAtq8OdwbZ2AACzyBNeAsJ4mkxveWBPh-4-zeRt0pq7olVcrkPaPixUDAI1ymPIOmf6aUpvPDABGgAEMJWzkJU0LHLlwZXCJY5xRuOOv6LqHQru0n5x03D7RT6RilQEEhAwVfpv_voWAusaZu_ojD0oGhSiea_zdVXE8nJZGEaYgpGZ6XmuVw","width":4261}],"place_id":"ChIJvXQq0t3al0cRorcIaZzFNEg","plus_code":{"compound_code":"GJXV+RR Weinheim, Germany","global_code":"8FXCGJXV+RR"},"rating":2.9,"reference":"ChIJvXQq0t3al0cRorcIaZzFNEg","scope":"GOOGLE","types":["hospital","health","point_of_interest","establishment"],"user_ratings_total":78,"vicinity":"Röntgenstraße 1, Weinheim"},{"geometry":{"location":{"lat":49.682221,"lng":8.625261},"viewport":{"northeast":{"lat":49.6835189302915,"lng":8.626646680291504},"southwest":{"lat":49.6808209697085,"lng":8.6239487197085}}},"icon":"https://maps.gstatic.com/mapfiles/place_api/icons/generic_business-71.png","id":"e5ad089f1e55717491b28aab7a338cbdc1ddec0a","name":"ENT Group Practice Dr. S. El-Bitar and Dr. H. Knoch","photos":[{"height":493,"html_attributions":["<a href=\"https://maps.google.com/maps/contrib/115789461705967426070\">HNO-Praxis Dr. med. Samir El-Bitar und Dr. med. Hans Knoch</a>"],"photo_reference":"CmRaAAAAANkJpDI6ZqiQ9qVObEaMWHLFgTFGVEcfYkjF0FdYwxSTvJEWR-0EQtVhs17QO71MeYoxFJlFnSEljbhT7U8DdlKR10oZhDNymCdcFEU4SrHqAXzdchMEo7ZZ3UYKKuRlEhCTS9RIc_2y30PeX1ZRl_QUGhTnRF2R0mn6bmNPntTrXaGZ_eyGbw","width":800}],"place_id":"ChIJh1PW1-3Xl0cR29Nnhfgqoxs","plus_code":{"compound_code":"MJJG+V4 Bensheim, Germany","global_code":"8FXCMJJG+V4"},"rating":4.2,"reference":"ChIJh1PW1-3Xl0cR29Nnhfgqoxs","scope":"GOOGLE","types":["hospital","doctor","health","point_of_interest","establishment"],"user_ratings_total":46,"vicinity":"Nibelungenstraße 26, Bensheim"},{"geometry":{"location":{"lat":49.8748746,"lng":8.646442700000001},"viewport":{"northeast":{"lat":49.87634183029149,"lng":8.649056749999998},"southwest":{"lat":49.87364386970849,"lng":8.64557135}}},"icon":"https://maps.gstatic.com/mapfiles/place_api/icons/doctor-71.png","id":"63fe7d741e53900c95a5e1b0a86b96a189ae7ecf","name":"Klinikum Darmstadt","opening_hours":{"open_now":true},"photos":[{"height":3024,"html_attributions":["<a href=\"https://maps.google.com/maps/contrib/100192839614017675302\">Reinhard Mohr</a>"],"photo_reference":"CmRaAAAAcyAr9bjG1wC1PASRXQQf3mdGG3fhNKA9gfHn_Zw-LH5UC6c5hmVRLZG_5fYkak4wLYuchjMydqLGs4lasQWvueKvVboIJm2rLcuoTtxzFQMTzrqI_YQoc_5tzbB6FgxkEhDzZKIKKXYvaQzrEbGMLuOpGhSFVLRzXihZITiC2WpeAQyh6EGprA","width":4032}],"place_id":"ChIJ3yYLCmJwvUcR_khM4YtppRQ","plus_code":{"compound_code":"VJFW+WH Darmstadt, Germany","global_code":"8FXCVJFW+WH"},"rating":2.2,"reference":"ChIJ3yYLCmJwvUcR_khM4YtppRQ","scope":"GOOGLE","types":["hospital","health","point_of_interest","establishment"],"user_ratings_total":345,"vicinity":"Grafenstraße 9, Darmstadt"},{"geometry":{"location":{"lat":49.3465222,"lng":8.1499007},"viewport":{"northeast":{"lat":49.3479359802915,"lng":8.151269930291503},"southwest":{"lat":49.3452380197085,"lng":8.148571969708499}}},"icon":"https://maps.gstatic.com/mapfiles/place_api/icons/doctor-71.png","id":"d1bdb9971a62ab3b248b957c69da5e12eb39f69c","name":"Marienhaus Klinikum Hetzelstift Neustadt/Weinstrasse","opening_hours":{"open_now":false},"photos":[{"height":3264,"html_attributions":["<a href=\"https://maps.google.com/maps/contrib/109002963534689575372\">Diether Eckert</a>"],"photo_reference":"CmRaAAAA9CDQLXgflirVmDmw37O1kXoukS9szzXzG8UQCAbr-R399jbpu7WB2xSZ-PSg8ACWTXuli87iGD7uwQC6XGLbBdLsxMDKRpwLc_OJ3sY1774zYHeOLgzCO8DQ8bmD2VxEEhAtZtopB1hR9S_g3sE23KMBGhTAHc-NetlJNvIekqRTAbAc-ZFg8w","width":2448}],"place_id":"ChIJlVGavpRIlkcRIB6yOnpF1y0","plus_code":{"compound_code":"84WX+JX Neustadt, Germany","global_code":"8FXC84WX+JX"},"rating":3.2,"reference":"ChIJlVGavpRIlkcRIB6yOnpF1y0","scope":"GOOGLE","types":["hospital","health","point_of_interest","establishment"],"user_ratings_total":38,"vicinity":"Stiftstraße 10, Neustadt an der Weinstraße"},{"geometry":{"location":{"lat":49.4897331,"lng":8.4814343},"viewport":{"northeast":{"lat":49.4908373802915,"lng":8.482629880291501},"southwest":{"lat":49.4881394197085,"lng":8.479931919708497}}},"icon":"https://maps.gstatic.com/mapfiles/place_api/icons/doctor-71.png","id":"56e95bbe18a4ad24a1cbf1e93e78404c5a87370f","name":"Theresienkrankenhaus Mannheim","opening_hours":{"open_now":true},"photos":[{"height":1461,"html_attributions":["<a href=\"https://maps.google.com/maps/contrib/100574029852017319544\">Theresienkrankenhaus Mannheim</a>"],"photo_reference":"CmRaAAAAZVvf2BwgONMmJCHlyv560pmgVdnxKxCS7GvCbmniHO4370yMx1vx3yHOZ7Yn0X1PB7hODylAq4iDOlb7FBpOte5mfd94902e307o08pwL5sFHaYxhAOoXaF0ykOHkpFuEhCwmeRKOh7MXYYU9Q2BGngHGhS9mgMret-fKceuqxZcxEI_Mg669w","width":2048}],"place_id":"ChIJiS6jXJzOl0cRyr6LUYNhWDY","plus_code":{"compound_code":"FFQJ+VH Mannheim, Germany","global_code":"8FXCFFQJ+VH"},"rating":3.3,"reference":"ChIJiS6jXJzOl0cRyr6LUYNhWDY","scope":"GOOGLE","types":["hospital","health","point_of_interest","establishment"],"user_ratings_total":147,"vicinity":"Bassermannstraße 1, Mannheim"},{"geometry":{"location":{"lat":49.4577451,"lng":8.408709000000002},"viewport":{"northeast":{"lat":49.45944933029149,"lng":8.409841280291504},"southwest":{"lat":49.4567513697085,"lng":8.4071433197085}}},"icon":"https://maps.gstatic.com/mapfiles/place_api/icons/doctor-71.png","id":"5ce6b5e1232d3dfb09295eb4d9e430cd1dbf2f5f","name":"St. Marienkrankenhaus","opening_hours":{"open_now":true},"photos":[{"height":3464,"html_attributions":["<a href=\"https://maps.google.com/maps/contrib/102010804359231087374\">Thomas Freund</a>"],"photo_reference":"CmRaAAAAgrvwCX8bkHbf_kqAxO1ZiQRXaf1J8YiMpIq0YKLTt0hdNyZpfx42KyjeRx2c1zWQIPwX9oxJTw5KOT4d0Z71DS7afWPoq_hGkewRKHinGBzKgyrrHpemiS12ZoguHdtgEhBREYZd-99YgnIVnVIYyen1GhRx--E0Vq-orUFeqe-aieK0iOscqg","width":4618}],"place_id":"ChIJlS6rMnrLl0cRKIUiHltQVDI","plus_code":{"compound_code":"FC55+3F Ludwigshafen, Germany","global_code":"8FXCFC55+3F"},"rating":3.3,"reference":"ChIJlS6rMnrLl0cRKIUiHltQVDI","scope":"GOOGLE","types":["hospital","health","point_of_interest","establishment"],"user_ratings_total":110,"vicinity":"Salzburger Straße 15, Ludwigshafen am Rhein"},{"geometry":{"location":{"lat":49.678329,"lng":8.620415999999997},"viewport":{"northeast":{"lat":49.67960033029149,"lng":8.6217864302915},"southwest":{"lat":49.67690236970849,"lng":8.619088469708496}}},"icon":"https://maps.gstatic.com/mapfiles/place_api/icons/doctor-71.png","id":"d878165c3e797df4381121d50d9fa2592dc73bf5","name":"Heilig Geist Hospital","opening_hours":{"open_now":true},"photos":[{"height":1363,"html_attributions":["<a href=\"https://maps.google.com/maps/contrib/115559961307746324719\">Heilig Geist Hospital</a>"],"photo_reference":"CmRaAAAAzVmsGJgcY9edh0lIzS5la46fxeXUjZMPYNL1EOv4IB-MCOni8YXmV9h7vqpqDYl5vW7xhLPwLJtNRc1Ho_xlPAex_bK8iFgzgbVHTFVnIXlHra_F01w5DDei6hsfo-zEEhC9RHSSIG3Tr4mIT-qW6ACcGhRPn-xT6uuJ3o8_fOCKl8YxbU_HUA","width":2048}],"place_id":"ChIJMZjolezXl0cRx1I-oR_Fy6I","plus_code":{"compound_code":"MJHC+85 Bensheim, Germany","global_code":"8FXCMJHC+85"},"rating":4,"reference":"ChIJMZjolezXl0cRx1I-oR_Fy6I","scope":"GOOGLE","types":["hospital","health","point_of_interest","establishment"],"user_ratings_total":78,"vicinity":"Rodensteinstraße 94, Bensheim"},{"geometry":{"location":{"lat":49.3778887,"lng":8.690152},"viewport":{"northeast":{"lat":49.37886173029149,"lng":8.691327530291503},"southwest":{"lat":49.3761637697085,"lng":8.688629569708498}}},"icon":"https://maps.gstatic.com/mapfiles/place_api/icons/doctor-71.png","id":"64881b1c69ac2a1fa395bf28d2be0abfd0a528ae","name":"Universitätsklinikum Heidelberg Thorax Clinic Heidelberg","opening_hours":{"open_now":true},"photos":[{"height":2448,"html_attributions":["<a href=\"https://maps.google.com/maps/contrib/102010804359231087374\">Thomas Freund</a>"],"photo_reference":"CmRaAAAAP7x0GtNDPzzSmnSAr2nY6nUnRuJS1GzKLSYCObJtUhTPdUQrYy0BLTX_efS3O33S9RDFSxQEp0JEhEK9wwK_q54zSwnrAT7QnJJ9-eR1abNZqou2SrSvpLkrkRlh4RVrEhBfQb2Hnq48kLBscZs7WiVpGhQBrJizPDJHgPXIbSb5yb3AHI2N6Q","width":3264}],"place_id":"ChIJ5XL50ZHAl0cRgW0rtksbUVQ","plus_code":{"compound_code":"9MHR+53 Heidelberg, Germany","global_code":"8FXC9MHR+53"},"rating":4.2,"reference":"ChIJ5XL50ZHAl0cRgW0rtksbUVQ","scope":"GOOGLE","types":["hospital","health","point_of_interest","establishment"],"user_ratings_total":65,"vicinity":"Röntgenstraße 1, Heidelberg"},{"geometry":{"location":{"lat":49.4135074,"lng":8.653775799999998},"viewport":{"northeast":{"lat":49.4150133302915,"lng":8.6550592802915},"southwest":{"lat":49.4123153697085,"lng":8.652361319708497}}},"icon":"https://maps.gstatic.com/mapfiles/place_api/icons/doctor-71.png","id":"d44ccfa3ec91c3ce1895562cdaccf776b77cfc95","name":"SRH Kurpfalz Hospital Heidelberg GmbH","opening_hours":{"open_now":true},"photos":[{"height":2048,"html_attributions":["<a href=\"https://maps.google.com/maps/contrib/116676503677612451975\">Uwe Kaufmann</a>"],"photo_reference":"CmRaAAAAi0ucBilZpdO9HXRNlcACykOAditD8f4fqzEsa0C2d8Cj6xMBqpFo2JTZmBbPUhjb9rbB12_5ejmf5Q1x0KPL8YC1kT6tufelXnWZmcbQkL_NPlvnFlx--FRZJ1oBnClhEhAkR6rX15d6kDB1yUzYQoc1GhSqiBxgCEK9WyecJe4Vox3ep1vX1w","width":2048}],"place_id":"ChIJtxpSStHGl0cRZP35gMvnZxM","plus_code":{"compound_code":"CM73+CG Heidelberg, Germany","global_code":"8FXCCM73+CG"},"rating":3.8,"reference":"ChIJtxpSStHGl0cRZP35gMvnZxM","scope":"GOOGLE","types":["hospital","health","point_of_interest","establishment"],"user_ratings_total":22,"vicinity":"Bonhoefferstraße 5, Heidelberg"},{"geometry":{"location":{"lat":49.41844,"lng":8.666392000000002},"viewport":{"northeast":{"lat":49.4197889802915,"lng":8.667740980291503},"southwest":{"lat":49.4170910197085,"lng":8.665043019708499}}},"icon":"https://maps.gstatic.com/mapfiles/place_api/icons/generic_business-71.png","id":"9090311c3f824e6d12cd2e0133ddc21bd81b6870","name":"Kopfklinik","opening_hours":{"open_now":true},"photos":[{"height":1321,"html_attributions":["<a href=\"https://maps.google.com/maps/contrib/117403301076126564127\">Kliniken Tel</a>"],"photo_reference":"CmRaAAAA716q27R3t0uMypAFhGvKPIGu365c0GLM2AlfLLoqDg411nxjTiACoIYJJ6Kcth3hoNj1HhlhpnaqJLSr8BS6DzVPVilNyrFcWBXFbjsH7iwNLJL-BsAnEJmI5fYBclD8EhDPIfscGA__DLcG0Oe6Gu8UGhTNKv4NEqkmzwxjFotVK8hWkD72Rg","width":2350}],"place_id":"ChIJvaY6ijLBl0cRrG_5uenGOm8","plus_code":{"compound_code":"CM98+9H Heidelberg, Germany","global_code":"8FXCCM98+9H"},"rating":3,"reference":"ChIJvaY6ijLBl0cRrG_5uenGOm8","scope":"GOOGLE","types":["hospital","health","point_of_interest","establishment"],"user_ratings_total":139,"vicinity":"Im Neuenheimer Feld 400, Heidelberg"},{"geometry":{"location":{"lat":49.49400300000001,"lng":8.486792099999999},"viewport":{"northeast":{"lat":49.4952107802915,"lng":8.488224780291503},"southwest":{"lat":49.4925128197085,"lng":8.485526819708499}}},"icon":"https://maps.gstatic.com/mapfiles/place_api/icons/generic_business-71.png","id":"3c1189fd6d8575dc196acab61a6b88b5e2328116","name":"Klinik für Dermatologie, Venerologie und Allergologie, Universitätsklinikum Mannheim","opening_hours":{"open_now":false},"place_id":"ChIJXcqghJrOl0cRFsByv6337ms","plus_code":{"compound_code":"FFVP+JP Mannheim, Germany","global_code":"8FXCFFVP+JP"},"rating":2.2,"reference":"ChIJXcqghJrOl0cRFsByv6337ms","scope":"GOOGLE","types":["hospital","doctor","health","point_of_interest","establishment"],"user_ratings_total":25,"vicinity":"Klinik für Dermatologie, Venerologie und Allergologie, Theodor-Kutzer-Ufer 1-3, Mannheim"},{"geometry":{"location":{"lat":49.4233007,"lng":8.684198899999998},"viewport":{"northeast":{"lat":49.4247147302915,"lng":8.685782080291501},"southwest":{"lat":49.4220167697085,"lng":8.683084119708496}}},"icon":"https://maps.gstatic.com/mapfiles/place_api/icons/doctor-71.png","id":"3c8673facc1a3fec04dd8b00eefe64fd625f3b15","name":"Krankenhaus Salem","opening_hours":{"open_now":true},"photos":[{"height":2736,"html_attributions":["<a href=\"https://maps.google.com/maps/contrib/115722754032427177160\">Thomas Enkler</a>"],"photo_reference":"CmRaAAAA3R02javRS2J533ieAbFL7YsH9OgPWTx3F7noKBjwrJZcXOhKI_nM-Vdsw9I0hyeBCqKdupAwQFrINkjksUfNOMfLZsEu0cPBkZtztUmnZDH8oMnef7cBgw-Y9-KIWLeZEhC-vhPPlT4y6ztp3QwllwVIGhTSt7AavNlhP-OXWNJOXHtYkun68g","width":3648}],"place_id":"ChIJnVzV0T7Bl0cRiyIEdMj9rgE","plus_code":{"compound_code":"CMFM+8M Heidelberg, Germany","global_code":"8FXCCMFM+8M"},"rating":3.8,"reference":"ChIJnVzV0T7Bl0cRiyIEdMj9rgE","scope":"GOOGLE","types":["hospital","health","point_of_interest","establishment"],"user_ratings_total":83,"vicinity":"Zeppelinstraße 11-33, Heidelberg"},{"geometry":{"location":{"lat":49.6496782,"lng":8.320064499999999},"viewport":{"northeast":{"lat":49.6511183302915,"lng":8.3216411802915},"southwest":{"lat":49.6484203697085,"lng":8.318943219708496}}},"icon":"https://maps.gstatic.com/mapfiles/place_api/icons/doctor-71.png","id":"fac0104012a82237abca151595c483363167d564","name":"Klinikum Worms","opening_hours":{"open_now":true},"photos":[{"height":2322,"html_attributions":["<a href=\"https://maps.google.com/maps/contrib/115124240521693754335\">Erik Herrmann</a>"],"photo_reference":"CmRaAAAAMZizK5-0Y2N6PCULjy5XsX1ujgMi-w3xRvoWkHSG2v9lTyT86mApcTLjnxxWxHhe_fQ58fKPZ0nELii39H1Ppo7_GrZpv83QHz4LUDKrLKj0FEFW02Oj8mCtIGIf1XNjEhBRtmMsUOx5IDf7EsEIWudwGhTivvCH-YR6mqXX7bnMojYg1nItMw","width":4128}],"place_id":"ChIJmfqL6uIrlkcRNCeLgU2bgvE","plus_code":{"compound_code":"J8XC+V2 Worms, Germany","global_code":"8FXCJ8XC+V2"},"rating":2.5,"reference":"ChIJmfqL6uIrlkcRNCeLgU2bgvE","scope":"GOOGLE","types":["hospital","health","point_of_interest","establishment"],"user_ratings_total":167,"vicinity":"Gabriel-von-Seidl-Straße 81, Worms"}]