[{"geometry":{"location":{"lat":51.0630531,"lng":13.7608048},"viewport":{"northeast":{"lat":51.0644432802915,"lng":13.7620145802915},"southwest":{"lat":51.0617453197085,"lng":13.7593166197085}}},"icon":"https://maps.gstatic.com/mapfiles/place_api/icons/doctor-71.png","id":"7b94a0b1c75b78ecc87d2a66f0a90e47b800415c","name":"Diakonissenkrankenhaus Dresden","opening_hours":{"open_now":true},"photos":[{"height":1315,"html_attributions":["<a href=\"https://maps.google.com/maps/contrib/105024168286985912661\">Diakonissenkrankenhaus Dresden</a>"],"photo_reference":"CmRaAAAADq2y72va8N4aEHqcv_Kq8ha6sYkatmfxsWerstlOiv4YHhvk34BM2WvbQ_tmFXd8I9wJWGyyVae2dnDD41plIu759rPDzU9jMZYPEasDJaEaUbfMVCvo_3lR3w48fSijEhB8BNFF7om3W7jPbR8aBQMkGhQpYs072EanYPMbStK2FA02yXfzTg","width":2048}],"place_id":"ChIJ31ubfDfPCUcReuVA0hshb_w","plus_code":{"compound_code":"3Q76+68 Dresden, Germany","global_code":"9F3M3Q76+68"},"rating":4.3,"reference":"ChIJ31ubfDfPCUcReuVA0hshb_w","scope":"GOOGLE","types":["hospital","health","point_of_interest","establishment"],"user_ratings_total":113,"vicinity":"Holzhofgasse 29, Dresden"},{"geometry":{"location":{"lat":51.0544932,"lng":13.7765193},"viewport":{"northeast":{"lat":51.0558765302915,"lng":13.7784781302915},"southwest":{"lat":51.0531785697085,"lng":13.7757801697085}}},"icon":"https://maps.gstatic.com/mapfiles/place_api/icons/doctor-71.png","id":"af5b4319b6492b8347dc02e5ff7e454d26ad2fcc","name":"University Hospital Carl Gustav Carus Dresden","opening_hours":{"open_now":true},"photos":[{"height":285,"html_attributions":["<a href=\"https://maps.google.com/maps/contrib/106665670880824519799\">Universitätsklinikum Carl Gustav Carus Dresden</a>"],"photo_reference":"CmRaAAAAN6LRPp34ubfmUZ2SJ2WUq5-hcxg3nMNXUNUl_zig-RzqIu9xzstDMYIlyI_nXb1fY8qZy29QSV6rJglD5w-cjY4YpcrNnf-zO--ME_0JE1f9oI6Jjot5WrYQnrnd6Em0EhC95-PVtezPtl1wZTew8BPRGhS7HUJyVw8A-GzJyYGQLcqaUZWlyA","width":506}],"place_id":"ChIJF1RL47XICUcRo_UQQIHeBAg","plus_code":{"compound_code":"3Q3G+QJ Dresden, Germany","global_code":"9F3M3Q3G+QJ"},"rating":3.8,"reference":"ChIJF1RL47XICUcRo_UQQIHeBAg","scope":"GOOGLE","types":["hospital","health","point_of_interest","establishment"],"user_ratings_total":327,"vicinity":"Fetscherstraße 74, Dresden"},{"geometry":{"location":{"lat":50.9012775,"lng":13.6674418},"viewport":{"northeast":{"lat":50.9024566302915,"lng":13.6692141302915},"southwest":{"lat":50.8997586697085,"lng":13.6665161697085}}},"icon":"https://maps.gstatic.com/mapfiles/place_api/icons/doctor-71.png","id":"451948d399428689901098b7fad93c878c919753","name":"Helios Weißeritztal-Klinik Dippoldiswalde","place_id":"ChIJx_QkYhXCCUcRY7IJWhUIi8I","plus_code":{"compound_code":"WM28+GX Dippoldiswalde, Germany","global_code":"9F2MWM28+GX"},"rating":2.6,"reference":"ChIJx_QkYhXCCUcRY7IJWhUIi8I","scope":"GOOGLE","types":["hospital","health","point_of_interest","establishment"],"user_ratings_total":19,"vicinity":"Rabenauer Straße 9, Dippoldiswalde"},{"geometry":{"location":{"lat":51.04739,"lng":13.762},"viewport":{"northeast":{"lat":51.0487171802915,"lng":13.7635204302915},"southwest":{"lat":51.0460192197085,"lng":13.7608224697085}}},"icon":"https://maps.gstatic.com/mapfiles/place_api/icons/doctor-71.png","id":"287074e9a599fbfcf0658a5318c77c3e6646e6a5","name":"Hospital St. Joseph-Stift Dresden","opening_hours":{"open_now":true},"photos":[{"height":608,"html_attributions":["<a href=\"https://maps.google.com/maps/contrib/105934857652624759338\">Krankenhaus St. Joseph-Stift Dresden</a>"],"photo_reference":"CmRaAAAAgU8Am4LNBx1_fvQkkLwjbopN8WGWh6KPhKockrlh4IWoLo_Rb3Zqgzxu0BxnF_l9Tr_SFJWTFBt4rn7QJwNok8aHNhrJAm8dWRAQhYQkeWa_1oxd9dnA1Iz4WXUlEutpEhDwkfqDp3w9JEaJ3eobEkMEGhTfJPRsgvDfSOlRMa3Mc9PkCzgjZg","width":1080}],"place_id":"ChIJK_qhM1LPCUcRSVHUP6W9_jQ","plus_code":{"compound_code":"2QW6+XR Dresden, Germany","global_code":"9F3M2QW6+XR"},"rating":4.3,"reference":"ChIJK_qhM1LPCUcRSVHUP6W9_jQ","scope":"GOOGLE","types":["hospital","health","point_of_interest","establishment"],"user_ratings_total":123,"vicinity":"Wintergartenstraße 15/17, Dresden"},{"geometry":{"location":{"lat":51.2921577,"lng":13.1143068},"viewport":{"northeast":{"lat":51.2937294802915,"lng":13.1161155302915},"southwest":{"lat":51.2910315197085,"lng":13.1134175697085}}},"icon":"https://maps.gstatic.com/mapfiles/place_api/icons/doctor-71.png","id":"7e972742343f4b1e0051676046af7ecae1cff4b4","name":"COLLM KLINIK OSCHATZ GmbH","opening_hours":{"open_now":true},"photos":[{"height":1348,"html_attributions":["<a href=\"https://maps.google.com/maps/contrib/108663600640809422276\">Thomas Malik Fotostudio Corinna</a>"],"photo_reference":"CmRZAAAAumcM9zqfLefVSCJbQuy38F9OkvFfCoAqyAh05ZbAxXSd9vERMVxObKOL-pW-2jyCYFEl7uw1ZW8SN-pjaIM7eqY1R7k_RSlH9YWwTD_vDexwRLBICHmNsJVyZfnY_-_BEhAOt4jBDn6_T38lrYbH9_fRGhS0H7T8d-6jq5yako7TPmCPsRj2Gw","width":1797}],"place_id":"ChIJE3FtKtOfp0cRzTeWmlzYVO8","plus_code":{"compound_code":"74R7+VP Oschatz, Germany","global_code":"9F3M74R7+VP"},"rating":4.4,"reference":"ChIJE3FtKtOfp0cRzTeWmlzYVO8","scope":"GOOGLE","types":["hospital","health","point_of_interest","establishment"],"user_ratings_total":31,"vicinity":"Parkstraße 1, Oschatz"},{"geometry":{"location":{"lat":51.1117576,"lng":13.690027},"viewport":{"northeast":{"lat":51.1130799802915,"lng":13.6911986802915},"southwest":{"lat":51.1103820197085,"lng":13.6885007197085}}},"icon":"https://maps.gstatic.com/mapfiles/place_api/icons/doctor-71.png","id":"e31c4e3f492364ca8c367bc29a141ce6d1fefb3c","name":"Tagesklinik und Institutsambulanz für Kinder- und Jugendpsychiatrie","opening_hours":{"open_now":false},"place_id":"ChIJN-N3nxjOCUcRiJwoeWkZXTY","plus_code":{"compound_code":"4M6R+P2 Radebeul, Germany","global_code":"9F3M4M6R+P2"},"reference":"ChIJN-N3nxjOCUcRiJwoeWkZXTY","scope":"GOOGLE","types":["hospital","health","point_of_interest","establishment"],"vicinity":"Augustusweg 112, Radebeul"},{"geometry":{"location":{"lat":51.0580773,"lng":13.7781139},"viewport":{"northeast":{"lat":51.0592496302915,"lng":13.7795799302915},"southwest":{"lat":51.0565516697085,"lng":13.7768819697085}}},"icon":"https://maps.gstatic.com/mapfiles/place_api/icons/doctor-71.png","id":"62292debf440c598c2259acf3090a7800f632163","name":"University Hospital Carl Gustav Carus Dresden Heart Center","opening_hours":{"open_now":true},"photos":[{"height":3024,"html_attributions":["<a href=\"https://maps.google.com/maps/contrib/105016366381656093188\">Rashad Bakirov</a>"],"photo_reference":"CmRaAAAA5llGCKKLySpmGzHemu7OcbItaiWn6Z2uWHGf6qHit_on6hYPD-SMmyP7MFTsddqeaHsaNGSnqvSaKgZoKaBqPcznzgnKklDBTfL7I87x_tHTO0qBEf5i2rD3CmRL5Wq4EhAEyzlHPkw5jpd02KDBuUe_GhSYbZeTNffs7uWwVuJzB6mSLF2rNg","width":4032}],"place_id":"ChIJcaYQiLXICUcRRmVYW6kC6P0","plus_code":{"compound_code":"3Q5H+66 Dresden, Germany","global_code":"9F3M3Q5H+66"},"rating":3.8,"reference":"ChIJcaYQiLXICUcRRmVYW6kC6P0","scope":"GOOGLE","types":["hospital","health","point_of_interest","establishment"],"user_ratings_total":47,"vicinity":"Fetscherstraße 76, Dresden"},{"geometry":{"location":{"lat":51.06534809999999,"lng":13.8353876},"viewport":{"northeast":{"lat":51.0667476802915,"lng":13.8364466302915},"southwest":{"lat":51.0640497197085,"lng":13.8337486697085}}},"icon":"https://maps.gstatic.com/mapfiles/place_api/icons/doctor-71.png","id":"5e7043d305e8991c733ec71225eebae225c5e5c3","name":"Städtischen Klinikum Dresden-Neustadt Medizinische Klinik Weißer Hirsch","opening_hours":{"open_now":true},"photos":[{"height":2322,"html_attributions":["<a href=\"https://maps.google.com/maps/contrib/107275677409132248300\">Adolf Graf</a>"],"photo_reference":"CmRaAAAAvDWMUkuab9TFTYZpy-ueFNJ-4y0wjkdHRbSxMcN1GzdM_7tvc07EKdjmY9BZRTgs0G4erNAdfDa335JmLTRzwKrK81bEkxSP7CEjGW92LYgulvVigF5aInWOWlf-wzRBEhDAh1ZSlUtyJhnJ1rMaccb7GhSNs9TGXJ6BmtF54W6rRYqXItxUFg","width":4128}],"place_id":"ChIJ5QYj1VfICUcRDgVsqd0_uvQ","plus_code":{"compound_code":"3R8P+45 Dresden, Germany","global_code":"9F3M3R8P+45"},"rating":3.4,"reference":"ChIJ5QYj1VfICUcRDgVsqd0_uvQ","scope":"GOOGLE","types":["hospital","health","point_of_interest","establishment"],"user_ratings_total":9,"vicinity":"Heinrich-Cotta-Straße 12, Dresden"},{"geometry":{"location":{"lat":51.13628279999999,"lng":14.1782678},"viewport":{"northeast":{"lat":51.13755998029149,"lng":14.1799463302915},"southwest":{"lat":51.13486201970849,"lng":14.1772483697085}}},"icon":"https://maps.gstatic.com/mapfiles/place_api/icons/doctor-71.png","id":"68b77bcf9d10b7e5a479e4ccd9e010e01742fc14","name":"Oberlausitz-Kliniken gGmbH Krankenhaus Bischofswerda","opening_hours":{"open_now":true},"photos":[{"height":2789,"html_attributions":["<a href=\"https://maps.google.com/maps/contrib/115111374075482503829\">Maja Garten</a>"],"photo_reference":"CmRaAAAA5cm7Rw9G9uDj5Qz-i8h0KQO_NSZY6tj_gwXs9cnOAC8XcTJcunLQjWv-urVDkdI2v_UC19gg8h0H_uFmyBTmaheC2EcdXFbSr_52ARVbqImmWchIqqnjohoOZ_yYREvxEhD3hh0NcMSV9rDKGG1navJ4GhRCYfelxcMauFz-hGZLiplRt8avgA","width":1793}],"place_id":"ChIJqbaD22CtCUcRACOi8MS-sQs","plus_code":{"compound_code":"45PH+G8 Bischofswerda, Germany","global_code":"9F3P45PH+G8"},"rating":2.9,"reference":"ChIJqbaD22CtCUcRACOi8MS-sQs","scope":"GOOGLE","types":["hospital","health","point_of_interest","establishment"],"user_ratings_total":15,"vicinity":"Kamenzer Straße 55, Bischofswerda"},{"geometry":{"location":{"lat":50.9810282,"lng":12.9848257},"viewport":{"northeast":{"lat":50.9826059802915,"lng":12.9860313302915},"southwest":{"lat":50.9799080197085,"lng":12.9833333697085}}},"icon":"https://maps.gstatic.com/mapfiles/place_api/icons/doctor-71.png","id":"605966fa3c92f23ed65b02965bba95adad6b826b","name":"Landkreis Mittweida Krankenhaus gGmbH","opening_hours":{"open_now":true},"photos":[{"height":1920,"html_attributions":["<a href=\"https://maps.google.com/maps/contrib/116039009821382763399\">marion Spieß</a>"],"photo_reference":"CmRaAAAAnSMLTSdX5WE5TtSimP7_YmGhwSa3fgbIxRGzZzyirryes1R7RQvQyqZ4KaVBA5MAYbVU2MkoMpAdeLo9VwvoEmF0IVdNz2a0kt_xUt6g7QgJeHlnp_dl8dFNVfTrmU6ZEhAh1TmHRk43hhaVa-_dSBNSGhRBcMMe4MpBcbdkqKXm-iEEo5ZWpg","width":1080}],"place_id":"ChIJP_zshEJqp0cR2precqhAIis","plus_code":{"compound_code":"XXJM+CW Mittweida, Germany","global_code":"9F2JXXJM+CW"},"rating":2.8,"reference":"ChIJP_zshEJqp0cR2precqhAIis","scope":"GOOGLE","types":["hospital","health","point_of_interest","establishment"],"user_ratings_total":69,"vicinity":"Hainichener Straße 4-6, Mittweida"},{"geometry":{"location":{"lat":51.0651771,"lng":13.7465333},"viewport":{"northeast":{"lat":51.06652013029149,"lng":13.7480630802915},"southwest":{"lat":51.06382216970849,"lng":13.7453651197085}}},"icon":"https://maps.gstatic.com/mapfiles/place_api/icons/generic_business-71.png","id":"eb9a241a4d3cbfe68588aa72ad47d20a80a71ad8","name":"Intensivpflege Dresden","photos":[{"height":494,"html_attributions":["<a href=\"https://maps.google.com/maps/contrib/106141516907336386669\">Intensivpflege Dresden</a>"],"photo_reference":"CmRaAAAAxTSFxrOwA8aLIsEt2V_RyvoqOJGl-M6omOwyFlYg8sF1L7elsvHLusgZ_yeqTvLYM1JJweywzeq9-gAVB-T6cd6z-dtseKjiA9ubPITApHrv7D4x3l7HiB6TafZZQb33EhDK0CbQ67NoI8hRv0bM1QjJGhTD9bnCVWabTUf1eCvgIH7vWs2MQw","width":1209}],"place_id":"ChIJpQ6i2PLFCUcRzv9mzd-g-FY","plus_code":{"compound_code":"3P8W+3J Dresden, Germany","global_code":"9F3M3P8W+3J"},"rating":5,"reference":"ChIJpQ6i2PLFCUcRzv9mzd-g-FY","scope":"GOOGLE","types":["hospital","university","school","health","point_of_interest","establishment"],"user_ratings_total":18,"vicinity":"Königsbrücker Straße 9, Dresden"},{"geometry":{"location":{"lat":51.056768,"lng":13.7824276},"viewport":{"northeast":{"lat":51.05804533029151,"lng":13.7838111302915},"southwest":{"lat":51.05534736970851,"lng":13.7811131697085}}},"icon":"https://maps.gstatic.com/mapfiles/place_api/icons/doctor-71.png","id":"6198bdcbc33a364ed6369cd9658cfa6ca2b32255","name":"Universitätsklinikum Carl Gustav Carus Abteilung für Urologie","place_id":"ChIJF1RL47XICUcRp-6LBCMeRE0","rating":2.1,"reference":"ChIJF1RL47XICUcRp-6LBCMeRE0","scope":"GOOGLE","types":["hospital","health","point_of_interest","establishment"],"user_ratings_total":10,"vicinity":"Fetscherstraße 74, Dresden"},{"geometry":{"location":{"lat":51.1184586,"lng":13.1221474},"viewport":{"northeast":{"lat":51.1198936302915,"lng":13.1234806802915},"southwest":{"lat":51.1171956697085,"lng":13.1207827197085}}},"icon":"https://maps.gstatic.com/mapfiles/place_api/icons/doctor-71.png","id":"d0a1d139204ae1a181422f7000962c6891e0f70b","name":"Medizinisches Versorgungszentrum am Krankenhaus Döbeln GmbH","opening_hours":{"open_now":true},"place_id":"ChIJN7d7Et1xp0cRAAHR6qD_O44","plus_code":{"compound_code":"449C+9V Döbeln, Germany","global_code":"9F3M449C+9V"},"rating":2,"reference":"ChIJN7d7Et1xp0cRAAHR6qD_O44","scope":"GOOGLE","types":["hospital","health","point_of_interest","establishment"],"user_ratings_total":2,"vicinity":"Muldenstraße 1, Döbeln"},{"geometry":{"location":{"lat":50.912291,"lng":13.342065},"viewport":{"northeast":{"lat":50.91369098029149,"lng":13.3433724302915},"southwest":{"lat":50.91099301970849,"lng":13.3406744697085}}},"icon":"https://maps.gstatic.com/mapfiles/place_api/icons/shopping-71.png","id":"de9ef27bd82a0f5a1fa2a7c95bac3bba20dc6739","name":"Sanitätshaus Reha-aktiv GmbH","opening_hours":{"open_now":false},"photos":[{"height":2592,"html_attributions":["<a href=\"https://maps.google.com/maps/contrib/101614530689847723532\">Reha-aktiv GmbH Sanitätshaus Freiberg</a>"],"photo_reference":"CmRaAAAAKQMFNns-iu_DQ-23B7rIUX0IBEQjQnYQrSEvk1bunN-DFIPfo9zidGmRYTqAkzTZpYjIJykQESWt6FlMg3gQ1_0GilWkqPgUFqlOzYKw9fVgUL-2phKNtoddjWdouXjjEhCPgMJc1QIGGQYEkUdjENn5GhSc-sDuz60bwAYLcLn4YtO9yIxAHA","width":3872}],"place_id":"ChIJd8QZ2fhfp0cRwILIczXPgnc","plus_code":{"compound_code":"W86R+WR Freiberg, Germany","global_code":"9F2MW86R+WR"},"reference":"ChIJd8QZ2fhfp0cRwILIczXPgnc","scope":"GOOGLE","types":["hospital","health","point_of_interest","store","establishment"],"vicinity":"Dörnerzaunstraße 1, Freiberg"},{"geometry":{"location":{"lat":51.1211487,"lng":13.7832598},"viewport":{"northeast":{"lat":51.1226346302915,"lng":13.7846366302915},"southwest":{"lat":51.1199366697085,"lng":13.7819386697085}}},"icon":"https://maps.gstatic.com/mapfiles/place_api/icons/doctor-71.png","id":"4daedf690a1e3c25fbf2d78f0e82cce55c581d15","name":"St.-Marien-Krankenhaus Dresden Fachkrankenhaus für Psychiatrie, Psychotherapie und Neurologie","opening_hours":{"open_now":true},"photos":[{"height":4208,"html_attributions":["<a href=\"https://maps.google.com/maps/contrib/100390500408394757558\">ronny ramone</a>"],"photo_reference":"CmRaAAAAM2bhnxoErdyu098ASPGtJABnVQvt1tvLGJ3nKSGyB2gkl60Vs6UrMUK1zigvW-amMHnUR-H-ODp1Q--sp6rRlgMjvjGysCMN2XiRsBtjyk131JqutYdbwwV0xWpZx1qeEhAYjN_mwX7WrsRAltR7Zw7kGhT_CahHR9zflr5movvHxQGGCNrkOg","width":2368}],"place_id":"ChIJ2X7oRqfOCUcRTd-_wajll-w","plus_code":{"compound_code":"4QCM+F8 Dresden, Germany","global_code":"9F3M4QCM+F8"},"rating":3.1,"reference":"ChIJ2X7oRqfOCUcRTd-_wajll-w","scope":"GOOGLE","types":["hospital","health","point_of_interest","establishment"],"user_ratings_total":27,"vicinity":"Selliner Straße 29, Dresden"},{"geometry":{"location":{"lat":51.08130029999999,"lng":13.7219104},"viewport":{"northeast":{"lat":51.08271388029149,"lng":13.7232387302915},"southwest":{"lat":51.08001591970849,"lng":13.7205407697085}}},"icon":"https://maps.gstatic.com/mapfiles/place_api/icons/doctor-71.png","id":"2b51718a8fca763b5c520320b77c9962d3cc7e12","name":"Überörtliche Radiologische Gemeinschaftspraxis Dr. Wihsgott, Dr.Aikele, Dr.Haupt","opening_hours":{"open_now":false},"photos":[{"height":768,"html_attributions":["<a href=\"https://maps.google.com/maps/contrib/110249593611773700942\">Überörtliche Radiologische Gemeinschaftspraxis Dres. Wihsgott, Dr.Aikele, Dr.Haupt</a>"],"photo_reference":"CmRaAAAAewFJCjH5WiMBExiasArduiCt4NU2kAei-kkTV0DR4vCe1-4ElNO3aZ7P8ULzQ8mSqQ8bbXTSPUg8NsSgq1nJamJI4FJNSB_GHLzvvqncyDD1R-R9SSh0lmHE-fyz6nnAEhBEYgnZIF9UCZailR8hxb6pGhSZUME0riVkcdfGH7rWHs_fkEY6-g","width":1024}],"place_id":"ChIJje-_1KvPCUcR3o5jgzakDP4","plus_code":{"compound_code":"3PJC+GQ Dresden, Germany","global_code":"9F3M3PJC+GQ"},"rating":3.3,"reference":"ChIJje-_1KvPCUcR3o5jgzakDP4","scope":"GOOGLE","types":["hospital","health","point_of_interest","establishment"],"user_ratings_total":16,"vicinity":"Wurzener Straße 5, Dresden"},{"geometry":{"location":{"lat":51.04739,"lng":13.762},"viewport":{"northeast":{"lat":51.0487171802915,"lng":13.7635204302915},"southwest":{"lat":51.0460192197085,"lng":13.7608224697085}}},"icon":"https://maps.gstatic.com/mapfiles/place_api/icons/doctor-71.png","id":"f3e75fdfdfd5b87db5e88a40f67b8932acc0d6b3","name":"Krankenhaus St. Joseph-Stift Dresden Klinik für Innere Medizin","place_id":"ChIJK_qhM1LPCUcRQKJJmFfgl3E","plus_code":{"compound_code":"2QW6+XR Dresden, Germany","global_code":"9F3M2QW6+XR"},"reference":"ChIJK_qhM1LPCUcRQKJJmFfgl3E","scope":"GOOGLE","types":["hospital","health","point_of_interest","establishment"],"vicinity":"Wintergartenstraße 15, Dresden"},{"geometry":{"location":{"lat":51.056768,"lng":13.7824276},"viewport":{"northeast":{"lat":51.05804533029151,"lng":13.7838111302915},"southwest":{"lat":51.05534736970851,"lng":13.7811131697085}}},"icon":"https://maps.gstatic.com/mapfiles/place_api/icons/doctor-71.png","id":"948fd3ad4da68f461ff174b6a93d84e740b7a8d5","name":"University Hospital Carl Gustav Carus Medical Clinic I","photos":[{"height":2448,"html_attributions":["<a href=\"https://maps.google.com/maps/contrib/117479678418279190412\">Peggy Schunke</a>"],"photo_reference":"CmRaAAAAgyGDDIKlaKSJRaw7GWI4b0hVRFksgtudm6cl3u7R1KQpSm82cIPq-tihP3bNPvL5ImdElgP2bkVsvHfber0MvXKNIKxYwvBESCf7NNSRClt_-5JyeM_rCFyoTsIvhoFHEhCY_8VSbS0Bk5I-OKi6VMc8GhTbRgYBTSK-ULBvgw_YZdBXnanveg","width":3264}],"place_id":"ChIJF1RL47XICUcRAVqyJv_wALg","rating":3,"reference":"ChIJF1RL47XICUcRAVqyJv_wALg","scope":"GOOGLE","types":["hospital","health","point_of_interest","establishment"],"user_ratings_total":2,"vicinity":"Fetscherstraße 74, Dresden"},{"geometry":{"location":{"lat":51.0590005,"lng":13.7525649},"viewport":{"northeast":{"lat":51.06028338029149,"lng":13.7537814802915},"southwest":{"lat":51.0575854197085,"lng":13.7510835197085}}},"icon":"https://maps.gstatic.com/mapfiles/place_api/icons/doctor-71.png","id":"20876e4239b2d5dfca806dacc13e4a8a2a9fc36c","name":"Neurologisches Medizinisches Versorgungszentrum Dresden","place_id":"ChIJt6fsJUfPCUcRXcMBdxK9f3w","plus_code":{"compound_code":"3Q53+J2 Dresden, Germany","global_code":"9F3M3Q53+J2"},"reference":"ChIJt6fsJUfPCUcRXcMBdxK9f3w","scope":"GOOGLE","types":["hospital","health","point_of_interest","establishment"],"vicinity":"Glacisstraße 2, Dresden"},{"geometry":{"location":{"lat":51.05999449999999,"lng":13.7167716},"viewport":{"northeast":{"lat":51.0614886802915,"lng":13.7182255802915},"southwest":{"lat":51.0587907197085,"lng":13.7155276197085}}},"icon":"https://maps.gstatic.com/mapfiles/place_api/icons/doctor-71.png","id":"1de23a5015e97eba18f8cc74c49768b63b1f7385","name":"Department of Pathology","photos":[{"height":4640,"html_attributions":["<a href=\"https://maps.google.com/maps/contrib/113982692141218375634\">Jens Bade</a>"],"photo_reference":"CmRaAAAAfvwuYVlu1ofAspp5zAZVWr_LrqeUdTznMjP8RlqHzb1Z8vc6kWD-fyssvgj8nmxvBWstAh6gMVKBQr_Q54WA7oBMfi_O0uFJsj77hG-IUdRG_UtLMOkTefzor0_8pOrUEhCUAOFVxPcNCAvHRO6ZXHofGhQccAkZl2Eg052d21oFmKslLur6ZQ","width":3480}],"place_id":"ChIJo1sNdHbPCUcR-n6isUCpxUA","plus_code":{"compound_code":"3P58+XP Dresden, Germany","global_code":"9F3M3P58+XP"},"reference":"ChIJo1sNdHbPCUcR-n6isUCpxUA","scope":"GOOGLE","types":["hospital","health","point_of_interest","establishment"],"vicinity":"Friedrichstraße 41, Dresden"}]