[{"geometry":{"location":{"lat":52.01388350000001,"lng":8.544591},"viewport":{"northeast":{"lat":52.0151092802915,"lng":8.546283930291501},"southwest":{"lat":52.0124113197085,"lng":8.543585969708497}}},"icon":"https://maps.gstatic.com/mapfiles/place_api/icons/doctor-71.png","id":"f24153ac13ceff785961cc6645dad0b35769d28c","name":"Klinikum Bielefeld","opening_hours":{"open_now":true},"photos":[{"height":2626,"html_attributions":["<a href=\"https://maps.google.com/maps/contrib/108297886341098651474\">Artur Ziembaczewski</a>"],"photo_reference":"CmRaAAAAVlVD4i16HN0vZ5iFIAeAvLUehR6IN9zLLjUWnmhrttPe_v45IaYpZdypY66qjbKSG3IylUWygvC4AMjLUoOLj-hndLd-EBRWiG8uaA4Wqbgud-rVEK_qlgNbaMti-fd4EhDhNPduzox_FM3JGY8NLCoVGhTjQlEwZTGR6PTqtF1sb53Jam5YKw","width":1968}],"place_id":"ChIJSZkfzgY9ukcRVFZeeZC38bU","plus_code":{"compound_code":"2G7V+HR Bielefeld, Germany","global_code":"9F4C2G7V+HR"},"rating":2.7,"reference":"ChIJSZkfzgY9ukcRVFZeeZC38bU","scope":"GOOGLE","types":["hospital","health","point_of_interest","establishment"],"user_ratings_total":221,"vicinity":"Teutoburger Straße 50, Bielefeld"},{"geometry":{"location":{"lat":51.8972297,"lng":8.3849853},"viewport":{"northeast":{"lat":51.89939734999999,"lng":8.386456250000002},"southwest":{"lat":51.89540075000001,"lng":8.381687250000002}}},"icon":"https://maps.gstatic.com/mapfiles/place_api/icons/doctor-71.png","id":"4a4722ea0506a76557b2cf453b3f1ac4d500778e","name":"Städtisches Klinikum Gütersloh gGmbH","opening_hours":{"open_now":false},"photos":[{"height":3328,"html_attributions":["<a href=\"https://maps.google.com/maps/contrib/105047065841232417013\">Marie Schönknecht</a>"],"photo_reference":"CmRaAAAAtimJ8i0X0hi9eLBf01pr2ny9FMWnayggTE9P-otoFpuj1PgrefzdW9j58avwwONLzBLmB8Z1LqGWRXAoZfCpNbk9onOKKftS950gtT-5W-orgKhdmyOyJfERN2XN1wVeEhCloZ8sLZRRHVK7pd9fB4kCGhTPRt58wdba1aBuMX-HX2y5660cXw","width":4992}],"place_id":"ChIJcVV81oglukcRC_HuVw6gw4s","plus_code":{"compound_code":"V9WM+VX Gütersloh, Germany","global_code":"9F3CV9WM+VX"},"rating":3.5,"reference":"ChIJcVV81oglukcRC_HuVw6gw4s","scope":"GOOGLE","types":["hospital","health","point_of_interest","establishment"],"user_ratings_total":81,"vicinity":"Reckenberger Straße 19, Gütersloh"},{"geometry":{"location":{"lat":51.7226892,"lng":8.7467292},"viewport":{"northeast":{"lat":51.72396293029151,"lng":8.748019880291503},"southwest":{"lat":51.72126496970851,"lng":8.745321919708498}}},"icon":"https://maps.gstatic.com/mapfiles/place_api/icons/doctor-71.png","id":"5fb89eb1dbb3d9ad8c0616d1bb8603174fc968c2","name":"Saint Johannisstift Hospital","opening_hours":{"open_now":true},"photos":[{"height":4032,"html_attributions":["<a href=\"https://maps.google.com/maps/contrib/106506056416433627342\">Peter Schröder</a>"],"photo_reference":"CmRaAAAAtYvr8TlPMoh-NYJEuOHoXdUr5KRs6RZVbNrXU-CoidExbXOwsdSk8L1cskxD7K5l1iXWrmn0HgwCUD3wNjBHNpA1qMAJ-xH_p5_VBachqN6yK8CDiXIfWXwI6gbJtKXeEhAEM7-MOJ1Nh8B3gyQ94OjyGhQMgoC54EWnLDAu2O26_BjT0r8e2A","width":3024}],"place_id":"ChIJgVBJ1ptMukcRD09RGfDZgTU","plus_code":{"compound_code":"PPFW+3M Paderborn, Germany","global_code":"9F3CPPFW+3M"},"rating":3.5,"reference":"ChIJgVBJ1ptMukcRD09RGfDZgTU","scope":"GOOGLE","types":["hospital","health","point_of_interest","establishment"],"user_ratings_total":50,"vicinity":"Reumontstraße 28, Paderborn"},{"geometry":{"location":{"lat":52.0133707,"lng":8.525938800000002},"viewport":{"northeast":{"lat":52.0147042802915,"lng":8.527120130291504},"southwest":{"lat":52.0120063197085,"lng":8.5244221697085}}},"icon":"https://maps.gstatic.com/mapfiles/place_api/icons/doctor-71.png","id":"442a3e130617d5f0667c74d043cbdd2ad7777fe8","name":"Evangelical Hospital Bethel (EvKB) - House Gilead I","opening_hours":{"open_now":true},"photos":[{"height":1277,"html_attributions":["<a href=\"https://maps.google.com/maps/contrib/113468995864969021553\">Evangelisches Klinikum Bethel (EvKB) - Haus Gilead I</a>"],"photo_reference":"CmRaAAAAS8Gz6m1CLbxAj4_fsasWJUrlhJTunLleEcA_eRAPQKlweaAiZfJNqZma9d7_9g9jhrRcKyZvYh7aeF5L63Y5Ji42P-mfOnCOEzVmcyZ1E4JI22flzl385gHvvyc7JWaTEhC2MmyIV9p30SnCwhvk9cClGhQYXbUYZ3zb5WFWFedH0vSgEOtsKg","width":1920}],"place_id":"ChIJM6Bskh49ukcRLDbymbxHIt4","plus_code":{"compound_code":"2G7G+89 Bielefeld, Germany","global_code":"9F4C2G7G+89"},"rating":3.9,"reference":"ChIJM6Bskh49ukcRLDbymbxHIt4","scope":"GOOGLE","types":["hospital","health","point_of_interest","establishment"],"user_ratings_total":116,"vicinity":"Burgsteig 13, Bielefeld"},{"geometry":{"location":{"lat":51.71847460000001,"lng":8.7588854},"viewport":{"northeast":{"lat":51.7196974302915,"lng":8.760057930291502},"southwest":{"lat":51.7169994697085,"lng":8.757359969708498}}},"icon":"https://maps.gstatic.com/mapfiles/place_api/icons/doctor-71.png","id":"15db384004fc3b31d38da593857317657fc2f6fa","name":"Saint Vincenz Hospital Paderborn","opening_hours":{"open_now":true},"photos":[{"height":1333,"html_attributions":["<a href=\"https://maps.google.com/maps/contrib/109659180798522918546\">St. Vincenz-Krankenhaus Paderborn</a>"],"photo_reference":"CmRaAAAAw0pDO1j7Wtj7qsdsbwKHhoW6dTKiT_tx3tvbDJPcRhE-HewjhQH8ICaye8bet5TA0dF7PQIb4z1ffFsFXXl6-v0wjnhpmqzqEMGkMnjQ5FT77sRYhcv4hnQUYEcQlheYEhBCsE1u7NlUjwMwPjrRNiVHGhSmznqNE1nFC5G40cnKKEg7vvLT4A","width":2000}],"place_id":"ChIJLfzttpVMukcRzcDFyiCll20","plus_code":{"compound_code":"PQ95+9H Paderborn, Germany","global_code":"9F3CPQ95+9H"},"rating":3.5,"reference":"ChIJLfzttpVMukcRzcDFyiCll20","scope":"GOOGLE","types":["hospital","health","point_of_interest","establishment"],"user_ratings_total":149,"vicinity":"Am Busdorf 2, Paderborn"},{"geometry":{"location":{"lat":51.9410027,"lng":8.8800777},"viewport":{"northeast":{"lat":51.9429300802915,"lng":8.880761830291503},"southwest":{"lat":51.9402321197085,"lng":8.878063869708498}}},"icon":"https://maps.gstatic.com/mapfiles/place_api/icons/doctor-71.png","id":"29e6b0d41b14c1d1409c7ec25879b7d3cba091fa","name":"Klinikum Lippe Detmold","opening_hours":{"open_now":true},"photos":[{"height":3024,"html_attributions":["<a href=\"https://maps.google.com/maps/contrib/108521021796890651434\">J T</a>"],"photo_reference":"CmRaAAAA5iT-hIR26jqU5WG0UNAnAuSA3PfqHWB8bExVw2vguQWJZ36HcJF56YIFuoy4R21tA9SdVQhPKx3eh29imG5oifz_4fEQhGK6Rb3ODDAH61ktMscqSDGyoSnCl90j_fR3EhCipEDZSK6-4p78mS37RIsBGhS4J1sDfNn0gTFgcdE59u_eRN831g","width":4032}],"place_id":"ChIJgUw8g51EukcR7NZU5_LtEc8","plus_code":{"compound_code":"WVRJ+C2 Detmold, Germany","global_code":"9F3CWVRJ+C2"},"rating":2.9,"reference":"ChIJgUw8g51EukcR7NZU5_LtEc8","scope":"GOOGLE","types":["hospital","health","point_of_interest","establishment"],"user_ratings_total":152,"vicinity":"Röntgenstraße 18, Detmold"},{"geometry":{"location":{"lat":51.45603,"lng":8.356519999999998},"viewport":{"northeast":{"lat":51.4573790802915,"lng":8.357867430291503},"southwest":{"lat":51.4546811197085,"lng":8.355169469708498}}},"icon":"https://maps.gstatic.com/mapfiles/place_api/icons/doctor-71.png","id":"0ccb5e1c29b994667be3dadeea0b69012307b566","name":"LWL-Klinik Warstein","opening_hours":{"open_now":true},"photos":[{"height":800,"html_attributions":["<a href=\"https://maps.google.com/maps/contrib/105904414458618016989\">LWL-Klinik Warstein</a>"],"photo_reference":"CmRaAAAASGZLwXIAjIVZ6-wXtNvKbWNraVU28xFdXv-Z-af4Kaj86LAYhtalZZhHi_tvvcIu4h621mdc1XJw0kq479Sm6fQNyUCnYmCWbUokSn0tP4gX9HQ8M3TdbZIJ43kTZ1oZEhAY7FspRmMIqzMYtAJ10U5DGhR6ym3fJLGc-3O-dPA2SWMv5sYOTQ","width":1435}],"place_id":"ChIJ330ZMWnDu0cRsTlPrW4Tm84","plus_code":{"compound_code":"F944+CJ Warstein, Germany","global_code":"9F3CF944+CJ"},"rating":3.5,"reference":"ChIJ330ZMWnDu0cRsTlPrW4Tm84","scope":"GOOGLE","types":["hospital","health","point_of_interest","establishment"],"user_ratings_total":35,"vicinity":"Franz-Hegemann-Straße 23, Warstein"},{"geometry":{"location":{"lat":51.7422127,"lng":9.0109181},"viewport":{"northeast":{"lat":51.7437459302915,"lng":9.011928580291503},"southwest":{"lat":51.7410479697085,"lng":9.009230619708498}}},"icon":"https://maps.gstatic.com/mapfiles/place_api/icons/doctor-71.png","id":"c329de188796fa42fcf390ed058a954516bf492f","name":"Hospital Weser-Egge - St. Joseph Hospital Bad Driburg","photos":[{"height":1109,"html_attributions":["<a href=\"https://maps.google.com/maps/contrib/100009049982807850195\">Klinikum Weser-Egge - St. Josef Hospital Bad Driburg</a>"],"photo_reference":"CmRaAAAAXLy38VMWH1pO0XyUb1UyYCxCUArScie2DrDCLJVgk0JMMzcFbxKeBZ0N0oFA0xbqFEn_6zAJ48D07gCdGwEYOLd7n28mJ9VsDTl_4G16kLrNIZJnv5f89_2ntY0bYNWqEhCbo9XDnbUG_AUOpqq_8TIzGhRRKFdtD6vdbGD4q8K56R0ECvZ2lw","width":2400}],"place_id":"ChIJ15xDoTdUukcRFGgOtqWmFQ4","plus_code":{"compound_code":"P2R6+V9 Bad Driburg, Germany","global_code":"9F3FP2R6+V9"},"rating":2.8,"reference":"ChIJ15xDoTdUukcRFGgOtqWmFQ4","scope":"GOOGLE","types":["hospital","health","point_of_interest","establishment"],"user_ratings_total":60,"vicinity":"Elmarstraße 38, Bad Driburg"},{"geometry":{"location":{"lat":51.98271889999999,"lng":8.532487699999999},"viewport":{"northeast":{"lat":51.9842613302915,"lng":8.533760780291502},"southwest":{"lat":51.9815633697085,"lng":8.531062819708497}}},"icon":"https://maps.gstatic.com/mapfiles/place_api/icons/doctor-71.png","id":"d1c08a810e08722ae0d89d8e15acf75f154a1132","name":"Klinikum Bielefeld Rosenhöhe","opening_hours":{"open_now":true},"photos":[{"height":739,"html_attributions":["<a href=\"https://maps.google.com/maps/contrib/106760475159568134857\">Klinikum Bielefeld Rosenhöhe</a>"],"photo_reference":"CmRaAAAAZI2qnHyVLNfY9XpsAMRNIYgETXNdSO8SMzd4GtunjPFFHijHYzicDvI6M1MFQyAME6n7q8KDx_MrjxnGHV_B9B-qJyzMg9XLfpyYuays52S1gy4qTShF7EcyQafxRk_CEhDK3YdpIuTGhcweoX0wtX1RGhQJnXWz-QQl2w5TmgF6Qg6l4CIxnQ","width":1134}],"place_id":"ChIJSZkfzgY9ukcR253X-xD_uy4","plus_code":{"compound_code":"XGMJ+3X Bielefeld, Germany","global_code":"9F3CXGMJ+3X"},"rating":2.9,"reference":"ChIJSZkfzgY9ukcR253X-xD_uy4","scope":"GOOGLE","types":["hospital","health","point_of_interest","establishment"],"user_ratings_total":92,"vicinity":"An der Rosenhöhe 27, Bielefeld"},{"geometry":{"location":{"lat":51.70846,"lng":8.763650000000002},"viewport":{"northeast":{"lat":51.7096626302915,"lng":8.764497530291502},"southwest":{"lat":51.7069646697085,"lng":8.761799569708497}}},"icon":"https://maps.gstatic.com/mapfiles/place_api/icons/generic_business-71.png","id":"25f0b8a572e551a172244ba3aebf47833842089d","name":"Frauen- und Kinderklinik St. Louise","opening_hours":{"open_now":true},"photos":[{"height":2934,"html_attributions":["<a href=\"https://maps.google.com/maps/contrib/109688454014583831169\">kibria mahmud</a>"],"photo_reference":"CmRaAAAARGvLB-17tDVGYl86oL70FRyBLeHwbtQV-x8PoXFZIPgdlUMnboyTP3BmQKjDPvkRAil6DpuhFcL_oIrNRtlF9p0z8geM1neNRLviTKhSClu86oZ-Lx8keMyr5IAT5BPnEhCD3wrRp6-7cmSk9-oyVLLLGhQt6cUnk5wwWMBgezRR6Z0cIoIIRA","width":5216}],"place_id":"ChIJua5bAsdMukcRLcgRk7yVOx4","plus_code":{"compound_code":"PQ57+9F Paderborn, Germany","global_code":"9F3CPQ57+9F"},"rating":3.7,"reference":"ChIJua5bAsdMukcRLcgRk7yVOx4","scope":"GOOGLE","types":["hospital","health","point_of_interest","establishment"],"user_ratings_total":75,"vicinity":"81, Husener Straße, Paderborn"},{"geometry":{"location":{"lat":52.02355859999999,"lng":8.523684099999997},"viewport":{"northeast":{"lat":52.0249557302915,"lng":8.524953180291503},"southwest":{"lat":52.0222577697085,"lng":8.522255219708498}}},"icon":"https://maps.gstatic.com/mapfiles/place_api/icons/doctor-71.png","id":"a55482ee95a5c3293261d1bd03a915a0ae1576ee","name":"Franziskus Hospital Bielefeld","opening_hours":{"open_now":true},"photos":[{"height":3096,"html_attributions":["<a href=\"https://maps.google.com/maps/contrib/110027676782338719733\">Devid Plett</a>"],"photo_reference":"CmRaAAAADtXAiOiuNHfYkHLvj_QLqOa5e59RFaHa1u1fd_7vHce5oVpLf4xpjTFvdUwhhFzS_o5oQg6eDo0-MrkYdVxvfK06-WFItKeW-vJUkU8-TtpASOi3GoGeJaEgaI622KRCEhANcZ9rGi2vojb08OO1GlNjGhSqx5W_byzXbXAGpmgZneCn5Q1HRg","width":4128}],"place_id":"ChIJq5iM1Bc9ukcRioMyXNi8hiw","plus_code":{"compound_code":"2GFF+CF Bielefeld, Germany","global_code":"9F4C2GFF+CF"},"rating":3.3,"reference":"ChIJq5iM1Bc9ukcRioMyXNi8hiw","scope":"GOOGLE","types":["hospital","health","point_of_interest","establishment"],"user_ratings_total":130,"vicinity":"Kiskerstraße 26, Bielefeld"},{"geometry":{"location":{"lat":51.67789,"lng":8.617550000000001},"viewport":{"northeast":{"lat":51.6791769302915,"lng":8.618566730291503},"southwest":{"lat":51.6764789697085,"lng":8.615868769708499}}},"icon":"https://maps.gstatic.com/mapfiles/place_api/icons/doctor-71.png","id":"9c53853c66975d86d5f23d148bd0e87d132e0c11","name":"St. Josefs-Krankenhaus Salzkotten","photos":[{"height":1365,"html_attributions":["<a href=\"https://maps.google.com/maps/contrib/113250257889951473012\">St. Josefs-Krankenhaus Salzkotten</a>"],"photo_reference":"CmRaAAAAYeiTbm1KwuIfBEmmbqZpyoAUt-qdJgJEFsdF_jIM319u-qnrhgmb2I_jR6YhJsTDl2fZsBsHSwAuG6WDeTTA0exuvpOXDf-7OqIB2vaAbfZdd6r8KvJFE_zPpBhNDpTVEhDT8uK0LvyUlU2TrFj0s0M_GhS710euH1DgENrbtLvEii1fdsU4aw","width":2048}],"place_id":"ChIJdyLedGS1u0cRLt-dVFtzr5s","plus_code":{"compound_code":"MJH9+52 Salzkotten, Germany","global_code":"9F3CMJH9+52"},"rating":3.9,"reference":"ChIJdyLedGS1u0cRLt-dVFtzr5s","scope":"GOOGLE","types":["hospital","health","point_of_interest","establishment"],"user_ratings_total":64,"vicinity":"Dr.-Krismann-Straße 12, Salzkotten"},{"geometry":{"location":{"lat":51.76369,"lng":9.05689},"viewport":{"northeast":{"lat":51.76506133029149,"lng":9.058579680291501},"southwest":{"lat":51.7623633697085,"lng":9.055881719708498}}},"icon":"https://maps.gstatic.com/mapfiles/place_api/icons/doctor-71.png","id":"2e161267b97966514b557307d6d335b801935d4c","name":"Park Klinik Bad Hermannsborn GmbH & Co. KG","opening_hours":{"open_now":true},"photos":[{"height":2112,"html_attributions":["<a href=\"https://maps.google.com/maps/contrib/115163583266455652537\">Cees Schellekens</a>"],"photo_reference":"CmRaAAAAks5-ioLUilTWupQMFdWqm9Vk4OMXJ-nHw3NKCe0kRDD4mYLj-Ecdumo-dUEN9BMFpD0C-ZWWiF4HZSPRX3kE9klYBBEGnpkk8gm_0i2VAPsYXKitleTk4sVqw9yCN0-tEhAmG7AqFyI-9GfJjdweHYyfGhQ8m_Bjj3qTaIsly_vqsVUsJ3r39Q","width":2816}],"place_id":"ChIJqSeatLlVukcR38UsodB2M_U","plus_code":{"compound_code":"Q374+FQ Bad Driburg, Germany","global_code":"9F3FQ374+FQ"},"rating":3.4,"reference":"ChIJqSeatLlVukcR38UsodB2M_U","scope":"GOOGLE","types":["hospital","health","point_of_interest","establishment"],"user_ratings_total":30,"vicinity":"Hermannsborn 1, Bad Driburg"},{"geometry":{"location":{"lat":51.38014,"lng":9.0273},"viewport":{"northeast":{"lat":51.3816118802915,"lng":9.028645380291502},"southwest":{"lat":51.3789139197085,"lng":9.025947419708498}}},"icon":"https://maps.gstatic.com/mapfiles/place_api/icons/doctor-71.png","id":"91b90287f7948ff8d01e49b2f28be81aac674c68","name":"Schön Klinik Bad Arolsen","opening_hours":{"open_now":true},"photos":[{"height":2912,"html_attributions":["<a href=\"https://maps.google.com/maps/contrib/102671519244922137066\">Schön Klinik Bad Arolsen</a>"],"photo_reference":"CmRaAAAAGTnW07a1UiTaKNWS4lSSizXnFtxfU2Fo42zpoLTuPVQ_gVIf1H-hn30j_R_hptJPSP66YiLldFZymhddrsGAecZ6wBPT3TufbbJqTgyI2o_bMmtRVCJh29IyzRzyCmJUEhApP1Fjy1S0emr3Drdck2ZnGhRFIjH0kAvh34oAR3q4wayQDc52-Q","width":4368}],"place_id":"ChIJabkzUagLu0cRT1xLsOCNMYA","plus_code":{"compound_code":"92JG+3W Arolsen, Germany","global_code":"9F3F92JG+3W"},"rating":3.7,"reference":"ChIJabkzUagLu0cRT1xLsOCNMYA","scope":"GOOGLE","types":["hospital","health","point_of_interest","establishment"],"user_ratings_total":60,"vicinity":"Hofgarten 10, Bad Arolsen"},{"geometry":{"location":{"lat":51.78525399999999,"lng":9.3654164},"viewport":{"northeast":{"lat":51.78660268029149,"lng":9.367155930291503},"southwest":{"lat":51.7839047197085,"lng":9.364457969708498}}},"icon":"https://maps.gstatic.com/mapfiles/place_api/icons/doctor-71.png","id":"96f30d6535038f34f7ec4b8f41371badd2a548c9","name":"Klinikum Weser-Egge - St. Ansgar Krankenhaus Höxter","opening_hours":{"open_now":false},"photos":[{"height":736,"html_attributions":["<a href=\"https://maps.google.com/maps/contrib/110299692168182114526\">Klinikum Weser-Egge - St. Ansgar Krankenhaus Höxter</a>"],"photo_reference":"CmRaAAAAfjvMdk2Lx9tkEG-xVfvOSWafVyi38fwcm4T6ObtiFSF6ZSeWuAjNsVKvpq1bZgpOYZBAdl1lftFGsxi-ZS2qtLuGzpiWAqAUZqqlvKoKYCqAaV-wiqVzETSv1KLWuVL3EhDRVss_Ox0ZfkLzQPdcSGSCGhSclkga32B_3ougXNmboCqcRDQfWg","width":1200}],"place_id":"ChIJbVcIkQXlukcRYj_2Mk6g8A0","plus_code":{"compound_code":"Q9P8+45 Höxter, Germany","global_code":"9F3FQ9P8+45"},"rating":3.4,"reference":"ChIJbVcIkQXlukcRYj_2Mk6g8A0","scope":"GOOGLE","types":["hospital","health","point_of_interest","establishment"],"user_ratings_total":93,"vicinity":"Brenkhäuser Straße 71, Höxter"},{"geometry":{"location":{"lat":51.99029900000001,"lng":9.2481463},"viewport":{"northeast":{"lat":51.9916373302915,"lng":9.249204930291501},"southwest":{"lat":51.9889393697085,"lng":9.246506969708497}}},"icon":"https://maps.gstatic.com/mapfiles/place_api/icons/doctor-71.png","id":"8a72aee16413802d82fed7a70d9dc3835f642764","name":"m & i clinic Bad Pyrmont","opening_hours":{"open_now":false},"photos":[{"height":1080,"html_attributions":["<a href=\"https://maps.google.com/maps/contrib/115103146206502514840\">m&amp;i-Fachklinik Bad Pyrmont</a>"],"photo_reference":"CmRaAAAASUPSC7cjG8CZ4H_07K6XdVw_c0sMGroC9YmWaFWurc8fhIaAZirZebm6r7XpGNO-jDkx3YEF0oXHVgbGL896zJdxNChgWmDw1QO2rItAdMou1C50djtYHTL7pV6bonVTEhBmpGMdote6OIDOuwAFwFO3GhRilegoSUak7xzZWedYtl0iEYheNw","width":2000}],"place_id":"ChIJv1tzVLb0ukcR6C__Ig9NyPk","plus_code":{"compound_code":"X6RX+47 Bad Pyrmont, Germany","global_code":"9F3FX6RX+47"},"rating":4,"reference":"ChIJv1tzVLb0ukcR6C__Ig9NyPk","scope":"GOOGLE","types":["hospital","health","point_of_interest","establishment"],"user_ratings_total":33,"vicinity":"Auf der Schanze 3, Bad Pyrmont"},{"geometry":{"location":{"lat":51.78339,"lng":8.825889899999998},"viewport":{"northeast":{"lat":51.78501438029149,"lng":8.827356880291502},"southwest":{"lat":51.7823164197085,"lng":8.824658919708497}}},"icon":"https://maps.gstatic.com/mapfiles/place_api/icons/generic_business-71.png","id":"0db8b7e7182e451c579a5fc84c7104b60861e079","name":"Quellenpark GmbH","photos":[{"height":4000,"html_attributions":["<a href=\"https://maps.google.com/maps/contrib/103093554035340276853\">sladdi2009</a>"],"photo_reference":"CmRaAAAAdUoYAYXUgqLLTAb5Lb8l6RdvgF-SkuILqzYrf8wFWOk4rNem_IyycVF7daub2p74drbVperlBs1wSpsrHa-TC6scEwSxhTK-ph4I_H0igTF7Fl2sDg-MoCyuoRhTXW9PEhCmVD9KAbhVFEDM_XoNCMMeGhQmsrWCRkjAC-WVScgYRQq_9g6t_Q","width":6016}],"place_id":"ChIJEwe2hXpOukcRRvjm9fLojV4","plus_code":{"compound_code":"QRMG+99 Bad Lippspringe, Germany","global_code":"9F3CQRMG+99"},"reference":"ChIJEwe2hXpOukcRRvjm9fLojV4","scope":"GOOGLE","types":["real_estate_agency","hospital","health","point_of_interest","establishment"],"vicinity":"An der Jordanquelle 2, Bad Lippspringe"},{"geometry":{"location":{"lat":51.45757,"lng":8.841529999999999},"viewport":{"northeast":{"lat":51.4588500802915,"lng":8.843064980291501},"southwest":{"lat":51.4561521197085,"lng":8.840367019708497}}},"icon":"https://maps.gstatic.com/mapfiles/place_api/icons/doctor-71.png","id":"ad9e2de3bb2c2020bc60413142f137aaf0c4786d","name":"LWL-Klinik Marsberg – Kinder- und Jugendpsychiatrie","photos":[{"height":359,"html_attributions":["<a href=\"https://maps.google.com/maps/contrib/112818801647910133615\">LWL-Klinik Marsberg – Kinder- und Jugendpsychiatrie</a>"],"photo_reference":"CmRaAAAAm9NwS145RRx613ezuvHmKoiwTm7yRLOiQ4D0YpDRFV1RKsi5KkXXDEC8HQdH8IevJ9Hj0HAeu7GVcGPW5Zw8wZDVLernNO97dSIOzmg4rR4Yako_jGuw9tRSd2EoOVm4EhCp-EMJK6F1Vb3wtiF6HK-6GhRdBCwoPv0oiIUwht7oGuVfFAcDuA","width":539}],"place_id":"ChIJG44oDEGku0cRSSw9FPP_iOw","plus_code":{"compound_code":"FR5R+2J Marsberg, Germany","global_code":"9F3CFR5R+2J"},"rating":2.5,"reference":"ChIJG44oDEGku0cRSSw9FPP_iOw","scope":"GOOGLE","types":["hospital","health","point_of_interest","establishment"],"user_ratings_total":8,"vicinity":"Bredelarer Straße 33, Marsberg"},{"geometry":{"location":{"lat":51.3570944,"lng":8.4732244},"viewport":{"northeast":{"lat":51.3583342302915,"lng":8.474866280291499},"southwest":{"lat":51.3556362697085,"lng":8.472168319708494}}},"icon":"https://maps.gstatic.com/mapfiles/place_api/icons/doctor-71.png","id":"8a104ef9308e48fed425357f1a08abb0e68181d9","name":"Elisabeth-Klinik Bigge","opening_hours":{"open_now":true},"photos":[{"height":1550,"html_attributions":["<a href=\"https://maps.google.com/maps/contrib/106536405492036519293\">Elisabeth-Klinik Bigge</a>"],"photo_reference":"CmRaAAAA9THSbFy1Uarzjyx14qEwkugcZbhk9V4p7iNujdgRSEoR-U1_IHz9SSUjG6QUAxTzLRreUwYdy2EJbZzrJLtSnoyZ5kJCNpQvKfASJUdYW_2yEza4lcw_KqKR4j7cNqvZEhB_Cst3300VioiTU9-MgfWxGhRMCotPJ1yB8v76qUyjhFh2zlTc9w","width":2048}],"place_id":"ChIJe3S_xJLqu0cRRBcSH_uk3bw","plus_code":{"compound_code":"9F4F+R7 Olsberg, Germany","global_code":"9F3C9F4F+R7"},"rating":4,"reference":"ChIJe3S_xJLqu0cRRBcSH_uk3bw","scope":"GOOGLE","types":["hospital","health","point_of_interest","establishment"],"user_ratings_total":57,"vicinity":"Heinrich-Sommer-Straße 4, Olsberg"},{"geometry":{"location":{"lat":51.78502,"lng":9.36546},"viewport":{"northeast":{"lat":51.7864695302915,"lng":9.367184780291502},"southwest":{"lat":51.7837715697085,"lng":9.364486819708498}}},"icon":"https://maps.gstatic.com/mapfiles/place_api/icons/doctor-71.png","id":"f0e5bf6e5d207d2d2e5ca2a0ffe7c3cf878fc069","name":"St. Ansgar-Krankenhaus Medizinische Klinik II - Gastroenterologie, Onkologie, Diabetologie","photos":[{"height":3840,"html_attributions":["<a href=\"https://maps.google.com/maps/contrib/110608886619316876058\">Ina Razlaf</a>"],"photo_reference":"CmRaAAAAwXoQp1YEhpIzzjB0PHnKD59QDGTiENJ1pGonY7osXuukvd-OhyXB0KEpH04dydMacHYqZTgQsBNqD1LbVX77QZDGqhKmV4BOM6LrHer-8ahus_Wm23pTNz7Da62IphG1EhB5-CsUBbL7rOvnkqz-IGDeGhRbBLwjN7bmTPdFaguJp4Fx-E_c4A","width":2160}],"place_id":"ChIJcRQ-lgXlukcRtcaz67fKi-U","plus_code":{"compound_code":"Q9P8+25 Höxter, Germany","global_code":"9F3FQ9P8+25"},"reference":"ChIJcRQ-lgXlukcRtcaz67fKi-U","scope":"GOOGLE","types":["hospital","health","point_of_interest","establishment"],"vicinity":"Brenkhäuser Straße 71, Höxter"}]