[{"geometry":{"location":{"lat":51.4452039,"lng":7.337368},"viewport":{"northeast":{"lat":51.44755480000001,"lng":7.3393024},"southwest":{"lat":51.44344960000002,"lng":7.334837200000002}}},"icon":"https://maps.gstatic.com/mapfiles/place_api/icons/doctor-71.png","id":"948f59c810ceca750d0413f2782784556d200b9d","name":"Marien Hospital Witten","opening_hours":{"open_now":true},"photos":[{"height":975,"html_attributions":["<a href=\"https://maps.google.com/maps/contrib/103009997845259376046\">aorta besler</a>"],"photo_reference":"CmRaAAAAdufFSFS5DD2tu6eKnCnKrZHiDij6hNNVNYYgPbsboSUJWYm0rRiB6fBhmb1peUAwC0Ji7EzDKyUiggjxjai5tAkdYFKCHypdzgZkxLdWXrkuuvN-1onwzNeEEiGDZvHzEhB5D6iJce5_tuFOtv19Q_YrGhQfQsj2YG9j9yG_VJYwMEfJ5bC65Q","width":1300}],"place_id":"ChIJ6dNasfkhuUcR0qUvdF-bfbU","plus_code":{"compound_code":"C8WP+3W Witten, Germany","global_code":"9F39C8WP+3W"},"rating":3.4,"reference":"ChIJ6dNasfkhuUcR0qUvdF-bfbU","scope":"GOOGLE","types":["hospital","health","point_of_interest","establishment"],"user_ratings_total":174,"vicinity":"Marienplatz 2, Witten"},{"geometry":{"location":{"lat":50.94134870000001,"lng":7.008956299999999},"viewport":{"northeast":{"lat":50.9426910802915,"lng":7.010195380291502},"southwest":{"lat":50.9399931197085,"lng":7.007497419708497}}},"icon":"https://maps.gstatic.com/mapfiles/place_api/icons/doctor-71.png","id":"c8a7050731e408c6955f4294713bf2690c0c96a4","name":"Evangelisches Krankenhaus Kalk gGmbH","opening_hours":{"open_now":true},"photos":[{"height":2322,"html_attributions":["<a href=\"https://maps.google.com/maps/contrib/105095406515583079694\">Alaa Pazzo</a>"],"photo_reference":"CmRaAAAA1dS1igYMcVIfnEOi7-pPE6kavKhhRkn_AnSwh0HPhS1NO7DonsHUSrKm7cubYNHVK3ShASHzXbYA1iIq_jzpcUtTCLRAL4s4_giwkDuy_KGCmVyT_rRSiByng9KLAc8uEhBO02MPod93nLw4vnMvPIYcGhRFc15oCFhijiELQURzbJzVVYY__g","width":4128}],"place_id":"ChIJ2QmkxXEmv0cReEQU5CNTe_E","plus_code":{"compound_code":"W2R5+GH Cologne, Germany","global_code":"9F29W2R5+GH"},"rating":3.1,"reference":"ChIJ2QmkxXEmv0cReEQU5CNTe_E","scope":"GOOGLE","types":["hospital","health","point_of_interest","establishment"],"user_ratings_total":190,"vicinity":"Buchforststraße 2, Köln"},{"geometry":{"location":{"lat":51.3969065,"lng":6.784719199999998},"viewport":{"northeast":{"lat":51.3987869802915,"lng":6.785672730291501},"southwest":{"lat":51.3960890197085,"lng":6.782974769708496}}},"icon":"https://maps.gstatic.com/mapfiles/place_api/icons/doctor-71.png","id":"1a9ac6ef914aaaec558de39704028632512a4bf0","name":"Sana Kliniken Duisburg","opening_hours":{"open_now":true},"photos":[{"height":3024,"html_attributions":["<a href=\"https://maps.google.com/maps/contrib/105965013784143738648\">Objektive Fotografie</a>"],"photo_reference":"CmRaAAAA0m5gtqPuixj4pWU966lPX-YCnAowGm11xRllBkrkUllxFzT4AfKOFIDSru_Td-5ZMRQsgcimeGo6dlE9I1orllvNj3hHMg06uPvxq6_REoJkksvHP_CdybKLBg2wZSWYEhCHfOrck3ZzmEGYU3ORy6CQGhSLU2UttPaisYsqnFQUzBlSZBoFTQ","width":4032}],"place_id":"ChIJOQ-VmK64uEcRP1gm6D57GVQ","plus_code":{"compound_code":"9QWM+QV Duisburg, Germany","global_code":"9F389QWM+QV"},"rating":2.6,"reference":"ChIJOQ-VmK64uEcRP1gm6D57GVQ","scope":"GOOGLE","types":["hospital","health","point_of_interest","establishment"],"user_ratings_total":272,"vicinity":"Zu den Rehwiesen 9-11, Duisburg"},{"geometry":{"location":{"lat":50.9919979,"lng":6.923977199999999},"viewport":{"northeast":{"lat":50.9936475302915,"lng":6.9260625},"southwest":{"lat":50.9909495697085,"lng":6.9232821}}},"icon":"https://maps.gstatic.com/mapfiles/place_api/icons/doctor-71.png","id":"da9e8c77627baf0d9330a25d17b69110c48f3425","name":"Heilig Geist-Krankenhaus","opening_hours":{"open_now":true},"photos":[{"height":572,"html_attributions":["<a href=\"https://maps.google.com/maps/contrib/103360818680299712167\">Heilig Geist-Krankenhaus</a>"],"photo_reference":"CmRaAAAAGmJV5g61WaEEe99h0QS87ybZUoi1Rj7JP4a2B5DGYO4Frc36leemA2dimwPrWHnvmxZv1-txI5Hugi_wWS3JCZSpWuJzSiXXisjxekaOIy8Jzi51yCm72NcCL_yUs75KEhAMSm5f6YVhsXemy7d4PMhDGhSj3osacQlZe8sndSB-Kmax_Hmrtw","width":850}],"place_id":"ChIJ57CGw-svv0cR1hH8JSWLWw0","plus_code":{"compound_code":"XWRF+QH Cologne, Germany","global_code":"9F28XWRF+QH"},"rating":2.8,"reference":"ChIJ57CGw-svv0cR1hH8JSWLWw0","scope":"GOOGLE","types":["hospital","health","point_of_interest","establishment"],"user_ratings_total":173,"vicinity":"Graseggerstraße 105, Köln"},{"geometry":{"location":{"lat":50.9237464,"lng":6.897513499999999},"viewport":{"northeast":{"lat":50.9253011302915,"lng":6.898988480291502},"southwest":{"lat":50.9226031697085,"lng":6.896290519708497}}},"icon":"https://maps.gstatic.com/mapfiles/place_api/icons/doctor-71.png","id":"567958741a0806b5b43c1c64055f4794068ec2d4","name":"St. Elisabeth-Krankenhaus Köln-Hohenlind","opening_hours":{"open_now":true},"photos":[{"height":567,"html_attributions":["<a href=\"https://maps.google.com/maps/contrib/105243105449731633879\">St. Elisabeth-Krankenhaus Köln-Hohenlind</a>"],"photo_reference":"CmRaAAAAJ1jjmRkZI7TrycnibfYkAVthwzYpizp2_zA38NdRshxXG8jzII2Q313yinu9m-iJmh4e7pN-fd5sw6QcIgH5wVId0l7-BcXAdDB3TmtrqX-Qzwc_HHYyMdYBrtd-0DEPEhBzAja9TfQGOgt_tnQ13MCvGhQxd9xMvmSmOLU38OoHt0yJID9s6w","width":851}],"place_id":"ChIJS6xYH84kv0cRSDhNRN4cz8g","plus_code":{"compound_code":"WVFX+F2 Cologne, Germany","global_code":"9F28WVFX+F2"},"rating":3.9,"reference":"ChIJS6xYH84kv0cRSDhNRN4cz8g","scope":"GOOGLE","types":["hospital","health","point_of_interest","establishment"],"user_ratings_total":236,"vicinity":"Werthmannstraße 1, Köln"},{"geometry":{"location":{"lat":50.927612,"lng":6.925112200000001},"viewport":{"northeast":{"lat":50.9289151802915,"lng":6.926266080291502},"southwest":{"lat":50.9262172197085,"lng":6.923568119708498}}},"icon":"https://maps.gstatic.com/mapfiles/place_api/icons/doctor-71.png","id":"003e117eb560b05565a952877a3ba620390f857a","name":"Evangelisches Klinikum Köln Weyertal gGmbH","opening_hours":{"open_now":true},"photos":[{"height":3120,"html_attributions":["<a href=\"https://maps.google.com/maps/contrib/115789363889831169782\">Howin Raul Teica</a>"],"photo_reference":"CmRaAAAAK8N_2N5fbutJMfRt6-sB4pGQE9KGNNaI9tskqUBQHIOz3lB-ln_SfINT2cT_OBu2K1PbMPo-VQ_rgOkNJV_Bf5LY8Yisg5lbs5ESqj5R8ggJGn0wQ1YBPVuvxgUJJD7xEhBluf8bscAHo8IGZXLC2nBqGhRWnyE1sLArCEqiFWjNwjQ2C1ElLg","width":4160}],"place_id":"ChIJ4w2jZOMkv0cRKgHGRfoFFM8","plus_code":{"compound_code":"WWHG+22 Cologne, Germany","global_code":"9F28WWHG+22"},"rating":3.5,"reference":"ChIJ4w2jZOMkv0cRKgHGRfoFFM8","scope":"GOOGLE","types":["hospital","health","point_of_interest","establishment"],"user_ratings_total":142,"vicinity":"Weyertal 76, Köln"},{"geometry":{"location":{"lat":51.3202457,"lng":6.567502499999999},"viewport":{"northeast":{"lat":51.32377865,"lng":6.571534750000001},"southwest":{"lat":51.31906805000001,"lng":6.562277750000001}}},"icon":"https://maps.gstatic.com/mapfiles/place_api/icons/doctor-71.png","id":"f5a64be96b9d74a1881d021438df237d20e50468","name":"Helios Klinikum Krefeld","opening_hours":{"open_now":true},"photos":[{"height":574,"html_attributions":["<a href=\"https://maps.google.com/maps/contrib/115107659526908658643\">Helios Klinikum Krefeld</a>"],"photo_reference":"CmRaAAAA3WOLmzAR7rf0Pn1-6GgbuKVsyFy5xobVoTVWrlU-Lq2FgAVIPFR8JTUmSrf83qHoArVNJ_r6qb7GJimyHwY2i0TmOvKyxOu9frjXY-ZyqxUe1SA0qGIiFSG9FMJkr_3cEhBHkXJudocqkDOCcPApPyGrGhQnRufWqk2JvNNcrI7UB7crcXp3TQ","width":1021}],"place_id":"ChIJ73ezqgSwuEcRIpUmOVkv9lM","plus_code":{"compound_code":"8HC9+32 Krefeld, Germany","global_code":"9F388HC9+32"},"rating":2.9,"reference":"ChIJ73ezqgSwuEcRIpUmOVkv9lM","scope":"GOOGLE","types":["hospital","health","point_of_interest","establishment"],"user_ratings_total":356,"vicinity":"Lutherplatz 40, Krefeld"},{"geometry":{"location":{"lat":50.9473778,"lng":6.96236},"viewport":{"northeast":{"lat":50.9486814802915,"lng":6.963908480291502},"southwest":{"lat":50.9459835197085,"lng":6.961210519708497}}},"icon":"https://maps.gstatic.com/mapfiles/place_api/icons/doctor-71.png","id":"a1cd68e362acaf528099a6e0d045e9b0f744f611","name":"St. Marien-Hospital","opening_hours":{"open_now":true},"photos":[{"height":3456,"html_attributions":["<a href=\"https://maps.google.com/maps/contrib/113329547567259653876\">Wanders Mann</a>"],"photo_reference":"CmRaAAAANsw_AnMq7oGGw-DIq0bPSBKuwOopy0jiAMyDDdtnyI6meX7m0LsSb77UmoczEq9ZDQkVmNk6ycjzdnk5Ke5Do59qmovnV2f8FsNj_7nM-sHAAO12I5pbiUdrRI_dLuiIEhA3ucOJQG7eeMTG6OJeEJwYGhS9iziHeZaT4-xivx31LVXjatQ8uQ","width":4608}],"place_id":"ChIJ4RhV87wlv0cRQa-stQXPssE","plus_code":{"compound_code":"WXW6+XW Cologne, Germany","global_code":"9F28WXW6+XW"},"rating":2.9,"reference":"ChIJ4RhV87wlv0cRQa-stQXPssE","scope":"GOOGLE","types":["hospital","health","point_of_interest","establishment"],"user_ratings_total":95,"vicinity":"Kunibertskloster 11-13, Köln"},{"geometry":{"location":{"lat":51.204577,"lng":7.226809500000001},"viewport":{"northeast":{"lat":51.2058408802915,"lng":7.228299480291502},"southwest":{"lat":51.2031429197085,"lng":7.225601519708498}}},"icon":"https://maps.gstatic.com/mapfiles/place_api/icons/doctor-71.png","id":"9e6758bf33e79def3a2f39dc19ce35e9521ded21","name":"Evangelische Stiftung Tannenhof","opening_hours":{"open_now":true},"photos":[{"height":3120,"html_attributions":["<a href=\"https://maps.google.com/maps/contrib/108980790245439073747\">Thomas Mühleip</a>"],"photo_reference":"CmRaAAAAYt13OWUSRAYk7UR80wCdZBAllD8AcP_R4z6ppbAuTWOrQLIVjZaHVSfVbX_9jsey9iCkKtOvhhyV1tdVCoRG3q3AXfZngn8KUEfRPha3bxLWmYd-rdqJ1PsNU6PUOCWqEhAIqmDQZo09ArLsTfQgjrreGhT_CaCoe9pyPJj6P4tu4PwwcxQbBQ","width":4160}],"place_id":"ChIJ2zvJ99QruUcRslPDer3X38M","plus_code":{"compound_code":"663G+RP Remscheid, Germany","global_code":"9F39663G+RP"},"rating":3.3,"reference":"ChIJ2zvJ99QruUcRslPDer3X38M","scope":"GOOGLE","types":["hospital","health","point_of_interest","establishment"],"user_ratings_total":33,"vicinity":"Remscheider Straße 76, Remscheid"},{"geometry":{"location":{"lat":51.2497572,"lng":7.1332991},"viewport":{"northeast":{"lat":51.2511813802915,"lng":7.134830480291502},"southwest":{"lat":51.2484834197085,"lng":7.132132519708498}}},"icon":"https://maps.gstatic.com/mapfiles/place_api/icons/doctor-71.png","id":"b39a9266a4a012b0766f3aacfc1a258a82a1c854","name":"Helios Herzzentrum Wuppertal","opening_hours":{"open_now":false},"photos":[{"height":955,"html_attributions":["<a href=\"https://maps.google.com/maps/contrib/103154013872834825524\">Helios Herzzentrum Wuppertal</a>"],"photo_reference":"CmRaAAAAsigFA53TT7Anxj_EHJl5YiGSjGAvzQKCwwdweDNc6M7IJBEtsi62g6kntuOX7LeFbapsMKweoNBQu-KgqGyj9CFfXlID1TE4ZBy373V2ff8U6DJ_yFuBQ_wRplOBNXa7EhBnuZrhppvON1hlIG8tYkgGGhRBU2dXsmpp9RuABqSd8KYrgzLvkA","width":1580}],"place_id":"ChIJae1EHFTWuEcRCjPSE3k_fXs","plus_code":{"compound_code":"64XM+W8 Wuppertal, Germany","global_code":"9F3964XM+W8"},"rating":3.8,"reference":"ChIJae1EHFTWuEcRCjPSE3k_fXs","scope":"GOOGLE","types":["hospital","health","point_of_interest","establishment"],"user_ratings_total":49,"vicinity":"Arrenberger Straße 20, Wuppertal"},{"geometry":{"location":{"lat":51.0155118,"lng":7.5680209},"viewport":{"northeast":{"lat":51.0170055302915,"lng":7.569614680291502},"southwest":{"lat":51.0143075697085,"lng":7.566916719708497}}},"icon":"https://maps.gstatic.com/mapfiles/place_api/icons/doctor-71.png","id":"7a608e587b864e109f2039a770a849ccf3c08f70","name":"Kreiskrankenhaus Gummersbach","opening_hours":{"open_now":true},"photos":[{"height":3264,"html_attributions":["<a href=\"https://maps.google.com/maps/contrib/114531160574272138248\">Christian Knoll</a>"],"photo_reference":"CmRZAAAApD8UhXDqGf3X4ZLnJfJakoXryjGbssAdZEjGFfFBasgjsz1EIC2oY92aOY8wj9aZBF2pyp3XU0uX05S9YiKj5acsxB4tmSDCMsFBNtDJLfQe-PH6ed07lZzcVLZlb6ClEhAZFsTECzx34rFUbLDuAYn-GhRIRQoxSiSBeDcFtZgGoBV318Rixw","width":2448}],"place_id":"ChIJZZtTmQu2vkcRDGCRKOa5Axk","plus_code":{"compound_code":"2H89+66 Gummersbach, Germany","global_code":"9F392H89+66"},"rating":2.7,"reference":"ChIJZZtTmQu2vkcRDGCRKOa5Axk","scope":"GOOGLE","types":["hospital","health","point_of_interest","establishment"],"user_ratings_total":177,"vicinity":"Wilhelm - Breckow - Allee 20, Gummersbach"},{"geometry":{"location":{"lat":51.30979670000001,"lng":7.238013499999999},"viewport":{"northeast":{"lat":51.3110740802915,"lng":7.239453930291502},"southwest":{"lat":51.3083761197085,"lng":7.236755969708497}}},"icon":"https://maps.gstatic.com/mapfiles/place_api/icons/generic_business-71.png","id":"bf35b468cdd24061704efb3bce09bd04b09f673c","name":"Dr. Becker Klinik Juliana","photos":[{"height":1000,"html_attributions":["<a href=\"https://maps.google.com/maps/contrib/103333416056333797348\">Dr. Becker Klinik Juliana</a>"],"photo_reference":"CmRaAAAAA6MznGUREKM3QaZKRcb-9sDNDL43VuJO_586A_MCTrnhpSPIj9GV55XOd6VAmyato_Si4rCa4CfWRHMUdrmPxKwPXrbgikhAAMP5OodZVmyILBXjDBegGZX9v4LVjL3ZEhDuQtBOXIwMj-YLuVgO2A3QGhRyRur4sNHd56ovJ-4X4so0geuL5w","width":1500}],"place_id":"ChIJRdZkh8gnuUcRa14f4IhY2OY","plus_code":{"compound_code":"865Q+W6 Wuppertal, Germany","global_code":"9F39865Q+W6"},"rating":2.7,"reference":"ChIJRdZkh8gnuUcRa14f4IhY2OY","scope":"GOOGLE","types":["hospital","health","point_of_interest","establishment"],"user_ratings_total":26,"vicinity":"Mollenkotten 195, Wuppertal"},{"geometry":{"location":{"lat":50.9325316,"lng":6.980867700000001},"viewport":{"northeast":{"lat":50.9340209802915,"lng":6.981742430291503},"southwest":{"lat":50.9313230197085,"lng":6.979044469708499}}},"icon":"https://maps.gstatic.com/mapfiles/place_api/icons/doctor-71.png","id":"1202c777ecbec6058a71d91b1f4fc32765d73db3","name":"Eduardus-Krankenhaus","opening_hours":{"open_now":true},"photos":[{"height":819,"html_attributions":["<a href=\"https://maps.google.com/maps/contrib/105354381553159856298\">Eduardus-Krankenhaus</a>"],"photo_reference":"CmRaAAAAru-Non_tlC-PtNg0GFbOBSmMgXmJcW05s5dx2WElucNS6Gtam6o50fhFm_uh72jF0_su5U3h74gLJAnYzXezJguSc8Njz_XkXzkMXor6_4_oc7KcF_jTDL1NCf7LQ2VIEhDa32OvfPSNoqiYcOntYsGwGhQQ2byxIPNVAun7k9RHXXWWHbOAAQ","width":1229}],"place_id":"ChIJZ4Ldvc0lv0cRtg49nlVCSGQ","plus_code":{"compound_code":"WXMJ+28 Cologne, Germany","global_code":"9F28WXMJ+28"},"rating":3.5,"reference":"ChIJZ4Ldvc0lv0cRtg49nlVCSGQ","scope":"GOOGLE","types":["hospital","health","point_of_interest","establishment"],"user_ratings_total":175,"vicinity":"Custodisstraße 3-17, Köln"},{"geometry":{"location":{"lat":51.44518540000001,"lng":7.0327251},"viewport":{"northeast":{"lat":51.4467840802915,"lng":7.034221080291502},"southwest":{"lat":51.4440861197085,"lng":7.031523119708498}}},"icon":"https://maps.gstatic.com/mapfiles/place_api/icons/doctor-71.png","id":"311869caf41ea27276515e3c19132a5aaa47b4de","name":"Elisabeth-Krankenhaus Essen","opening_hours":{"open_now":true},"photos":[{"height":2976,"html_attributions":["<a href=\"https://maps.google.com/maps/contrib/115843508939075461318\">Michael</a>"],"photo_reference":"CmRaAAAAXwR6gk_XiHYCdm-Extc1GKe9GBbu2h4IFkfmxQS0i7j3uPXodDWWsGHkAJO4f_Fe0T5xZkCMx0qu97-fbUs49lJ0yMwifzqLYkztxcAStndE0hZLggOWTH1HyF2jFxbfEhAQDwj6pNgRAsdF0SqSPJ4kGhRqjtYpf1pmPWQaIFHUffHBGCi4-Q","width":3968}],"place_id":"ChIJIX3BCTrduEcRVxB4WBRvH5E","plus_code":{"compound_code":"C2WM+33 Essen, Germany","global_code":"9F39C2WM+33"},"rating":3.4,"reference":"ChIJIX3BCTrduEcRVxB4WBRvH5E","scope":"GOOGLE","types":["hospital","health","point_of_interest","establishment"],"user_ratings_total":182,"vicinity":"Klara-Kopp-Weg 1, Essen"},{"geometry":{"location":{"lat":51.2117305,"lng":6.7607537},"viewport":{"northeast":{"lat":51.2131457302915,"lng":6.762124730291502},"southwest":{"lat":51.2104477697085,"lng":6.759426769708497}}},"icon":"https://maps.gstatic.com/mapfiles/place_api/icons/doctor-71.png","id":"a8422e2b7ec59248bd1a83f1d627651273dfb9dd","name":"St. Martin's Hospital Dusseldorf","opening_hours":{"open_now":true},"photos":[{"height":4032,"html_attributions":["<a href=\"https://maps.google.com/maps/contrib/100436402754564177445\">Elke Pusch</a>"],"photo_reference":"CmRaAAAAgdmvw6W-DxuR2iVvk6-YjK6w7QFwnDrVl4tzSlGAxbAzCrq19HneNk2z7JvtLqhGQLY7RURZc19kZ8xQjMB9VoXZpdG6e1Ss741SYQiARinm1PlsxwRi_Iolv7_YYsq1EhBMg2SuE3k8C49_zMcBE2BzGhSVX0VK_cPFjBuVQ0OMKOwSo0sQmA","width":3024}],"place_id":"ChIJxWV2kG3KuEcRnXYzAFxHZls","plus_code":{"compound_code":"6Q66+M8 Düsseldorf, Germany","global_code":"9F386Q66+M8"},"rating":3.7,"reference":"ChIJxWV2kG3KuEcRnXYzAFxHZls","scope":"GOOGLE","types":["hospital","health","point_of_interest","establishment"],"user_ratings_total":96,"vicinity":"Gladbacher Straße 26, Düsseldorf"},{"geometry":{"location":{"lat":50.9871227,"lng":6.960106299999999},"viewport":{"northeast":{"lat":50.9890145302915,"lng":6.961398230291502},"southwest":{"lat":50.9863165697085,"lng":6.958700269708499}}},"icon":"https://maps.gstatic.com/mapfiles/place_api/icons/doctor-71.png","id":"373ec0cc817f9bb21e88d9c8f8817e8d95a593d3","name":"St. Agatha hospital Cologne","opening_hours":{"open_now":true},"photos":[{"height":1536,"html_attributions":["<a href=\"https://maps.google.com/maps/contrib/116557121844111024530\">Patrick Obytz</a>"],"photo_reference":"CmRZAAAAMnHel9HxWe0h4xTYPKGjj_gRSx3s93zmTPRiNYKS7O_M8mtCm8nbTI-YIyOUPfPNWdoU5_4VkeFsxYDYlruyR3iEaERxwBRN-1d-x3cIXYux1YfuquNCgcyqgEqF27E9EhDB0qo3oegz81xrLmoXPY3gGhRYdnHxP5yaAAOkTeQOwJTBywx8fw","width":2048}],"place_id":"ChIJvbA0dXYvv0cR5FvODqypEl4","plus_code":{"compound_code":"XXP6+R2 Cologne, Germany","global_code":"9F28XXP6+R2"},"rating":3.2,"reference":"ChIJvbA0dXYvv0cR5FvODqypEl4","scope":"GOOGLE","types":["hospital","health","point_of_interest","establishment"],"user_ratings_total":88,"vicinity":"Feldgärtenstraße 97, Köln"},{"geometry":{"location":{"lat":51.4683754,"lng":7.211418099999999},"viewport":{"northeast":{"lat":51.470882,"lng":7.214177100000001},"southwest":{"lat":51.46593160000001,"lng":7.2088903}}},"icon":"https://maps.gstatic.com/mapfiles/place_api/icons/doctor-71.png","id":"ebb0275243140ef8a90b8ee69fe63894d95a6a5f","name":"BG University Hospital Bergmannsheil Bochum","opening_hours":{"open_now":true},"photos":[{"height":1334,"html_attributions":["<a href=\"https://maps.google.com/maps/contrib/110199963261809798111\">BG Universitätsklinikum Bergmannsheil Bochum</a>"],"photo_reference":"CmRaAAAAYfS3O2jMwBmBfwtoEKzfb7v1TxQ_Pj5Qv8Iim8ez3xkSnPD256Ls4v8s4mZsplNj2Ku2bDaDAzrnKIXMLAtY27mm9OzQjAJ0nNR5D5qLKYCFga229JnoEURxL7pOaUslEhC2aiKzZP7v75lx3p20gE0zGhT-0My_1J_sBeuX4jdtUCs7I9ze0Q","width":2048}],"place_id":"ChIJIajTR3PguEcR-ruBjY4KCwU","plus_code":{"compound_code":"F696+9H Bochum, Germany","global_code":"9F39F696+9H"},"rating":3.1,"reference":"ChIJIajTR3PguEcR-ruBjY4KCwU","scope":"GOOGLE","types":["hospital","health","point_of_interest","establishment"],"user_ratings_total":236,"vicinity":"Bürkle de la Camp-Platz 1, Bochum"},{"geometry":{"location":{"lat":51.5080665,"lng":7.457942999999998},"viewport":{"northeast":{"lat":51.50942278029149,"lng":7.4594405802915},"southwest":{"lat":51.5067248197085,"lng":7.456742619708495}}},"icon":"https://maps.gstatic.com/mapfiles/place_api/icons/doctor-71.png","id":"961d610f546ddbb9a8e2ec515fb6af3a8bc86cc5","name":"Klinikum Dortmund - Endokrinologie, Diabetologie, Rheumatologie","opening_hours":{"open_now":true},"photos":[{"height":4032,"html_attributions":["<a href=\"https://maps.google.com/maps/contrib/106588741215207176927\">Ulrike Less</a>"],"photo_reference":"CmRaAAAAJCibztgk1fpr1CEq41JRs9_v6J3y_JHx-g0yDGvY92o0nkDBnr-iVajBSnWYJtkDdDI__fAcVRUUIajwG_yipi_8jOlQle6FBFvuX1tzXkD76RwZeOHERmhTcBhL_i8PEhDZjiA0KdwNnXOu5HovSwCvGhT1l5xgahdiyFIU1bMbY9o-BGAN1g","width":3024}],"place_id":"ChIJ10Q12t0ZuUcRtxWD2noTICk","plus_code":{"compound_code":"GF55+65 Dortmund, Germany","global_code":"9F39GF55+65"},"rating":2.9,"reference":"ChIJ10Q12t0ZuUcRtxWD2noTICk","scope":"GOOGLE","types":["hospital","doctor","health","point_of_interest","establishment"],"user_ratings_total":266,"vicinity":"Beurhausstraße 40, Dortmund"},{"geometry":{"location":{"lat":51.42622409999999,"lng":7.0077929},"viewport":{"northeast":{"lat":51.42779208029149,"lng":7.008865080291502},"southwest":{"lat":51.42509411970849,"lng":7.006167119708498}}},"icon":"https://maps.gstatic.com/mapfiles/place_api/icons/doctor-71.png","id":"224004996959c9470e8baeff35086eaae7cf0f47","name":"Alfried Krupp Hospital Ruettenscheid","opening_hours":{"open_now":true},"photos":[{"height":2448,"html_attributions":["<a href=\"https://maps.google.com/maps/contrib/100536928769676429338\">Rainer Richter</a>"],"photo_reference":"CmRaAAAAZqn5Fq8GVMKuDE-KQwye9bBalaO8hw8J1H9XZRKqjo_r69_8Vxob_FHX0KykQWJdlFy9nUhBMc0fV8_oKbM8c1sqpFxj8r2ebkUIxsuUzeKwhmNyZkFAEHnO-H8sFtrrEhAG7GnIgEHBg-xNkZhQLPTrGhSBwJlREPfaZEAa08d3nBod-2JO0A","width":3264}],"place_id":"ChIJA59SDyzDuEcRgszc1zjTzt0","plus_code":{"compound_code":"C2G5+F4 Essen, Germany","global_code":"9F39C2G5+F4"},"rating":3.6,"reference":"ChIJA59SDyzDuEcRgszc1zjTzt0","scope":"GOOGLE","types":["hospital","health","point_of_interest","establishment"],"user_ratings_total":218,"vicinity":"Alfried-Krupp-Straße 21, Essen"},{"geometry":{"location":{"lat":51.22411109999999,"lng":6.7796458},"viewport":{"northeast":{"lat":51.22546183029149,"lng":6.780831230291502},"southwest":{"lat":51.22276386970849,"lng":6.778133269708498}}},"icon":"https://maps.gstatic.com/mapfiles/place_api/icons/shopping-71.png","id":"6c31d9af95a59f9d8fe9d290712a2348a4d4ca4c","name":"Smash","place_id":"ChIJkZlUKj3KuEcRATOYD2bIwSk","plus_code":{"compound_code":"6QFH+JV Düsseldorf, Germany","global_code":"9F386QFH+JV"},"rating":5,"reference":"ChIJkZlUKj3KuEcRATOYD2bIwSk","scope":"GOOGLE","types":["hospital","health","point_of_interest","store","establishment"],"user_ratings_total":2,"vicinity":"Königsallee 36, Düsseldorf"}]